[
    {
        "id": 8762,
        "title": "Набережное",
        "lng": "61.189347",
        "lat": "52.754648",
        "timezone": "5",
        "region": "Қостанай облысы",
        "district": "Денисов ауданы",
        "distance": null
    },
    {
        "id": 9736,
        "title": "Набережное",
        "lng": "76.712855",
        "lat": "52.675050",
        "timezone": "5",
        "region": "Павлодар облысы",
        "district": "Павлодар қаласы",
        "distance": null
    },
    {
        "id": 9192,
        "title": "Нагорное",
        "lng": "62.964984",
        "lat": "52.843505",
        "timezone": "5",
        "region": "Қостанай облысы",
        "district": "Бейімбет майлин ауданы",
        "distance": null
    },
    {
        "id": 10117,
        "title": "Нагорное",
        "lng": "69.414277",
        "lat": "53.958605",
        "timezone": "5",
        "region": "Солтүстік Қазақстан облысы",
        "district": "Тайынша ауданы",
        "distance": null
    },
    {
        "id": 9678,
        "title": "Надаровка",
        "lng": "77.766894",
        "lat": "52.801500",
        "timezone": "5",
        "region": "Павлодар облысы",
        "district": "Успен ауданы",
        "distance": null
    },
    {
        "id": 8874,
        "title": "Надеждинка",
        "lng": "61.930538",
        "lat": "53.722846",
        "timezone": "5",
        "region": "Қостанай облысы",
        "district": "Қарабалық ауданы",
        "distance": null
    },
    {
        "id": 9163,
        "title": "Надеждинка",
        "lng": "63.743249",
        "lat": "53.760294",
        "timezone": "5",
        "region": "Қостанай облысы",
        "district": "Қостанай ауданы",
        "distance": null
    },
    {
        "id": 10104,
        "title": "Надеждинка",
        "lng": "69.860839",
        "lat": "53.912373",
        "timezone": "5",
        "region": "Солтүстік Қазақстан облысы",
        "district": "Тайынша ауданы",
        "distance": null
    },
    {
        "id": 9957,
        "title": "Надежка",
        "lng": "68.809460",
        "lat": "54.621502",
        "timezone": "5",
        "region": "Солтүстік Қазақстан облысы",
        "district": "Қызылжар ауданы",
        "distance": null
    },
    {
        "id": 10013,
        "title": "Надежка",
        "lng": "71.016971",
        "lat": "54.738806",
        "timezone": "5",
        "region": "Солтүстік Қазақстан облысы",
        "district": "Мағжан жұмабаев ауданы",
        "distance": null
    },
    {
        "id": 9729,
        "title": "Назаровка",
        "lng": "78.351463",
        "lat": "52.531179",
        "timezone": "5",
        "region": "Павлодар облысы",
        "district": "Шарбақты ауданы",
        "distance": null
    },
    {
        "id": 9967,
        "title": "Налобино",
        "lng": "68.789427",
        "lat": "55.242566",
        "timezone": "5",
        "region": "Солтүстік Қазақстан облысы",
        "district": "Қызылжар ауданы",
        "distance": null
    },
    {
        "id": 8413,
        "title": "Нарманбет",
        "lng": "75.665617",
        "lat": "47.598241",
        "timezone": "5",
        "region": "Қарағанды облысы",
        "district": "Ақтоғай ауданы",
        "distance": null
    },
    {
        "id": 9400,
        "title": "Нартай Бекежанов",
        "lng": "66.784540",
        "lat": "44.190827",
        "timezone": "5",
        "region": "Қызылорда облысы",
        "district": "Шиелі ауданы",
        "distance": null
    },
    {
        "id": 7289,
        "title": "Нарын",
        "lng": "50.529175",
        "lat": "47.039584",
        "timezone": "5",
        "region": "Атырау облысы",
        "district": "Исатай ауданы",
        "distance": null
    },
    {
        "id": 10137,
        "title": "Нарынғұл",
        "lng": "66.810169",
        "lat": "53.556625",
        "timezone": "5",
        "region": "Солтүстік Қазақстан облысы",
        "district": "Тимирязев ауданы",
        "distance": null
    },
    {
        "id": 7173,
        "title": "Нарынқол",
        "lng": "80.176229",
        "lat": "42.726510",
        "timezone": "5",
        "region": "Алматы облысы",
        "district": "Райымбек ауданы",
        "distance": null
    },
    {
        "id": 6018,
        "title": "Науалы",
        "lng": "81.748631",
        "lat": "46.999615",
        "timezone": "5",
        "region": "Абай облысы",
        "district": "Үржар ауданы",
        "distance": null
    },
    {
        "id": 6053,
        "title": "Наумовка",
        "lng": "70.353628",
        "lat": "52.130937",
        "timezone": "5",
        "region": "Ақмола облысы",
        "district": "Ақкөл ауданы",
        "distance": null
    },
    {
        "id": 10570,
        "title": "Наурыз",
        "lng": "68.545014",
        "lat": "40.693372",
        "timezone": "5",
        "region": "Түркістан облысы",
        "district": "Мақтаарал ауданы",
        "distance": null
    },
    {
        "id": 6251,
        "title": "Наурызбай батыр",
        "lng": "70.492516",
        "lat": "53.272796",
        "timezone": "5",
        "region": "Ақмола облысы",
        "district": "Бурабай ауданы",
        "distance": null
    },
    {
        "id": 8856,
        "title": "Научное",
        "lng": "62.102952",
        "lat": "53.851219",
        "timezone": "5",
        "region": "Қостанай облысы",
        "district": "Қарабалық ауданы",
        "distance": null
    },
    {
        "id": 7457,
        "title": "Науша",
        "lng": "48.710239",
        "lat": "48.526565",
        "timezone": "5",
        "region": "Батыс Қазақстан облысы",
        "district": "Бөкей ордасы ауданы",
        "distance": null
    },
    {
        "id": 6350,
        "title": "Нахимовка",
        "lng": "66.672718",
        "lat": "51.116160",
        "timezone": "5",
        "region": "Ақмола облысы",
        "district": "Жарқайың ауданы",
        "distance": null
    },
    {
        "id": 11298,
        "title": "Нағи Ілиясов",
        "lng": "65.102526",
        "lat": "44.908806",
        "timezone": "5",
        "region": "Қызылорда облысы",
        "district": "Сырдария ауданы",
        "distance": null
    },
    {
        "id": 10195,
        "title": "Неждановка",
        "lng": "67.715500",
        "lat": "53.617196",
        "timezone": "5",
        "region": "Солтүстік Қазақстан облысы",
        "district": "Шал ақын ауданы",
        "distance": null
    },
    {
        "id": 10229,
        "title": "Нежинка",
        "lng": "66.745634",
        "lat": "53.060587",
        "timezone": "5",
        "region": "Солтүстік Қазақстан облысы",
        "district": "Ғабит мүсірепов ауданы",
        "distance": null
    },
    {
        "id": 6003,
        "title": "Некрасовка",
        "lng": "81.406283",
        "lat": "47.241499",
        "timezone": "5",
        "region": "Абай облысы",
        "district": "Үржар ауданы",
        "distance": null
    },
    {
        "id": 8769,
        "title": "Некрасовка",
        "lng": "61.753795",
        "lat": "52.429344",
        "timezone": "5",
        "region": "Қостанай облысы",
        "district": "Денисов ауданы",
        "distance": null
    },
    {
        "id": 9169,
        "title": "Нечаевка",
        "lng": "63.966094",
        "lat": "53.356304",
        "timezone": "5",
        "region": "Қостанай облысы",
        "district": "Қостанай ауданы",
        "distance": null
    },
    {
        "id": 6303,
        "title": "Нижный торғай",
        "lng": "72.713743",
        "lat": "51.783145",
        "timezone": "5",
        "region": "Ақмола облысы",
        "district": "Ерейментау ауданы",
        "distance": null
    },
    {
        "id": 10684,
        "title": "Низамабад",
        "lng": "69.971898",
        "lat": "42.338151",
        "timezone": "5",
        "region": "Түркістан облысы",
        "district": "Сайрам ауданы",
        "distance": null
    },
    {
        "id": 6847,
        "title": "Никелтау",
        "lng": "58.226749",
        "lat": "50.399148",
        "timezone": "5",
        "region": "Ақтөбе облысы",
        "district": "Хромтау ауданы",
        "distance": null
    },
    {
        "id": 6083,
        "title": "Николаевка",
        "lng": "72.438986",
        "lat": "51.095484",
        "timezone": "5",
        "region": "Ақмола облысы",
        "district": "Аршалы ауданы",
        "distance": null
    },
    {
        "id": 6252,
        "title": "Николаевка",
        "lng": "69.611907",
        "lat": "52.472428",
        "timezone": "5",
        "region": "Ақмола облысы",
        "district": "Бурабай ауданы",
        "distance": null
    },
    {
        "id": 8595,
        "title": "Николаевка",
        "lng": "72.291770",
        "lat": "50.279353",
        "timezone": "5",
        "region": "Қарағанды облысы",
        "district": "Осакаров ауданы",
        "distance": null
    },
    {
        "id": 9186,
        "title": "Николаевка",
        "lng": "62.402289",
        "lat": "52.884991",
        "timezone": "5",
        "region": "Қостанай облысы",
        "district": "Бейімбет майлин ауданы",
        "distance": null
    },
    {
        "id": 9702,
        "title": "Николаевка",
        "lng": "78.637909",
        "lat": "52.444991",
        "timezone": "5",
        "region": "Павлодар облысы",
        "district": "Шарбақты ауданы",
        "distance": null
    },
    {
        "id": 9852,
        "title": "Николаевка",
        "lng": "67.804927",
        "lat": "54.200776",
        "timezone": "5",
        "region": "Солтүстік Қазақстан облысы",
        "district": "Есіл ауданы",
        "distance": null
    },
    {
        "id": 11001,
        "title": "Никольск",
        "lng": "83.951004",
        "lat": "49.573498",
        "timezone": "5",
        "region": "Шығыс Қазақстан облысы",
        "district": "Алтай ауданы",
        "distance": null
    },
    {
        "id": 9766,
        "title": "Никольско-бурлукское",
        "lng": "67.634625",
        "lat": "53.211509",
        "timezone": "5",
        "region": "Солтүстік Қазақстан облысы",
        "district": "Айыртау ауданы",
        "distance": null
    },
    {
        "id": 6197,
        "title": "Никольское",
        "lng": "70.595731",
        "lat": "52.263802",
        "timezone": "5",
        "region": "Ақмола облысы",
        "district": "Бұланды ауданы",
        "distance": null
    },
    {
        "id": 9772,
        "title": "Никольское",
        "lng": "67.519766",
        "lat": "53.232411",
        "timezone": "5",
        "region": "Солтүстік Қазақстан облысы",
        "district": "Айыртау ауданы",
        "distance": null
    },
    {
        "id": 8615,
        "title": "Нияз",
        "lng": "73.298718",
        "lat": "50.827612",
        "timezone": "5",
        "region": "Қарағанды облысы",
        "district": "Осакаров ауданы",
        "distance": null
    },
    {
        "id": 9040,
        "title": "Новасильевка",
        "lng": "65.279628",
        "lat": "53.701268",
        "timezone": "5",
        "region": "Қостанай облысы",
        "district": "Ұзынкөл ауданы",
        "distance": null
    },
    {
        "id": 7725,
        "title": "Новая точка",
        "lng": "51.448933",
        "lat": "50.728943",
        "timezone": "5",
        "region": "Батыс Қазақстан облысы",
        "district": "Теректі ауданы",
        "distance": null
    },
    {
        "id": 5885,
        "title": "Ново-Васильевка",
        "lng": "81.419578",
        "lat": "50.460472",
        "timezone": "5",
        "region": "Абай облысы",
        "district": "Бородулиха ауданы",
        "distance": null
    },
    {
        "id": 11192,
        "title": "Ново-азовое",
        "lng": "81.722185",
        "lat": "50.198141",
        "timezone": "5",
        "region": "Шығыс Қазақстан облысы",
        "district": "Ұлан ауданы",
        "distance": null
    },
    {
        "id": 11009,
        "title": "Ново-крестянка",
        "lng": "84.425629",
        "lat": "49.634979",
        "timezone": "5",
        "region": "Шығыс Қазақстан облысы",
        "district": "Алтай ауданы",
        "distance": null
    },
    {
        "id": 11208,
        "title": "Ново-одеское",
        "lng": "82.311812",
        "lat": "50.020015",
        "timezone": "5",
        "region": "Шығыс Қазақстан облысы",
        "district": "Ұлан ауданы",
        "distance": null
    },
    {
        "id": 9968,
        "title": "Новоалександровка",
        "lng": "68.507608",
        "lat": "54.499072",
        "timezone": "5",
        "region": "Солтүстік Қазақстан облысы",
        "district": "Қызылжар ауданы",
        "distance": null
    },
    {
        "id": 8679,
        "title": "Новоалексеевка",
        "lng": "64.672565",
        "lat": "52.910067",
        "timezone": "5",
        "region": "Қостанай облысы",
        "district": "Алтынсарин ауданы",
        "distance": null
    },
    {
        "id": 6253,
        "title": "Новоандреевка",
        "lng": "69.681436",
        "lat": "52.653509",
        "timezone": "5",
        "region": "Ақмола облысы",
        "district": "Бурабай ауданы",
        "distance": null
    },
    {
        "id": 10052,
        "title": "Новоандреевка",
        "lng": "68.398238",
        "lat": "54.687634",
        "timezone": "5",
        "region": "Солтүстік Қазақстан облысы",
        "district": "Мамлют ауданы",
        "distance": null
    },
    {
        "id": 5818,
        "title": "Новобаженово",
        "lng": "81.028119",
        "lat": "50.384154",
        "timezone": "5",
        "region": "Абай облысы",
        "district": "Жаңасемей ауданы",
        "distance": null
    },
    {
        "id": 8996,
        "title": "Новобарвиновка",
        "lng": "65.681553",
        "lat": "53.521741",
        "timezone": "5",
        "region": "Қостанай облысы",
        "district": "Сарыкөл ауданы",
        "distance": null
    },
    {
        "id": 10120,
        "title": "Новоберезовка",
        "lng": "70.331421",
        "lat": "53.695351",
        "timezone": "5",
        "region": "Солтүстік Қазақстан облысы",
        "district": "Тайынша ауданы",
        "distance": null
    },
    {
        "id": 6206,
        "title": "Новобратское",
        "lng": "69.583201",
        "lat": "52.050041",
        "timezone": "5",
        "region": "Ақмола облысы",
        "district": "Бұланды ауданы",
        "distance": null
    },
    {
        "id": 9946,
        "title": "Новогеоргиевка",
        "lng": "69.861180",
        "lat": "55.071113",
        "timezone": "5",
        "region": "Солтүстік Қазақстан облысы",
        "district": "Қызылжар ауданы",
        "distance": null
    },
    {
        "id": 6559,
        "title": "Новографское",
        "lng": "70.951296",
        "lat": "51.733801",
        "timezone": "5",
        "region": "Ақмола облысы",
        "district": "Шортанды ауданы",
        "distance": null
    },
    {
        "id": 10083,
        "title": "Новогречановка",
        "lng": "70.428969",
        "lat": "53.861915",
        "timezone": "5",
        "region": "Солтүстік Қазақстан облысы",
        "district": "Тайынша ауданы",
        "distance": null
    },
    {
        "id": 10125,
        "title": "Новодворовка",
        "lng": "70.312467",
        "lat": "53.846577",
        "timezone": "5",
        "region": "Солтүстік Қазақстан облысы",
        "district": "Тайынша ауданы",
        "distance": null
    },
    {
        "id": 6485,
        "title": "Новодобринка",
        "lng": "69.163363",
        "lat": "52.454045",
        "timezone": "5",
        "region": "Ақмола облысы",
        "district": "Сандықтау ауданы",
        "distance": null
    },
    {
        "id": 6212,
        "title": "Новодонецкое",
        "lng": "69.983399",
        "lat": "52.077960",
        "timezone": "5",
        "region": "Ақмола облысы",
        "district": "Бұланды ауданы",
        "distance": null
    },
    {
        "id": 10045,
        "title": "Новодубровное",
        "lng": "67.984007",
        "lat": "54.807674",
        "timezone": "5",
        "region": "Солтүстік Қазақстан облысы",
        "district": "Мамлют ауданы",
        "distance": null
    },
    {
        "id": 9016,
        "title": "Новое",
        "lng": "65.241567",
        "lat": "53.215947",
        "timezone": "5",
        "region": "Қостанай облысы",
        "district": "Сарыкөл ауданы",
        "distance": null
    },
    {
        "id": 10118,
        "title": "Новоивановка",
        "lng": "69.690869",
        "lat": "53.885570",
        "timezone": "5",
        "region": "Солтүстік Қазақстан облысы",
        "district": "Тайынша ауданы",
        "distance": null
    },
    {
        "id": 10231,
        "title": "Новоишимское",
        "lng": "66.809397",
        "lat": "53.205857",
        "timezone": "5",
        "region": "Солтүстік Қазақстан облысы",
        "district": "Ғабит мүсірепов ауданы",
        "distance": null
    },
    {
        "id": 9203,
        "title": "Новойлиновка",
        "lng": "62.693271",
        "lat": "52.635679",
        "timezone": "5",
        "region": "Қостанай облысы",
        "district": "Бейімбет майлин ауданы",
        "distance": null
    },
    {
        "id": 9937,
        "title": "Новокаменка",
        "lng": "68.978055",
        "lat": "54.711291",
        "timezone": "5",
        "region": "Солтүстік Қазақстан облысы",
        "district": "Қызылжар ауданы",
        "distance": null
    },
    {
        "id": 6188,
        "title": "Новокиевка",
        "lng": "69.949527",
        "lat": "52.483571",
        "timezone": "5",
        "region": "Ақмола облысы",
        "district": "Бұланды ауданы",
        "distance": null
    },
    {
        "id": 6549,
        "title": "Новокубанка",
        "lng": "70.729199",
        "lat": "51.672084",
        "timezone": "5",
        "region": "Ақмола облысы",
        "district": "Шортанды ауданы",
        "distance": null
    },
    {
        "id": 6144,
        "title": "Новомариновка",
        "lng": "68.432212",
        "lat": "51.407654",
        "timezone": "5",
        "region": "Ақмола облысы",
        "district": "Атбасар ауданы",
        "distance": null
    },
    {
        "id": 6294,
        "title": "Новомарковка",
        "lng": "72.292535",
        "lat": "51.719164",
        "timezone": "5",
        "region": "Ақмола облысы",
        "district": "Ерейментау ауданы",
        "distance": null
    },
    {
        "id": 10055,
        "title": "Новомихайловка",
        "lng": "68.192074",
        "lat": "54.655219",
        "timezone": "5",
        "region": "Солтүстік Қазақстан облысы",
        "district": "Мамлют ауданы",
        "distance": null
    },
    {
        "id": 8743,
        "title": "Новонежин",
        "lng": "64.033218",
        "lat": "52.535099",
        "timezone": "5",
        "region": "Қостанай облысы",
        "district": "Әулиекөл ауданы",
        "distance": null
    },
    {
        "id": 8669,
        "title": "Новониколаевка",
        "lng": "64.385814",
        "lat": "53.011160",
        "timezone": "5",
        "region": "Қостанай облысы",
        "district": "Алтынсарин ауданы",
        "distance": null
    },
    {
        "id": 8981,
        "title": "Новониколаевка",
        "lng": "64.341221",
        "lat": "53.983042",
        "timezone": "5",
        "region": "Қостанай облысы",
        "district": "Меңдіқара ауданы",
        "distance": null
    },
    {
        "id": 6473,
        "title": "Новониколское",
        "lng": "68.737522",
        "lat": "52.731314",
        "timezone": "5",
        "region": "Ақмола облысы",
        "district": "Сандықтау ауданы",
        "distance": null
    },
    {
        "id": 9969,
        "title": "Новониколское",
        "lng": "68.690792",
        "lat": "54.525285",
        "timezone": "5",
        "region": "Солтүстік Қазақстан облысы",
        "district": "Қызылжар ауданы",
        "distance": null
    },
    {
        "id": 9980,
        "title": "Новоникольское",
        "lng": "69.490975",
        "lat": "55.022747",
        "timezone": "5",
        "region": "Солтүстік Қазақстан облысы",
        "district": "Қызылжар ауданы",
        "distance": null
    },
    {
        "id": 8923,
        "title": "Новопавловка",
        "lng": "64.864265",
        "lat": "52.552769",
        "timezone": "5",
        "region": "Қостанай облысы",
        "district": "Қарасу ауданы",
        "distance": null
    },
    {
        "id": 6551,
        "title": "Новопервомаиское",
        "lng": "71.504873",
        "lat": "51.652348",
        "timezone": "5",
        "region": "Ақмола облысы",
        "district": "Шортанды ауданы",
        "distance": null
    },
    {
        "id": 5892,
        "title": "Новопокровка",
        "lng": "80.463816",
        "lat": "50.669517",
        "timezone": "5",
        "region": "Абай облысы",
        "district": "Бородулиха ауданы",
        "distance": null
    },
    {
        "id": 9041,
        "title": "Новопокровка",
        "lng": "65.315974",
        "lat": "53.802671",
        "timezone": "5",
        "region": "Қостанай облысы",
        "district": "Ұзынкөл ауданы",
        "distance": null
    },
    {
        "id": 9687,
        "title": "Новопокровка",
        "lng": "78.060463",
        "lat": "52.907759",
        "timezone": "5",
        "region": "Павлодар облысы",
        "district": "Успен ауданы",
        "distance": null
    },
    {
        "id": 10191,
        "title": "Новопокровка",
        "lng": "67.754307",
        "lat": "53.731407",
        "timezone": "5",
        "region": "Солтүстік Қазақстан облысы",
        "district": "Шал ақын ауданы",
        "distance": null
    },
    {
        "id": 11096,
        "title": "Новополяковка",
        "lng": "84.692904",
        "lat": "49.482953",
        "timezone": "5",
        "region": "Шығыс Қазақстан облысы",
        "district": "Катонқарағай ауданы",
        "distance": null
    },
    {
        "id": 10073,
        "title": "Новоприречное",
        "lng": "69.716381",
        "lat": "53.795943",
        "timezone": "5",
        "region": "Солтүстік Қазақстан облысы",
        "district": "Тайынша ауданы",
        "distance": null
    },
    {
        "id": 6475,
        "title": "Новоромановка",
        "lng": "68.939257",
        "lat": "52.494547",
        "timezone": "5",
        "region": "Ақмола облысы",
        "district": "Сандықтау ауданы",
        "distance": null
    },
    {
        "id": 6058,
        "title": "Новорыбинка",
        "lng": "71.248386",
        "lat": "51.850333",
        "timezone": "5",
        "region": "Ақмола облысы",
        "district": "Ақкөл ауданы",
        "distance": null
    },
    {
        "id": 9914,
        "title": "Новорыбинка",
        "lng": "67.411968",
        "lat": "54.661584",
        "timezone": "5",
        "region": "Солтүстік Қазақстан облысы",
        "district": "Жамбыл ауданы",
        "distance": null
    },
    {
        "id": 9758,
        "title": "Новосветловка",
        "lng": "67.500381",
        "lat": "52.757362",
        "timezone": "5",
        "region": "Солтүстік Қазақстан облысы",
        "district": "Айыртау ауданы",
        "distance": null
    },
    {
        "id": 6461,
        "title": "Новоселовка",
        "lng": "68.345192",
        "lat": "52.258464",
        "timezone": "5",
        "region": "Ақмола облысы",
        "district": "Сандықтау ауданы",
        "distance": null
    },
    {
        "id": 6552,
        "title": "Новоселовка",
        "lng": "71.650669",
        "lat": "51.742922",
        "timezone": "5",
        "region": "Ақмола облысы",
        "district": "Шортанды ауданы",
        "distance": null
    },
    {
        "id": 8746,
        "title": "Новоселовка",
        "lng": "64.090340",
        "lat": "52.313092",
        "timezone": "5",
        "region": "Қостанай облысы",
        "district": "Әулиекөл ауданы",
        "distance": null
    },
    {
        "id": 8907,
        "title": "Новоселовка",
        "lng": "65.175406",
        "lat": "52.785180",
        "timezone": "5",
        "region": "Қостанай облысы",
        "district": "Қарасу ауданы",
        "distance": null
    },
    {
        "id": 9148,
        "title": "Новоселовка",
        "lng": "63.872040",
        "lat": "53.120237",
        "timezone": "5",
        "region": "Қостанай облысы",
        "district": "Қостанай ауданы",
        "distance": null
    },
    {
        "id": 10233,
        "title": "Новоселовка",
        "lng": "67.034919",
        "lat": "53.198246",
        "timezone": "5",
        "region": "Солтүстік Қазақстан облысы",
        "district": "Ғабит мүсірепов ауданы",
        "distance": null
    },
    {
        "id": 6134,
        "title": "Новосельское",
        "lng": "68.350394",
        "lat": "52.029314",
        "timezone": "5",
        "region": "Ақмола облысы",
        "district": "Атбасар ауданы",
        "distance": null
    },
    {
        "id": 9659,
        "title": "Новоспасовка",
        "lng": "76.179463",
        "lat": "53.271810",
        "timezone": "5",
        "region": "Павлодар облысы",
        "district": "Тереңкөл ауданы",
        "distance": null
    },
    {
        "id": 8881,
        "title": "Новотроицкое",
        "lng": "61.521383",
        "lat": "53.907360",
        "timezone": "5",
        "region": "Қостанай облысы",
        "district": "Қарабалық ауданы",
        "distance": null
    },
    {
        "id": 9997,
        "title": "Новотроицкое",
        "lng": "70.225294",
        "lat": "54.941208",
        "timezone": "5",
        "region": "Солтүстік Қазақстан облысы",
        "district": "Мағжан жұмабаев ауданы",
        "distance": null
    },
    {
        "id": 8462,
        "title": "Новоузенка",
        "lng": "72.997846",
        "lat": "49.876805",
        "timezone": "5",
        "region": "Қарағанды облысы",
        "district": "Бұқар жырау ауданы",
        "distance": null
    },
    {
        "id": 9882,
        "title": "Новоузенка",
        "lng": "68.655192",
        "lat": "54.038159",
        "timezone": "5",
        "region": "Солтүстік Қазақстан облысы",
        "district": "Есіл ауданы",
        "distance": null
    },
    {
        "id": 9751,
        "title": "Новоукраинка",
        "lng": "67.995442",
        "lat": "53.316520",
        "timezone": "5",
        "region": "Солтүстік Қазақстан облысы",
        "district": "Айыртау ауданы",
        "distance": null
    },
    {
        "id": 10059,
        "title": "Новоукраинка",
        "lng": "68.149225",
        "lat": "54.944523",
        "timezone": "5",
        "region": "Солтүстік Қазақстан облысы",
        "district": "Мамлют ауданы",
        "distance": null
    },
    {
        "id": 11101,
        "title": "Новохайрузовка",
        "lng": "84.346074",
        "lat": "49.257595",
        "timezone": "5",
        "region": "Шығыс Қазақстан облысы",
        "district": "Катонқарағай ауданы",
        "distance": null
    },
    {
        "id": 6574,
        "title": "Новочеркасское",
        "lng": "69.883872",
        "lat": "51.420394",
        "timezone": "5",
        "region": "Ақмола облысы",
        "district": "Астрахан ауданы",
        "distance": null
    },
    {
        "id": 9631,
        "title": "Новочерноярка",
        "lng": "76.804681",
        "lat": "52.540174",
        "timezone": "5",
        "region": "Павлодар облысы",
        "district": "Павлодар ауданы",
        "distance": null
    },
    {
        "id": 9108,
        "title": "Новошумное",
        "lng": "62.861822",
        "lat": "53.922894",
        "timezone": "5",
        "region": "Қостанай облысы",
        "district": "Фёдоров ауданы",
        "distance": null
    },
    {
        "id": 9618,
        "title": "Новоямышево",
        "lng": "77.324887",
        "lat": "51.918893",
        "timezone": "5",
        "region": "Павлодар облысы",
        "district": "Павлодар ауданы",
        "distance": null
    },
    {
        "id": 6483,
        "title": "Новый городок",
        "lng": "68.540890",
        "lat": "52.237128",
        "timezone": "5",
        "region": "Ақмола облысы",
        "district": "Сандықтау ауданы",
        "distance": null
    },
    {
        "id": 8921,
        "title": "Носвка",
        "lng": "65.350658",
        "lat": "52.441670",
        "timezone": "5",
        "region": "Қостанай облысы",
        "district": "Қарасу ауданы",
        "distance": null
    },
    {
        "id": 7917,
        "title": "Ноғайбай",
        "lng": "74.852642",
        "lat": "43.128460",
        "timezone": "5",
        "region": "Жамбыл облысы",
        "district": "Қордай ауданы",
        "distance": null
    },
    {
        "id": 10014,
        "title": "Ноғайбай",
        "lng": "70.923779",
        "lat": "54.879101",
        "timezone": "5",
        "region": "Солтүстік Қазақстан облысы",
        "district": "Мағжан жұмабаев ауданы",
        "distance": null
    },
    {
        "id": 6630,
        "title": "Ноғайты",
        "lng": "55.239572",
        "lat": "48.434317",
        "timezone": "5",
        "region": "Ақтөбе облысы",
        "district": "Байғанин ауданы",
        "distance": null
    },
    {
        "id": 9417,
        "title": "Ноғайты",
        "lng": "55.915329",
        "lat": "45.335131",
        "timezone": "5",
        "region": "Маңғыстау облысы",
        "district": "Бейнеу ауданы",
        "distance": null
    },
    {
        "id": 8558,
        "title": "Ныгман",
        "lng": "69.429189",
        "lat": "50.326291",
        "timezone": "5",
        "region": "Қарағанды облысы",
        "district": "Нұра ауданы",
        "distance": null
    },
    {
        "id": 10824,
        "title": "Нысанбек",
        "lng": "70.074063",
        "lat": "42.177006",
        "timezone": "5",
        "region": "Түркістан облысы",
        "district": "Төле би ауданы",
        "distance": null
    },
    {
        "id": 8421,
        "title": "Нүркен",
        "lng": "74.561076",
        "lat": "48.107764",
        "timezone": "5",
        "region": "Қарағанды облысы",
        "district": "Ақтоғай ауданы",
        "distance": null
    },
    {
        "id": 5975,
        "title": "Нұра",
        "lng": "83.011249",
        "lat": "48.590371",
        "timezone": "5",
        "region": "Абай облысы",
        "district": "Көкпекті ауданы",
        "distance": null
    },
    {
        "id": 6501,
        "title": "Нұра",
        "lng": "71.419389",
        "lat": "50.786100",
        "timezone": "5",
        "region": "Ақмола облысы",
        "district": "Целиноград ауданы",
        "distance": null
    },
    {
        "id": 6670,
        "title": "Нұра",
        "lng": "62.307858",
        "lat": "48.893205",
        "timezone": "5",
        "region": "Ақтөбе облысы",
        "district": "Ырғыз ауданы",
        "distance": null
    },
    {
        "id": 6971,
        "title": "Нұра",
        "lng": "78.470149",
        "lat": "43.556544",
        "timezone": "5",
        "region": "Алматы облысы",
        "district": "Еңбекшіқазақ ауданы",
        "distance": null
    },
    {
        "id": 7224,
        "title": "Нұра",
        "lng": "77.193041",
        "lat": "43.687611",
        "timezone": "5",
        "region": "Алматы облысы",
        "district": "Талғар ауданы",
        "distance": null
    },
    {
        "id": 8562,
        "title": "Нұра",
        "lng": "71.548225",
        "lat": "50.261770",
        "timezone": "5",
        "region": "Қарағанды облысы",
        "district": "Нұра ауданы",
        "distance": null
    },
    {
        "id": 8636,
        "title": "Нұра",
        "lng": "73.983747",
        "lat": "48.575112",
        "timezone": "5",
        "region": "Қарағанды облысы",
        "district": "Шет ауданы",
        "distance": null
    },
    {
        "id": 10621,
        "title": "Нұра",
        "lng": "68.897459",
        "lat": "43.021782",
        "timezone": "5",
        "region": "Түркістан облысы",
        "district": "Ордабасы ауданы",
        "distance": null
    },
    {
        "id": 10401,
        "title": "Нұрауыл",
        "lng": "68.329292",
        "lat": "40.871904",
        "timezone": "5",
        "region": "Түркістан облысы",
        "district": "Жетісай ауданы",
        "distance": null
    },
    {
        "id": 10727,
        "title": "Нұрауыл",
        "lng": "69.021435",
        "lat": "41.740372",
        "timezone": "5",
        "region": "Түркістан облысы",
        "district": "Сарыағаш ауданы",
        "distance": null
    },
    {
        "id": 6610,
        "title": "Нұрбұлақ",
        "lng": "57.121641",
        "lat": "50.072442",
        "timezone": "5",
        "region": "Ақтөбе облысы",
        "district": "Алға ауданы",
        "distance": null
    },
    {
        "id": 6511,
        "title": "Нұресіл",
        "lng": "71.115893",
        "lat": "51.213482",
        "timezone": "5",
        "region": "Ақмола облысы",
        "district": "Целиноград ауданы",
        "distance": null
    },
    {
        "id": 10672,
        "title": "Нұржанқорған",
        "lng": "69.757559",
        "lat": "42.566954",
        "timezone": "5",
        "region": "Түркістан облысы",
        "district": "Сайрам ауданы",
        "distance": null
    },
    {
        "id": 7318,
        "title": "Нұржау",
        "lng": "49.135474",
        "lat": "46.600892",
        "timezone": "5",
        "region": "Атырау облысы",
        "district": "Құрманғазы ауданы",
        "distance": null
    },
    {
        "id": 6963,
        "title": "Нұрлы",
        "lng": "78.516376",
        "lat": "43.648734",
        "timezone": "5",
        "region": "Алматы облысы",
        "district": "Еңбекшіқазақ ауданы",
        "distance": null
    },
    {
        "id": 10555,
        "title": "Нұрлыжол",
        "lng": "68.424181",
        "lat": "40.608635",
        "timezone": "5",
        "region": "Түркістан облысы",
        "district": "Мақтаарал ауданы",
        "distance": null
    },
    {
        "id": 10744,
        "title": "Нұрлыжол",
        "lng": "69.119297",
        "lat": "41.455341",
        "timezone": "5",
        "region": "Түркістан облысы",
        "district": "Сарыағаш ауданы",
        "distance": null
    },
    {
        "id": 7905,
        "title": "Нұрлыкент",
        "lng": "70.834214",
        "lat": "42.685280",
        "timezone": "5",
        "region": "Жамбыл облысы",
        "district": "Жуалы ауданы",
        "distance": null
    },
    {
        "id": 10544,
        "title": "Нұрлытан",
        "lng": "68.592022",
        "lat": "40.609512",
        "timezone": "5",
        "region": "Түркістан облысы",
        "district": "Мақтаарал ауданы",
        "distance": null
    },
    {
        "id": 7635,
        "title": "Нұрсай",
        "lng": "48.358692",
        "lat": "49.591061",
        "timezone": "5",
        "region": "Батыс Қазақстан облысы",
        "district": "Казталов ауданы",
        "distance": null
    },
    {
        "id": 10776,
        "title": "Нұртас",
        "lng": "67.961100",
        "lat": "43.245320",
        "timezone": "5",
        "region": "Түркістан облысы",
        "district": "Сауран ауданы",
        "distance": null
    },
    {
        "id": 8275,
        "title": "Нұрым",
        "lng": "78.741197",
        "lat": "44.061545",
        "timezone": "5",
        "region": "Жетісу облысы",
        "district": "Кербұлақ ауданы",
        "distance": null
    },
    {
        "id": 9933,
        "title": "Нұрымбет",
        "lng": "66.102916",
        "lat": "54.455663",
        "timezone": "5",
        "region": "Солтүстік Қазақстан облысы",
        "district": "Жамбыл ауданы",
        "distance": null
    },
    {
        "id": 7080,
        "title": "Нұрғиса Тілендиев",
        "lng": "76.890443",
        "lat": "43.515437",
        "timezone": "5",
        "region": "Алматы облысы",
        "district": "Іле ауданы",
        "distance": null
    },
    {
        "id": 8322,
        "title": "Нәдірізбек",
        "lng": "77.948353",
        "lat": "44.949934",
        "timezone": "5",
        "region": "Жетісу облысы",
        "district": "Көксу ауданы",
        "distance": null
    }
]