[
    {
        "id": 10429,
        "title": "Рабат",
        "lng": "69.525686",
        "lat": "42.060354",
        "timezone": "5",
        "region": "Түркістан облысы",
        "district": "Қазығұрт ауданы",
        "distance": null
    },
    {
        "id": 9693,
        "title": "Равнополь",
        "lng": "77.260962",
        "lat": "52.783519",
        "timezone": "5",
        "region": "Павлодар облысы",
        "district": "Успен ауданы",
        "distance": null
    },
    {
        "id": 6560,
        "title": "Раевка",
        "lng": "70.812592",
        "lat": "51.689196",
        "timezone": "5",
        "region": "Ақмола облысы",
        "district": "Шортанды ауданы",
        "distance": null
    },
    {
        "id": 10255,
        "title": "Разгульное",
        "lng": "66.681629",
        "lat": "52.395913",
        "timezone": "5",
        "region": "Солтүстік Қазақстан облысы",
        "district": "Ғабит мүсірепов ауданы",
        "distance": null
    },
    {
        "id": 6455,
        "title": "Раздолное",
        "lng": "69.233096",
        "lat": "52.483513",
        "timezone": "5",
        "region": "Ақмола облысы",
        "district": "Сандықтау ауданы",
        "distance": null
    },
    {
        "id": 6512,
        "title": "Раздолное",
        "lng": "71.036347",
        "lat": "51.246279",
        "timezone": "5",
        "region": "Ақмола облысы",
        "district": "Целиноград ауданы",
        "distance": null
    },
    {
        "id": 7521,
        "title": "Раздолное",
        "lng": "51.837086",
        "lat": "51.571840",
        "timezone": "5",
        "region": "Батыс Қазақстан облысы",
        "district": "Бәйтерек ауданы",
        "distance": null
    },
    {
        "id": 11154,
        "title": "Раздолное",
        "lng": "83.512141",
        "lat": "49.058451",
        "timezone": "5",
        "region": "Шығыс Қазақстан облысы",
        "district": "Самар ауданы",
        "distance": null
    },
    {
        "id": 8991,
        "title": "Раздольное",
        "lng": "63.188350",
        "lat": "51.465176",
        "timezone": "5",
        "region": "Қостанай облысы",
        "district": "Науырзым ауданы",
        "distance": null
    },
    {
        "id": 10050,
        "title": "Раздольное",
        "lng": "67.792782",
        "lat": "54.565457",
        "timezone": "5",
        "region": "Солтүстік Қазақстан облысы",
        "district": "Мамлют ауданы",
        "distance": null
    },
    {
        "id": 10926,
        "title": "Разъезд 114",
        "lng": "70.563249",
        "lat": "42.490818",
        "timezone": "5",
        "region": "Түркістан облысы",
        "district": "Түлкібас ауданы",
        "distance": null
    },
    {
        "id": 10881,
        "title": "Разъезд 115",
        "lng": "70.442480",
        "lat": "42.490080",
        "timezone": "5",
        "region": "Түркістан облысы",
        "district": "Түлкібас ауданы",
        "distance": null
    },
    {
        "id": 6095,
        "title": "Разьезд №42",
        "lng": "71.857994",
        "lat": "51.041167",
        "timezone": "5",
        "region": "Ақмола облысы",
        "district": "Аршалы ауданы",
        "distance": null
    },
    {
        "id": 10207,
        "title": "Раисовка",
        "lng": "67.472928",
        "lat": "52.919097",
        "timezone": "5",
        "region": "Солтүстік Қазақстан облысы",
        "district": "Ғабит мүсірепов ауданы",
        "distance": null
    },
    {
        "id": 6257,
        "title": "Райгородок",
        "lng": "69.693968",
        "lat": "52.517081",
        "timezone": "5",
        "region": "Ақмола облысы",
        "district": "Бурабай ауданы",
        "distance": null
    },
    {
        "id": 9242,
        "title": "Райм",
        "lng": "61.739907",
        "lat": "46.073021",
        "timezone": "5",
        "region": "Қызылорда облысы",
        "district": "Арал ауданы",
        "distance": null
    },
    {
        "id": 7112,
        "title": "Райымбек",
        "lng": "76.750674",
        "lat": "43.195916",
        "timezone": "5",
        "region": "Алматы облысы",
        "district": "Қарасай ауданы",
        "distance": null
    },
    {
        "id": 10140,
        "title": "Ракитное",
        "lng": "66.822889",
        "lat": "53.930687",
        "timezone": "5",
        "region": "Солтүстік Қазақстан облысы",
        "district": "Тимирязев ауданы",
        "distance": null
    },
    {
        "id": 6041,
        "title": "Рамазан",
        "lng": "71.166810",
        "lat": "51.877858",
        "timezone": "5",
        "region": "Ақмола облысы",
        "district": "Ақкөл ауданы",
        "distance": null
    },
    {
        "id": 11243,
        "title": "Рассыпное",
        "lng": "81.906232",
        "lat": "50.480555",
        "timezone": "5",
        "region": "Шығыс Қазақстан облысы",
        "district": "Шемонаиха ауданы",
        "distance": null
    },
    {
        "id": 6965,
        "title": "Рахат",
        "lng": "77.363891",
        "lat": "43.374446",
        "timezone": "5",
        "region": "Алматы облысы",
        "district": "Еңбекшіқазақ ауданы",
        "distance": null
    },
    {
        "id": 7091,
        "title": "Рахат",
        "lng": "76.802498",
        "lat": "43.345272",
        "timezone": "5",
        "region": "Алматы облысы",
        "district": "Қарасай ауданы",
        "distance": null
    },
    {
        "id": 7252,
        "title": "Рахат",
        "lng": "79.493851",
        "lat": "43.751226",
        "timezone": "5",
        "region": "Алматы облысы",
        "district": "Ұйғыр ауданы",
        "distance": null
    },
    {
        "id": 7833,
        "title": "Рахат",
        "lng": "71.184291",
        "lat": "43.035985",
        "timezone": "5",
        "region": "Жамбыл облысы",
        "district": "Жамбыл ауданы",
        "distance": null
    },
    {
        "id": 11086,
        "title": "Рахман қайнары",
        "lng": "86.537128",
        "lat": "49.522092",
        "timezone": "5",
        "region": "Шығыс Қазақстан облысы",
        "district": "Катонқарағай ауданы",
        "distance": null
    },
    {
        "id": 8083,
        "title": "Рахым Сәбденов",
        "lng": "72.795311",
        "lat": "42.976880",
        "timezone": "5",
        "region": "Жамбыл облысы",
        "district": "Тұрар рысқұлов ауданы",
        "distance": null
    },
    {
        "id": 6519,
        "title": "Рақымжан Қошқарбаев",
        "lng": "71.329845",
        "lat": "50.820346",
        "timezone": "5",
        "region": "Ақмола облысы",
        "district": "Целиноград ауданы",
        "distance": null
    },
    {
        "id": 5902,
        "title": "Ремки",
        "lng": "81.294713",
        "lat": "50.899444",
        "timezone": "5",
        "region": "Абай облысы",
        "district": "Бородулиха ауданы",
        "distance": null
    },
    {
        "id": 6487,
        "title": "Речное",
        "lng": "68.523960",
        "lat": "52.572737",
        "timezone": "5",
        "region": "Ақмола облысы",
        "district": "Сандықтау ауданы",
        "distance": null
    },
    {
        "id": 9058,
        "title": "Речное",
        "lng": "65.871879",
        "lat": "54.219168",
        "timezone": "5",
        "region": "Қостанай облысы",
        "district": "Ұзынкөл ауданы",
        "distance": null
    },
    {
        "id": 31,
        "title": "Риддер қаласы",
        "lng": "83.506329",
        "lat": "50.338860",
        "timezone": "5",
        "region": "Шығыс Қазақстан облысы",
        "district": null,
        "distance": null
    },
    {
        "id": 10185,
        "title": "Ровное",
        "lng": "67.605484",
        "lat": "53.769672",
        "timezone": "5",
        "region": "Солтүстік Қазақстан облысы",
        "district": "Шал ақын ауданы",
        "distance": null
    },
    {
        "id": 6521,
        "title": "Родина",
        "lng": "70.541645",
        "lat": "51.302445",
        "timezone": "5",
        "region": "Ақмола облысы",
        "district": "Целиноград ауданы",
        "distance": null
    },
    {
        "id": 6147,
        "title": "Родионовка",
        "lng": "68.513411",
        "lat": "51.689644",
        "timezone": "5",
        "region": "Ақмола облысы",
        "district": "Атбасар ауданы",
        "distance": null
    },
    {
        "id": 6096,
        "title": "Родники",
        "lng": "72.327419",
        "lat": "50.862229",
        "timezone": "5",
        "region": "Ақмола облысы",
        "district": "Аршалы ауданы",
        "distance": null
    },
    {
        "id": 6723,
        "title": "Родниковка",
        "lng": "57.175037",
        "lat": "50.651753",
        "timezone": "5",
        "region": "Ақтөбе облысы",
        "district": "Мәртөк ауданы",
        "distance": null
    },
    {
        "id": 8604,
        "title": "Родниковское",
        "lng": "73.993942",
        "lat": "51.046278",
        "timezone": "5",
        "region": "Қарағанды облысы",
        "district": "Осакаров ауданы",
        "distance": null
    },
    {
        "id": 8570,
        "title": "Роднички",
        "lng": "73.551325",
        "lat": "50.736177",
        "timezone": "5",
        "region": "Қарағанды облысы",
        "district": "Осакаров ауданы",
        "distance": null
    },
    {
        "id": 9626,
        "title": "Рождественка",
        "lng": "77.516479",
        "lat": "52.664352",
        "timezone": "5",
        "region": "Павлодар облысы",
        "district": "Павлодар ауданы",
        "distance": null
    },
    {
        "id": 9923,
        "title": "Рождественка",
        "lng": "67.209255",
        "lat": "54.470499",
        "timezone": "5",
        "region": "Солтүстік Қазақстан облысы",
        "district": "Жамбыл ауданы",
        "distance": null
    },
    {
        "id": 9627,
        "title": "Розовка",
        "lng": "77.429441",
        "lat": "52.608356",
        "timezone": "5",
        "region": "Павлодар облысы",
        "district": "Павлодар ауданы",
        "distance": null
    },
    {
        "id": 8470,
        "title": "Ростовка",
        "lng": "72.681234",
        "lat": "50.047841",
        "timezone": "5",
        "region": "Қарағанды облысы",
        "district": "Бұқар жырау ауданы",
        "distance": null
    },
    {
        "id": 9986,
        "title": "Рошино",
        "lng": "70.361802",
        "lat": "54.670071",
        "timezone": "5",
        "region": "Солтүстік Қазақстан облысы",
        "district": "Мағжан жұмабаев ауданы",
        "distance": null
    },
    {
        "id": 10110,
        "title": "Рошинское",
        "lng": "69.147927",
        "lat": "54.059722",
        "timezone": "5",
        "region": "Солтүстік Қазақстан облысы",
        "district": "Тайынша ауданы",
        "distance": null
    },
    {
        "id": 7522,
        "title": "Рубежинское",
        "lng": "51.961754",
        "lat": "51.419541",
        "timezone": "5",
        "region": "Батыс Қазақстан облысы",
        "district": "Бәйтерек ауданы",
        "distance": null
    },
    {
        "id": 9830,
        "title": "Рублевка",
        "lng": "69.141558",
        "lat": "54.270506",
        "timezone": "5",
        "region": "Солтүстік Қазақстан облысы",
        "district": "Аққайың ауданы",
        "distance": null
    },
    {
        "id": 43,
        "title": "Рудный қаласы",
        "lng": "63.116667",
        "lat": "52.966667",
        "timezone": "5",
        "region": "Қостанай облысы",
        "district": null,
        "distance": null
    },
    {
        "id": 10237,
        "title": "Рузаевка",
        "lng": "66.951582",
        "lat": "52.821765",
        "timezone": "5",
        "region": "Солтүстік Қазақстан облысы",
        "district": "Ғабит мүсірепов ауданы",
        "distance": null
    },
    {
        "id": 11244,
        "title": "Рулиха",
        "lng": "81.987772",
        "lat": "50.484991",
        "timezone": "5",
        "region": "Шығыс Қазақстан облысы",
        "district": "Шемонаиха ауданы",
        "distance": null
    },
    {
        "id": 8607,
        "title": "Русская ивановка",
        "lng": "73.077868",
        "lat": "50.319585",
        "timezone": "5",
        "region": "Қарағанды облысы",
        "district": "Осакаров ауданы",
        "distance": null
    },
    {
        "id": 10244,
        "title": "Рухловка",
        "lng": "67.643105",
        "lat": "52.698713",
        "timezone": "5",
        "region": "Солтүстік Қазақстан облысы",
        "district": "Ғабит мүсірепов ауданы",
        "distance": null
    },
    {
        "id": 8890,
        "title": "Рыбкино",
        "lng": "62.003032",
        "lat": "53.646354",
        "timezone": "5",
        "region": "Қостанай облысы",
        "district": "Қарабалық ауданы",
        "distance": null
    },
    {
        "id": 9171,
        "title": "Рыбное",
        "lng": "63.894301",
        "lat": "53.254531",
        "timezone": "5",
        "region": "Қостанай облысы",
        "district": "Қостанай ауданы",
        "distance": null
    },
    {
        "id": 7879,
        "title": "Рысбек батыр",
        "lng": "70.407185",
        "lat": "42.829307",
        "timezone": "5",
        "region": "Жамбыл облысы",
        "district": "Жуалы ауданы",
        "distance": null
    },
    {
        "id": 9150,
        "title": "Рыспай",
        "lng": "63.623467",
        "lat": "52.985168",
        "timezone": "5",
        "region": "Қостанай облысы",
        "district": "Қостанай ауданы",
        "distance": null
    },
    {
        "id": 10887,
        "title": "Рысқұл",
        "lng": "70.198327",
        "lat": "42.518103",
        "timezone": "5",
        "region": "Түркістан облысы",
        "district": "Түлкібас ауданы",
        "distance": null
    },
    {
        "id": 7199,
        "title": "Рысқұлов",
        "lng": "77.282881",
        "lat": "43.300444",
        "timezone": "5",
        "region": "Алматы облысы",
        "district": "Талғар ауданы",
        "distance": null
    },
    {
        "id": 9998,
        "title": "Рявкино",
        "lng": "70.095892",
        "lat": "54.978565",
        "timezone": "5",
        "region": "Солтүстік Қазақстан облысы",
        "district": "Мағжан жұмабаев ауданы",
        "distance": null
    },
    {
        "id": 9059,
        "title": "Ряжское",
        "lng": "65.551683",
        "lat": "54.063696",
        "timezone": "5",
        "region": "Қостанай облысы",
        "district": "Ұзынкөл ауданы",
        "distance": null
    },
    {
        "id": 9154,
        "title": "Рязановка",
        "lng": "63.423961",
        "lat": "53.335279",
        "timezone": "5",
        "region": "Қостанай облысы",
        "district": "Қостанай ауданы",
        "distance": null
    },
    {
        "id": 11255,
        "title": "Рясинка",
        "lng": "67.208222",
        "lat": "53.445746",
        "timezone": "5",
        "region": "Солтүстік Қазақстан облысы",
        "district": "Шал ақын ауданы",
        "distance": null
    }
]