[
    {
        "id": 5882,
        "title": "Уба-форпост",
        "lng": "81.642917",
        "lat": "50.339418",
        "timezone": "5",
        "region": "Абай облысы",
        "district": "Бородулиха ауданы",
        "distance": null
    },
    {
        "id": 11240,
        "title": "Убинка",
        "lng": "81.734132",
        "lat": "50.318855",
        "timezone": "5",
        "region": "Шығыс Қазақстан облысы",
        "district": "Шемонаиха ауданы",
        "distance": null
    },
    {
        "id": 10026,
        "title": "Уваковское",
        "lng": "70.669421",
        "lat": "54.719851",
        "timezone": "5",
        "region": "Солтүстік Қазақстан облысы",
        "district": "Мағжан жұмабаев ауданы",
        "distance": null
    },
    {
        "id": 9204,
        "title": "Увальное",
        "lng": "62.774847",
        "lat": "52.677602",
        "timezone": "5",
        "region": "Қостанай облысы",
        "district": "Бейімбет майлин ауданы",
        "distance": null
    },
    {
        "id": 11030,
        "title": "Уварово",
        "lng": "82.380084",
        "lat": "50.074662",
        "timezone": "5",
        "region": "Шығыс Қазақстан облысы",
        "district": "Глубокое ауданы",
        "distance": null
    },
    {
        "id": 6416,
        "title": "Угольки",
        "lng": "68.578296",
        "lat": "53.356744",
        "timezone": "5",
        "region": "Ақмола облысы",
        "district": "Зеренді ауданы",
        "distance": null
    },
    {
        "id": 6798,
        "title": "Уил",
        "lng": "54.665629",
        "lat": "49.074441",
        "timezone": "5",
        "region": "Ақтөбе облысы",
        "district": "Ойыл ауданы",
        "distance": null
    },
    {
        "id": 9080,
        "title": "Уйскөе",
        "lng": "63.467646",
        "lat": "54.197900",
        "timezone": "5",
        "region": "Қостанай облысы",
        "district": "Фёдоров ауданы",
        "distance": null
    },
    {
        "id": 10030,
        "title": "Украинка",
        "lng": "70.585321",
        "lat": "54.842030",
        "timezone": "5",
        "region": "Солтүстік Қазақстан облысы",
        "district": "Мағжан жұмабаев ауданы",
        "distance": null
    },
    {
        "id": 11221,
        "title": "Украинка",
        "lng": "82.412747",
        "lat": "50.020866",
        "timezone": "5",
        "region": "Шығыс Қазақстан облысы",
        "district": "Ұлан ауданы",
        "distance": null
    },
    {
        "id": 11204,
        "title": "Уланской",
        "lng": "82.221549",
        "lat": "49.743087",
        "timezone": "5",
        "region": "Шығыс Қазақстан облысы",
        "district": "Ұлан ауданы",
        "distance": null
    },
    {
        "id": 6306,
        "title": "Уленты",
        "lng": "73.736294",
        "lat": "51.638483",
        "timezone": "5",
        "region": "Ақмола облысы",
        "district": "Ерейментау ауданы",
        "distance": null
    },
    {
        "id": 11098,
        "title": "Ульяновка",
        "lng": "84.961689",
        "lat": "49.385654",
        "timezone": "5",
        "region": "Шығыс Қазақстан облысы",
        "district": "Катонқарағай ауданы",
        "distance": null
    },
    {
        "id": 9177,
        "title": "Ульяновское",
        "lng": "62.891718",
        "lat": "53.107714",
        "timezone": "5",
        "region": "Қостанай облысы",
        "district": "Қостанай ауданы",
        "distance": null
    },
    {
        "id": 8887,
        "title": "Урнек",
        "lng": "61.528560",
        "lat": "53.324788",
        "timezone": "5",
        "region": "Қостанай облысы",
        "district": "Қарабалық ауданы",
        "distance": null
    },
    {
        "id": 9024,
        "title": "Урожайное",
        "lng": "65.743698",
        "lat": "53.778500",
        "timezone": "5",
        "region": "Қостанай облысы",
        "district": "Сарыкөл ауданы",
        "distance": null
    },
    {
        "id": 6063,
        "title": "Урюпинка",
        "lng": "70.417740",
        "lat": "51.938936",
        "timezone": "5",
        "region": "Ақмола облысы",
        "district": "Ақкөл ауданы",
        "distance": null
    },
    {
        "id": 9081,
        "title": "Усаковка",
        "lng": "63.487337",
        "lat": "54.111174",
        "timezone": "5",
        "region": "Қостанай облысы",
        "district": "Фёдоров ауданы",
        "distance": null
    },
    {
        "id": 7519,
        "title": "Усихино",
        "lng": "50.737386",
        "lat": "51.109063",
        "timezone": "5",
        "region": "Батыс Қазақстан облысы",
        "district": "Бәйтерек ауданы",
        "distance": null
    },
    {
        "id": 5872,
        "title": "Успенка",
        "lng": "80.920079",
        "lat": "50.601189",
        "timezone": "5",
        "region": "Абай облысы",
        "district": "Бородулиха ауданы",
        "distance": null
    },
    {
        "id": 10027,
        "title": "Успенка",
        "lng": "70.504311",
        "lat": "54.763908",
        "timezone": "5",
        "region": "Солтүстік Қазақстан облысы",
        "district": "Мағжан жұмабаев ауданы",
        "distance": null
    },
    {
        "id": 9084,
        "title": "Успеновка",
        "lng": "62.989904",
        "lat": "53.562428",
        "timezone": "5",
        "region": "Қостанай облысы",
        "district": "Фёдоров ауданы",
        "distance": null
    },
    {
        "id": 6263,
        "title": "Успеноюрьевка",
        "lng": "69.869705",
        "lat": "52.654416",
        "timezone": "5",
        "region": "Ақмола облысы",
        "district": "Бурабай ауданы",
        "distance": null
    },
    {
        "id": 8662,
        "title": "Успенское",
        "lng": "72.713637",
        "lat": "48.668901",
        "timezone": "5",
        "region": "Қарағанды облысы",
        "district": "Шет ауданы",
        "distance": null
    },
    {
        "id": 11252,
        "title": "Уст-Таловка",
        "lng": "81.849701",
        "lat": "50.545121",
        "timezone": "5",
        "region": "Шығыс Қазақстан облысы",
        "district": "Шемонаиха ауданы",
        "distance": null
    },
    {
        "id": 7467,
        "title": "Утвинка",
        "lng": "52.794331",
        "lat": "51.461540",
        "timezone": "5",
        "region": "Батыс Қазақстан облысы",
        "district": "Бөрлі ауданы",
        "distance": null
    },
    {
        "id": 9917,
        "title": "Уткино",
        "lng": "67.659122",
        "lat": "54.835777",
        "timezone": "5",
        "region": "Солтүстік Қазақстан облысы",
        "district": "Жамбыл ауданы",
        "distance": null
    },
    {
        "id": 8930,
        "title": "Ушаково",
        "lng": "65.231524",
        "lat": "51.488803",
        "timezone": "5",
        "region": "Қостанай облысы",
        "district": "Қарасу ауданы",
        "distance": null
    },
    {
        "id": 11043,
        "title": "Ушаново",
        "lng": "82.738485",
        "lat": "49.966169",
        "timezone": "5",
        "region": "Шығыс Қазақстан облысы",
        "district": "Глубокое ауданы",
        "distance": null
    },
    {
        "id": 6379,
        "title": "Уялы",
        "lng": "69.374194",
        "lat": "52.560916",
        "timezone": "5",
        "region": "Ақмола облысы",
        "district": "Зеренді ауданы",
        "distance": null
    },
    {
        "id": 6438,
        "title": "Уялы",
        "lng": "70.330568",
        "lat": "50.652604",
        "timezone": "5",
        "region": "Ақмола облысы",
        "district": "Қорғалжын ауданы",
        "distance": null
    },
    {
        "id": 7459,
        "title": "Уялы",
        "lng": "49.066924",
        "lat": "48.963228",
        "timezone": "5",
        "region": "Батыс Қазақстан облысы",
        "district": "Бөкей ордасы ауданы",
        "distance": null
    },
    {
        "id": 9826,
        "title": "Уялы",
        "lng": "72.303214",
        "lat": "54.162215",
        "timezone": "5",
        "region": "Солтүстік Қазақстан облысы",
        "district": "Ақжар ауданы",
        "distance": null
    }
]