[
    {
        "id": 6728,
        "title": "Хазретовка",
        "lng": "57.480168",
        "lat": "50.797784",
        "timezone": "5",
        "region": "Ақтөбе облысы",
        "district": "Мәртөк ауданы",
        "distance": null
    },
    {
        "id": 10541,
        "title": "Хайдар",
        "lng": "68.324827",
        "lat": "40.673171",
        "timezone": "5",
        "region": "Түркістан облысы",
        "district": "Мақтаарал ауданы",
        "distance": null
    },
    {
        "id": 7625,
        "title": "Хайруш",
        "lng": "49.099856",
        "lat": "50.412278",
        "timezone": "5",
        "region": "Батыс Қазақстан облысы",
        "district": "Казталов ауданы",
        "distance": null
    },
    {
        "id": 10310,
        "title": "Халықтар достығы",
        "lng": "68.266051",
        "lat": "41.008122",
        "timezone": "5",
        "region": "Түркістан облысы",
        "district": "Жетісай ауданы",
        "distance": null
    },
    {
        "id": 7286,
        "title": "Хамит Ерғалиев",
        "lng": "51.206235",
        "lat": "47.353694",
        "timezone": "5",
        "region": "Атырау облысы",
        "district": "Исатай ауданы",
        "distance": null
    },
    {
        "id": 9225,
        "title": "Хан",
        "lng": "61.477302",
        "lat": "46.113895",
        "timezone": "5",
        "region": "Қызылорда облысы",
        "district": "Арал ауданы",
        "distance": null
    },
    {
        "id": 7456,
        "title": "Хан ордасы",
        "lng": "47.428918",
        "lat": "48.771362",
        "timezone": "5",
        "region": "Батыс Қазақстан облысы",
        "district": "Бөкей ордасы ауданы",
        "distance": null
    },
    {
        "id": 10869,
        "title": "Ханарық",
        "lng": "70.151929",
        "lat": "42.297164",
        "timezone": "5",
        "region": "Түркістан облысы",
        "district": "Төле би ауданы",
        "distance": null
    },
    {
        "id": 7642,
        "title": "Ханкөл",
        "lng": "53.510791",
        "lat": "50.041842",
        "timezone": "5",
        "region": "Батыс Қазақстан облысы",
        "district": "Қаратөбе ауданы",
        "distance": null
    },
    {
        "id": 8021,
        "title": "Хантау",
        "lng": "73.799475",
        "lat": "44.228665",
        "timezone": "5",
        "region": "Жамбыл облысы",
        "district": "Мойынқұм ауданы",
        "distance": null
    },
    {
        "id": 11284,
        "title": "Хантағы",
        "lng": "68.570059",
        "lat": "43.522256",
        "timezone": "5",
        "region": "Түркістан облысы",
        "district": "Кентау қаласы",
        "distance": null
    },
    {
        "id": 10694,
        "title": "Ханқорған",
        "lng": "69.713506",
        "lat": "42.577471",
        "timezone": "5",
        "region": "Түркістан облысы",
        "district": "Сайрам ауданы",
        "distance": null
    },
    {
        "id": 8754,
        "title": "Харьков",
        "lng": "64.371647",
        "lat": "52.285759",
        "timezone": "5",
        "region": "Қостанай облысы",
        "district": "Әулиекөл ауданы",
        "distance": null
    },
    {
        "id": 9464,
        "title": "Харьковка",
        "lng": "75.962268",
        "lat": "52.798299",
        "timezone": "5",
        "region": "Павлодар облысы",
        "district": "Ақтоғай ауданы",
        "distance": null
    },
    {
        "id": 8980,
        "title": "Харьковское",
        "lng": "64.545783",
        "lat": "53.804202",
        "timezone": "5",
        "region": "Қостанай облысы",
        "district": "Меңдіқара ауданы",
        "distance": null
    },
    {
        "id": 7337,
        "title": "Хиуаз",
        "lng": "49.063870",
        "lat": "46.609702",
        "timezone": "5",
        "region": "Атырау облысы",
        "district": "Құрманғазы ауданы",
        "distance": null
    },
    {
        "id": 9991,
        "title": "Хлебороб",
        "lng": "70.465683",
        "lat": "54.962819",
        "timezone": "5",
        "region": "Солтүстік Қазақстан облысы",
        "district": "Мағжан жұмабаев ауданы",
        "distance": null
    },
    {
        "id": 9713,
        "title": "Хмельницкое",
        "lng": "77.766292",
        "lat": "52.432567",
        "timezone": "5",
        "region": "Павлодар облысы",
        "district": "Шарбақты ауданы",
        "distance": null
    },
    {
        "id": 25,
        "title": "Хромтау қаласы",
        "lng": "58.434722",
        "lat": "50.250278",
        "timezone": "5",
        "region": "Ақтөбе облысы",
        "district": null,
        "distance": null
    },
    {
        "id": 6149,
        "title": "Хрящевка",
        "lng": "68.310760",
        "lat": "51.653729",
        "timezone": "5",
        "region": "Ақмола облысы",
        "district": "Атбасар ауданы",
        "distance": null
    },
    {
        "id": 6931,
        "title": "Хұсайын Бижанова",
        "lng": "78.367094",
        "lat": "43.541634",
        "timezone": "5",
        "region": "Алматы облысы",
        "district": "Еңбекшіқазақ ауданы",
        "distance": null
    }
]