[
    {
        "id": 8728,
        "title": "Қ.Тұрғұмбаев",
        "lng": "63.066368",
        "lat": "51.939425",
        "timezone": "5",
        "region": "Қостанай облысы",
        "district": "Әулиекөл ауданы",
        "distance": null
    },
    {
        "id": 5736,
        "title": "ҚАШАР ауылы",
        "lng": "62.869880",
        "lat": "53.368641",
        "timezone": "5",
        "region": "Қостанай облысы",
        "district": null,
        "distance": null
    },
    {
        "id": 6024,
        "title": "Қабанбай",
        "lng": "82.084987",
        "lat": "46.075984",
        "timezone": "5",
        "region": "Абай облысы",
        "district": "Мақаншы ауданы",
        "distance": null
    },
    {
        "id": 8202,
        "title": "Қабанбай",
        "lng": "80.624174",
        "lat": "45.835237",
        "timezone": "5",
        "region": "Жетісу облысы",
        "district": "Алакөл ауданы",
        "distance": null
    },
    {
        "id": 10920,
        "title": "Қабанбай",
        "lng": "70.260445",
        "lat": "42.542268",
        "timezone": "5",
        "region": "Түркістан облысы",
        "district": "Түлкібас ауданы",
        "distance": null
    },
    {
        "id": 11171,
        "title": "Қабанбай",
        "lng": "83.571753",
        "lat": "47.866869",
        "timezone": "5",
        "region": "Шығыс Қазақстан облысы",
        "district": "Тарбағатай ауданы",
        "distance": null
    },
    {
        "id": 6499,
        "title": "Қабанбай батыр",
        "lng": "71.358465",
        "lat": "50.854636",
        "timezone": "5",
        "region": "Ақмола облысы",
        "district": "Целиноград ауданы",
        "distance": null
    },
    {
        "id": 7390,
        "title": "Қабыл",
        "lng": "51.352175",
        "lat": "49.838098",
        "timezone": "5",
        "region": "Батыс Қазақстан облысы",
        "district": "Ақжайық ауданы",
        "distance": null
    },
    {
        "id": 10752,
        "title": "Қабыланбек",
        "lng": "69.204476",
        "lat": "41.460929",
        "timezone": "5",
        "region": "Түркістан облысы",
        "district": "Сарыағаш ауданы",
        "distance": null
    },
    {
        "id": 11323,
        "title": "Қабылсай",
        "lng": "68.901878",
        "lat": "42.262342",
        "timezone": "5",
        "region": "Түркістан облысы",
        "district": "Арыс қаласы",
        "distance": null
    },
    {
        "id": 7745,
        "title": "Қабылтөбе",
        "lng": "51.872668",
        "lat": "51.313638",
        "timezone": "5",
        "region": "Батыс Қазақстан облысы",
        "district": "Теректі ауданы",
        "distance": null
    },
    {
        "id": 7423,
        "title": "Қабыршақты",
        "lng": "50.652630",
        "lat": "50.196025",
        "timezone": "5",
        "region": "Батыс Қазақстан облысы",
        "district": "Ақжайық ауданы",
        "distance": null
    },
    {
        "id": 8707,
        "title": "Қабырға",
        "lng": "64.849326",
        "lat": "49.901465",
        "timezone": "5",
        "region": "Қостанай облысы",
        "district": "Амангелді ауданы",
        "distance": null
    },
    {
        "id": 11087,
        "title": "Қабырға",
        "lng": "85.704929",
        "lat": "49.161632",
        "timezone": "5",
        "region": "Шығыс Қазақстан облысы",
        "district": "Катонқарағай ауданы",
        "distance": null
    },
    {
        "id": 7333,
        "title": "Қадырка",
        "lng": "49.311014",
        "lat": "46.613980",
        "timezone": "5",
        "region": "Атырау облысы",
        "district": "Құрманғазы ауданы",
        "distance": null
    },
    {
        "id": 7405,
        "title": "Қадырқұл",
        "lng": "51.941542",
        "lat": "49.322559",
        "timezone": "5",
        "region": "Батыс Қазақстан облысы",
        "district": "Ақжайық ауданы",
        "distance": null
    },
    {
        "id": 10605,
        "title": "Қажымұхан",
        "lng": "69.316648",
        "lat": "42.604407",
        "timezone": "5",
        "region": "Түркістан облысы",
        "district": "Ордабасы ауданы",
        "distance": null
    },
    {
        "id": 6525,
        "title": "Қажымұқан",
        "lng": "71.079502",
        "lat": "51.265507",
        "timezone": "5",
        "region": "Ақмола облысы",
        "district": "Целиноград ауданы",
        "distance": null
    },
    {
        "id": 10579,
        "title": "Қаз сср-і 40 жылдығы",
        "lng": "68.448049",
        "lat": "40.887947",
        "timezone": "5",
        "region": "Түркістан облысы",
        "district": "Мақтаарал ауданы",
        "distance": null
    },
    {
        "id": 170,
        "title": "Қазалы қаласы",
        "lng": "62.105836",
        "lat": "45.760633",
        "timezone": "5",
        "region": "Қызылорда облысы",
        "district": null,
        "distance": null
    },
    {
        "id": 6720,
        "title": "Қазан",
        "lng": "56.564326",
        "lat": "50.770591",
        "timezone": "5",
        "region": "Ақтөбе облысы",
        "district": "Мәртөк ауданы",
        "distance": null
    },
    {
        "id": 9771,
        "title": "Қазан",
        "lng": "67.449877",
        "lat": "53.321480",
        "timezone": "5",
        "region": "Солтүстік Қазақстан облысы",
        "district": "Айыртау ауданы",
        "distance": null
    },
    {
        "id": 9911,
        "title": "Қазан",
        "lng": "66.952471",
        "lat": "54.717719",
        "timezone": "5",
        "region": "Солтүстік Қазақстан облысы",
        "district": "Жамбыл ауданы",
        "distance": null
    },
    {
        "id": 8734,
        "title": "Қазанбасы",
        "lng": "63.637436",
        "lat": "52.463711",
        "timezone": "5",
        "region": "Қостанай облысы",
        "district": "Әулиекөл ауданы",
        "distance": null
    },
    {
        "id": 8286,
        "title": "Қазансу",
        "lng": "77.637114",
        "lat": "44.404176",
        "timezone": "5",
        "region": "Жетісу облысы",
        "district": "Кербұлақ ауданы",
        "distance": null
    },
    {
        "id": 11342,
        "title": "Қазантай",
        "lng": "78.551491",
        "lat": "51.638159",
        "timezone": "5",
        "region": "Павлодар облысы",
        "district": "Аққулы ауданы",
        "distance": null
    },
    {
        "id": 5925,
        "title": "Қазаншүнкүр",
        "lng": "81.770200",
        "lat": "49.556200",
        "timezone": "5",
        "region": "Абай облысы",
        "district": "Жарма ауданы",
        "distance": null
    },
    {
        "id": 10265,
        "title": "Қазата",
        "lng": "69.504567",
        "lat": "43.097619",
        "timezone": "5",
        "region": "Түркістан облысы",
        "district": "Бәйдібек ауданы",
        "distance": null
    },
    {
        "id": 6920,
        "title": "Қазатком",
        "lng": "77.725733",
        "lat": "43.579210",
        "timezone": "5",
        "region": "Алматы облысы",
        "district": "Еңбекшіқазақ ауданы",
        "distance": null
    },
    {
        "id": 8091,
        "title": "Қазақ",
        "lng": "72.915722",
        "lat": "42.909332",
        "timezone": "5",
        "region": "Жамбыл облысы",
        "district": "Тұрар рысқұлов ауданы",
        "distance": null
    },
    {
        "id": 7963,
        "title": "Қазақдиқан",
        "lng": "73.127222",
        "lat": "42.899167",
        "timezone": "5",
        "region": "Жамбыл облысы",
        "district": "Меркі ауданы",
        "distance": null
    },
    {
        "id": 11359,
        "title": "Қазақстан",
        "lng": "81.020466",
        "lat": "46.197560",
        "timezone": "5",
        "region": "Жетісу облысы",
        "district": "Алакөл ауданы",
        "distance": null
    },
    {
        "id": 6939,
        "title": "Қазақстан",
        "lng": "77.769804",
        "lat": "43.521576",
        "timezone": "5",
        "region": "Алматы облысы",
        "district": "Еңбекшіқазақ ауданы",
        "distance": null
    },
    {
        "id": 7685,
        "title": "Қазақстан",
        "lng": "52.711003",
        "lat": "50.799281",
        "timezone": "5",
        "region": "Батыс Қазақстан облысы",
        "district": "Сырым ауданы",
        "distance": null
    },
    {
        "id": 10864,
        "title": "Қазақстан",
        "lng": "70.022724",
        "lat": "42.260053",
        "timezone": "5",
        "region": "Түркістан облысы",
        "district": "Төле би ауданы",
        "distance": null
    },
    {
        "id": 10931,
        "title": "Қазақстан",
        "lng": "67.989513",
        "lat": "41.807093",
        "timezone": "5",
        "region": "Түркістан облысы",
        "district": "Шардара ауданы",
        "distance": null
    },
    {
        "id": 11172,
        "title": "Қазақстан",
        "lng": "83.706132",
        "lat": "47.857789",
        "timezone": "5",
        "region": "Шығыс Қазақстан облысы",
        "district": "Тарбағатай ауданы",
        "distance": null
    },
    {
        "id": 6698,
        "title": "Қазақстанға 13 жыл",
        "lng": "55.984554",
        "lat": "50.549746",
        "timezone": "5",
        "region": "Ақтөбе облысы",
        "district": "Мәртөк ауданы",
        "distance": null
    },
    {
        "id": 10779,
        "title": "Қазақстанға 30 жыл",
        "lng": "68.387296",
        "lat": "43.261256",
        "timezone": "5",
        "region": "Түркістан облысы",
        "district": "Сауран ауданы",
        "distance": null
    },
    {
        "id": 6991,
        "title": "Қазтай Ұлтарақов",
        "lng": "78.306260",
        "lat": "43.620332",
        "timezone": "5",
        "region": "Алматы облысы",
        "district": "Еңбекшіқазақ ауданы",
        "distance": null
    },
    {
        "id": 7076,
        "title": "Қазцик",
        "lng": "76.854133",
        "lat": "43.382656",
        "timezone": "5",
        "region": "Алматы облысы",
        "district": "Іле ауданы",
        "distance": null
    },
    {
        "id": 11341,
        "title": "Қазы",
        "lng": "78.077603",
        "lat": "51.731839",
        "timezone": "5",
        "region": "Павлодар облысы",
        "district": "Аққулы ауданы",
        "distance": null
    },
    {
        "id": 7052,
        "title": "Қазыбек бек",
        "lng": "76.317049",
        "lat": "43.599386",
        "timezone": "5",
        "region": "Алматы облысы",
        "district": "Жамбыл ауданы",
        "distance": null
    },
    {
        "id": 10353,
        "title": "Қазыбек би",
        "lng": "68.376635",
        "lat": "40.833791",
        "timezone": "5",
        "region": "Түркістан облысы",
        "district": "Жетісай ауданы",
        "distance": null
    },
    {
        "id": 10418,
        "title": "Қазығұрт",
        "lng": "69.388011",
        "lat": "41.757365",
        "timezone": "5",
        "region": "Түркістан облысы",
        "district": "Қазығұрт ауданы",
        "distance": null
    },
    {
        "id": 6005,
        "title": "Қазімбет",
        "lng": "81.555431",
        "lat": "47.249794",
        "timezone": "5",
        "region": "Абай облысы",
        "district": "Үржар ауданы",
        "distance": null
    },
    {
        "id": 8813,
        "title": "Қазірет",
        "lng": "60.460805",
        "lat": "51.975089",
        "timezone": "5",
        "region": "Қостанай облысы",
        "district": "Жітіқара ауданы",
        "distance": null
    },
    {
        "id": 6966,
        "title": "Қайназар",
        "lng": "77.310576",
        "lat": "43.369374",
        "timezone": "5",
        "region": "Алматы облысы",
        "district": "Еңбекшіқазақ ауданы",
        "distance": null
    },
    {
        "id": 7013,
        "title": "Қайназар",
        "lng": "76.273058",
        "lat": "43.196692",
        "timezone": "5",
        "region": "Алматы облысы",
        "district": "Жамбыл ауданы",
        "distance": null
    },
    {
        "id": 5817,
        "title": "Қайнар",
        "lng": "77.385092",
        "lat": "49.200299",
        "timezone": "5",
        "region": "Абай облысы",
        "district": "Жаңасемей ауданы",
        "distance": null
    },
    {
        "id": 6044,
        "title": "Қайнар",
        "lng": "71.112785",
        "lat": "52.162592",
        "timezone": "5",
        "region": "Ақмола облысы",
        "district": "Ақкөл ауданы",
        "distance": null
    },
    {
        "id": 6625,
        "title": "Қайнар",
        "lng": "57.989800",
        "lat": "49.812771",
        "timezone": "5",
        "region": "Ақтөбе облысы",
        "district": "Алға ауданы",
        "distance": null
    },
    {
        "id": 6960,
        "title": "Қайнар",
        "lng": "77.357361",
        "lat": "43.569838",
        "timezone": "5",
        "region": "Алматы облысы",
        "district": "Еңбекшіқазақ ауданы",
        "distance": null
    },
    {
        "id": 7104,
        "title": "Қайнар",
        "lng": "76.452757",
        "lat": "43.157870",
        "timezone": "5",
        "region": "Алматы облысы",
        "district": "Қарасай ауданы",
        "distance": null
    },
    {
        "id": 7183,
        "title": "Қайнар",
        "lng": "79.873191",
        "lat": "42.861888",
        "timezone": "5",
        "region": "Алматы облысы",
        "district": "Райымбек ауданы",
        "distance": null
    },
    {
        "id": 7216,
        "title": "Қайнар",
        "lng": "77.078712",
        "lat": "43.477069",
        "timezone": "5",
        "region": "Алматы облысы",
        "district": "Талғар ауданы",
        "distance": null
    },
    {
        "id": 7486,
        "title": "Қайнар",
        "lng": "50.917220",
        "lat": "51.240799",
        "timezone": "5",
        "region": "Батыс Қазақстан облысы",
        "district": "Бәйтерек ауданы",
        "distance": null
    },
    {
        "id": 7823,
        "title": "Қайнар",
        "lng": "71.633333",
        "lat": "42.999444",
        "timezone": "5",
        "region": "Жамбыл облысы",
        "district": "Байзақ ауданы",
        "distance": null
    },
    {
        "id": 7947,
        "title": "Қайнар",
        "lng": "74.197591",
        "lat": "43.291862",
        "timezone": "5",
        "region": "Жамбыл облысы",
        "district": "Қордай ауданы",
        "distance": null
    },
    {
        "id": 8203,
        "title": "Қайнар",
        "lng": "81.252231",
        "lat": "46.088443",
        "timezone": "5",
        "region": "Жетісу облысы",
        "district": "Алакөл ауданы",
        "distance": null
    },
    {
        "id": 8261,
        "title": "Қайнар",
        "lng": "78.087260",
        "lat": "45.207078",
        "timezone": "5",
        "region": "Жетісу облысы",
        "district": "Қаратал ауданы",
        "distance": null
    },
    {
        "id": 8566,
        "title": "Қайнар",
        "lng": "71.088117",
        "lat": "49.745456",
        "timezone": "5",
        "region": "Қарағанды облысы",
        "district": "Нұра ауданы",
        "distance": null
    },
    {
        "id": 10599,
        "title": "Қайнар",
        "lng": "69.355096",
        "lat": "42.426915",
        "timezone": "5",
        "region": "Түркістан облысы",
        "district": "Ордабасы ауданы",
        "distance": null
    },
    {
        "id": 10798,
        "title": "Қайнар",
        "lng": "68.324801",
        "lat": "44.055601",
        "timezone": "5",
        "region": "Түркістан облысы",
        "district": "Созақ ауданы",
        "distance": null
    },
    {
        "id": 10829,
        "title": "Қайнар",
        "lng": "70.042056",
        "lat": "42.160921",
        "timezone": "5",
        "region": "Түркістан облысы",
        "district": "Төле би ауданы",
        "distance": null
    },
    {
        "id": 11047,
        "title": "Қайнар",
        "lng": "84.956830",
        "lat": "47.546994",
        "timezone": "5",
        "region": "Шығыс Қазақстан облысы",
        "district": "Зайсан ауданы",
        "distance": null
    },
    {
        "id": 10298,
        "title": "Қайнарбұлақ",
        "lng": "69.048331",
        "lat": "43.314043",
        "timezone": "5",
        "region": "Түркістан облысы",
        "district": "Бәйдібек ауданы",
        "distance": null
    },
    {
        "id": 8230,
        "title": "Қайнарлы",
        "lng": "78.678711",
        "lat": "44.984275",
        "timezone": "5",
        "region": "Жетісу облысы",
        "district": "Ескелді ауданы",
        "distance": null
    },
    {
        "id": 11138,
        "title": "Қайнарлы",
        "lng": "85.504317",
        "lat": "48.438411",
        "timezone": "5",
        "region": "Шығыс Қазақстан облысы",
        "district": "Күршім ауданы",
        "distance": null
    },
    {
        "id": 9480,
        "title": "Қайран",
        "lng": "75.803733",
        "lat": "53.063282",
        "timezone": "5",
        "region": "Павлодар облысы",
        "district": "Ақтоғай ауданы",
        "distance": null
    },
    {
        "id": 9913,
        "title": "Қайранкөл",
        "lng": "66.370435",
        "lat": "54.031031",
        "timezone": "5",
        "region": "Солтүстік Қазақстан облысы",
        "district": "Жамбыл ауданы",
        "distance": null
    },
    {
        "id": 6921,
        "title": "Қайрат",
        "lng": "77.590330",
        "lat": "43.546744",
        "timezone": "5",
        "region": "Алматы облысы",
        "district": "Еңбекшіқазақ ауданы",
        "distance": null
    },
    {
        "id": 6925,
        "title": "Қайрат",
        "lng": "78.356629",
        "lat": "43.516084",
        "timezone": "5",
        "region": "Алматы облысы",
        "district": "Еңбекшіқазақ ауданы",
        "distance": null
    },
    {
        "id": 7096,
        "title": "Қайрат",
        "lng": "76.582070",
        "lat": "43.167911",
        "timezone": "5",
        "region": "Алматы облысы",
        "district": "Қарасай ауданы",
        "distance": null
    },
    {
        "id": 7197,
        "title": "Қайрат",
        "lng": "77.089986",
        "lat": "43.593438",
        "timezone": "5",
        "region": "Алматы облысы",
        "district": "Алатау қаласы",
        "distance": null
    },
    {
        "id": 7868,
        "title": "Қайрат",
        "lng": "70.762693",
        "lat": "42.604679",
        "timezone": "5",
        "region": "Жамбыл облысы",
        "district": "Жуалы ауданы",
        "distance": null
    },
    {
        "id": 10158,
        "title": "Қайрат",
        "lng": "73.556894",
        "lat": "52.913803",
        "timezone": "5",
        "region": "Солтүстік Қазақстан облысы",
        "district": "Уәлиханов ауданы",
        "distance": null
    },
    {
        "id": 6324,
        "title": "Қайрақты",
        "lng": "67.809760",
        "lat": "51.876579",
        "timezone": "5",
        "region": "Ақмола облысы",
        "district": "Жақсы ауданы",
        "distance": null
    },
    {
        "id": 6689,
        "title": "Қайрақты",
        "lng": "58.484116",
        "lat": "50.665435",
        "timezone": "5",
        "region": "Ақтөбе облысы",
        "district": "Қарғалы ауданы",
        "distance": null
    },
    {
        "id": 8625,
        "title": "Қайрақты",
        "lng": "73.603831",
        "lat": "48.849579",
        "timezone": "5",
        "region": "Қарағанды облысы",
        "district": "Шет ауданы",
        "distance": null
    },
    {
        "id": 6690,
        "title": "Қайрақтысай",
        "lng": "58.553744",
        "lat": "50.633063",
        "timezone": "5",
        "region": "Ақтөбе облысы",
        "district": "Қарғалы ауданы",
        "distance": null
    },
    {
        "id": 7626,
        "title": "Қайшақұдық",
        "lng": "50.214342",
        "lat": "49.783174",
        "timezone": "5",
        "region": "Батыс Қазақстан облысы",
        "district": "Казталов ауданы",
        "distance": null
    },
    {
        "id": 5991,
        "title": "Қайынды",
        "lng": "82.268136",
        "lat": "46.963798",
        "timezone": "5",
        "region": "Абай облысы",
        "district": "Мақаншы ауданы",
        "distance": null
    },
    {
        "id": 6749,
        "title": "Қайынды",
        "lng": "59.108463",
        "lat": "48.924435",
        "timezone": "5",
        "region": "Ақтөбе облысы",
        "district": "Мұғалжар ауданы",
        "distance": null
    },
    {
        "id": 7606,
        "title": "Қайынды",
        "lng": "48.859970",
        "lat": "50.087744",
        "timezone": "5",
        "region": "Батыс Қазақстан облысы",
        "district": "Казталов ауданы",
        "distance": null
    },
    {
        "id": 11072,
        "title": "Қайынды",
        "lng": "86.202074",
        "lat": "49.224304",
        "timezone": "5",
        "region": "Шығыс Қазақстан облысы",
        "district": "Катонқарағай ауданы",
        "distance": null
    },
    {
        "id": 9188,
        "title": "Қайындыкөл",
        "lng": "62.670993",
        "lat": "52.295349",
        "timezone": "5",
        "region": "Қостанай облысы",
        "district": "Бейімбет майлин ауданы",
        "distance": null
    },
    {
        "id": 6618,
        "title": "Қайындысай",
        "lng": "56.664488",
        "lat": "50.251755",
        "timezone": "5",
        "region": "Ақтөбе облысы",
        "district": "Алға ауданы",
        "distance": null
    },
    {
        "id": 8073,
        "title": "Қайыр",
        "lng": "70.557276",
        "lat": "43.926148",
        "timezone": "5",
        "region": "Жамбыл облысы",
        "district": "Талас ауданы",
        "distance": null
    },
    {
        "id": 10873,
        "title": "Қайыршақты",
        "lng": "70.015583",
        "lat": "42.660848",
        "timezone": "5",
        "region": "Түркістан облысы",
        "district": "Түлкібас ауданы",
        "distance": null
    },
    {
        "id": 7776,
        "title": "Қайыңды",
        "lng": "54.05611",
        "lat": "50.52083",
        "timezone": "5",
        "region": "Батыс Қазақстан облысы",
        "district": "Шыңғырлау ауданы",
        "distance": null
    },
    {
        "id": 8088,
        "title": "Қайыңды",
        "lng": "71.946727",
        "lat": "42.936697",
        "timezone": "5",
        "region": "Жамбыл облысы",
        "district": "Тұрар рысқұлов ауданы",
        "distance": null
    },
    {
        "id": 8004,
        "title": "Қайыңдысай",
        "lng": "73.553611",
        "lat": "43.056667",
        "timezone": "5",
        "region": "Жамбыл облысы",
        "district": "Меркі ауданы",
        "distance": null
    },
    {
        "id": 8986,
        "title": "Қайғы",
        "lng": "64.705138",
        "lat": "50.941246",
        "timezone": "5",
        "region": "Қостанай облысы",
        "district": "Науырзым ауданы",
        "distance": null
    },
    {
        "id": 8798,
        "title": "Қалам-қарасу",
        "lng": "63.638011",
        "lat": "49.707960",
        "timezone": "5",
        "region": "Қостанай облысы",
        "district": "Жангелді ауданы",
        "distance": null
    },
    {
        "id": 11353,
        "title": "Қаламқас",
        "lng": "51.904874",
        "lat": "45.348982",
        "timezone": "5",
        "region": "Маңғыстау облысы",
        "district": "Маңғыстау ауданы",
        "distance": null
    },
    {
        "id": 10600,
        "title": "Қалаш",
        "lng": "69.052687",
        "lat": "42.390793",
        "timezone": "5",
        "region": "Түркістан облысы",
        "district": "Ордабасы ауданы",
        "distance": null
    },
    {
        "id": 5936,
        "title": "Қалбатау",
        "lng": "81.573693",
        "lat": "49.328084",
        "timezone": "5",
        "region": "Абай облысы",
        "district": "Жарма ауданы",
        "distance": null
    },
    {
        "id": 9381,
        "title": "Қалжан ахун",
        "lng": "64.891565",
        "lat": "45.068366",
        "timezone": "5",
        "region": "Қызылорда облысы",
        "district": "Сырдария ауданы",
        "distance": null
    },
    {
        "id": 7251,
        "title": "Қалжат",
        "lng": "80.672908",
        "lat": "43.509102",
        "timezone": "5",
        "region": "Алматы облысы",
        "district": "Ұйғыр ауданы",
        "distance": null
    },
    {
        "id": 11125,
        "title": "Қалжыр",
        "lng": "85.173350",
        "lat": "48.135955",
        "timezone": "5",
        "region": "Шығыс Қазақстан облысы",
        "district": "Күршім ауданы",
        "distance": null
    },
    {
        "id": 7703,
        "title": "Қалмақ",
        "lng": "49.325711",
        "lat": "50.753237",
        "timezone": "5",
        "region": "Батыс Қазақстан облысы",
        "district": "Тасқала ауданы",
        "distance": null
    },
    {
        "id": 6335,
        "title": "Қалмақкөл",
        "lng": "67.510253",
        "lat": "52.410407",
        "timezone": "5",
        "region": "Ақмола облысы",
        "district": "Жақсы ауданы",
        "distance": null
    },
    {
        "id": 7700,
        "title": "Қалмақшабын",
        "lng": "49.923881",
        "lat": "50.772767",
        "timezone": "5",
        "region": "Батыс Қазақстан облысы",
        "district": "Тасқала ауданы",
        "distance": null
    },
    {
        "id": 10317,
        "title": "Қалпақсай",
        "lng": "68.115772",
        "lat": "40.845175",
        "timezone": "5",
        "region": "Түркістан облысы",
        "district": "Жетісай ауданы",
        "distance": null
    },
    {
        "id": 8263,
        "title": "Қалпе",
        "lng": "77.907255",
        "lat": "45.090947",
        "timezone": "5",
        "region": "Жетісу облысы",
        "district": "Қаратал ауданы",
        "distance": null
    },
    {
        "id": 6660,
        "title": "Қалыбай",
        "lng": "60.810591",
        "lat": "49.150231",
        "timezone": "5",
        "region": "Ақтөбе облысы",
        "district": "Ырғыз ауданы",
        "distance": null
    },
    {
        "id": 9298,
        "title": "Қалғансыр",
        "lng": "67.776873",
        "lat": "43.315480",
        "timezone": "5",
        "region": "Қызылорда облысы",
        "district": "Жаңақорған ауданы",
        "distance": null
    },
    {
        "id": 7952,
        "title": "Қалғұты",
        "lng": "74.607289",
        "lat": "43.167260",
        "timezone": "5",
        "region": "Жамбыл облысы",
        "district": "Қордай ауданы",
        "distance": null
    },
    {
        "id": 9460,
        "title": "Қамбар",
        "lng": "75.916400",
        "lat": "53.004946",
        "timezone": "5",
        "region": "Павлодар облысы",
        "district": "Ақтоғай ауданы",
        "distance": null
    },
    {
        "id": 9774,
        "title": "Қамысақты",
        "lng": "68.460231",
        "lat": "53.575738",
        "timezone": "5",
        "region": "Солтүстік Қазақстан облысы",
        "district": "Айыртау ауданы",
        "distance": null
    },
    {
        "id": 7574,
        "title": "Қамысты",
        "lng": "46.954374",
        "lat": "49.765657",
        "timezone": "5",
        "region": "Батыс Қазақстан облысы",
        "district": "Жәнібек ауданы",
        "distance": null
    },
    {
        "id": 8842,
        "title": "Қамысты",
        "lng": "61.779038",
        "lat": "51.963814",
        "timezone": "5",
        "region": "Қостанай облысы",
        "district": "Қамысты ауданы",
        "distance": null
    },
    {
        "id": 11170,
        "title": "Қамысты",
        "lng": "83.665636",
        "lat": "47.356215",
        "timezone": "5",
        "region": "Шығыс Қазақстан облысы",
        "district": "Тарбағатай ауданы",
        "distance": null
    },
    {
        "id": 9087,
        "title": "Қамысты шаңдақ",
        "lng": "63.161626",
        "lat": "53.743843",
        "timezone": "5",
        "region": "Қостанай облысы",
        "district": "Фёдоров ауданы",
        "distance": null
    },
    {
        "id": 9244,
        "title": "Қамыстыбас",
        "lng": "61.955332",
        "lat": "46.194572",
        "timezone": "5",
        "region": "Қызылорда облысы",
        "district": "Арал ауданы",
        "distance": null
    },
    {
        "id": 7425,
        "title": "Қамыстыкөл",
        "lng": "51.340695",
        "lat": "50.175335",
        "timezone": "5",
        "region": "Батыс Қазақстан облысы",
        "district": "Ақжайық ауданы",
        "distance": null
    },
    {
        "id": 8205,
        "title": "Қамысқала",
        "lng": "81.533916",
        "lat": "46.469771",
        "timezone": "5",
        "region": "Жетісу облысы",
        "district": "Алакөл ауданы",
        "distance": null
    },
    {
        "id": 8045,
        "title": "Қамқалы",
        "lng": "70.170973",
        "lat": "44.843809",
        "timezone": "5",
        "region": "Жамбыл облысы",
        "district": "Сарысу ауданы",
        "distance": null
    },
    {
        "id": 8264,
        "title": "Қанабек",
        "lng": "77.935822",
        "lat": "45.128077",
        "timezone": "5",
        "region": "Жетісу облысы",
        "district": "Қаратал ауданы",
        "distance": null
    },
    {
        "id": 6809,
        "title": "Қанай",
        "lng": "55.255804",
        "lat": "50.515031",
        "timezone": "5",
        "region": "Ақтөбе облысы",
        "district": "Қобда ауданы",
        "distance": null
    },
    {
        "id": 7474,
        "title": "Қанай",
        "lng": "52.665943",
        "lat": "51.417193",
        "timezone": "5",
        "region": "Батыс Қазақстан облысы",
        "district": "Бөрлі ауданы",
        "distance": null
    },
    {
        "id": 6412,
        "title": "Қанай би",
        "lng": "69.603202",
        "lat": "52.924749",
        "timezone": "5",
        "region": "Ақмола облысы",
        "district": "Зеренді ауданы",
        "distance": null
    },
    {
        "id": 10753,
        "title": "Қанағат",
        "lng": "69.262992",
        "lat": "41.470605",
        "timezone": "5",
        "region": "Түркістан облысы",
        "district": "Сарыағаш ауданы",
        "distance": null
    },
    {
        "id": 6862,
        "title": "Қанбақты",
        "lng": "58.869412",
        "lat": "46.550146",
        "timezone": "5",
        "region": "Ақтөбе облысы",
        "district": "Шалқар ауданы",
        "distance": null
    },
    {
        "id": 24,
        "title": "Қандыағаш қаласы",
        "lng": "57.423333",
        "lat": "49.474444",
        "timezone": "5",
        "region": "Ақтөбе облысы",
        "district": null,
        "distance": null
    },
    {
        "id": 7727,
        "title": "Қандық",
        "lng": "51.680096",
        "lat": "50.757624",
        "timezone": "5",
        "region": "Батыс Қазақстан облысы",
        "district": "Теректі ауданы",
        "distance": null
    },
    {
        "id": 11232,
        "title": "Қандықовка",
        "lng": "82.238447",
        "lat": "50.567045",
        "timezone": "5",
        "region": "Шығыс Қазақстан облысы",
        "district": "Шемонаиха ауданы",
        "distance": null
    },
    {
        "id": 9299,
        "title": "Қандөз",
        "lng": "67.670261",
        "lat": "43.285286",
        "timezone": "5",
        "region": "Қызылорда облысы",
        "district": "Жаңақорған ауданы",
        "distance": null
    },
    {
        "id": 8536,
        "title": "Қантай",
        "lng": "71.876029",
        "lat": "49.677062",
        "timezone": "5",
        "region": "Қарағанды облысы",
        "district": "Нұра ауданы",
        "distance": null
    },
    {
        "id": 7025,
        "title": "Қаншенгел",
        "lng": "75.548244",
        "lat": "44.324886",
        "timezone": "5",
        "region": "Алматы облысы",
        "district": "Жамбыл ауданы",
        "distance": null
    },
    {
        "id": 9522,
        "title": "Қаныш Сәтбаев",
        "lng": "74.673213",
        "lat": "50.555034",
        "timezone": "5",
        "region": "Павлодар облысы",
        "district": "Баянауыл ауданы",
        "distance": null
    },
    {
        "id": 5937,
        "title": "Қапай батыр",
        "lng": "81.603185",
        "lat": "49.363798",
        "timezone": "5",
        "region": "Абай облысы",
        "district": "Жарма ауданы",
        "distance": null
    },
    {
        "id": 7839,
        "title": "Қапал",
        "lng": "71.329198",
        "lat": "42.971504",
        "timezone": "5",
        "region": "Жамбыл облысы",
        "district": "Жамбыл ауданы",
        "distance": null
    },
    {
        "id": 8166,
        "title": "Қапал",
        "lng": "79.043516",
        "lat": "45.124573",
        "timezone": "5",
        "region": "Жетісу облысы",
        "district": "Ақсу ауданы",
        "distance": null
    },
    {
        "id": 5942,
        "title": "Қапанбұлақ",
        "lng": "80.900649",
        "lat": "48.912482",
        "timezone": "5",
        "region": "Абай облысы",
        "district": "Жарма ауданы",
        "distance": null
    },
    {
        "id": 6554,
        "title": "Қара-адыр",
        "lng": "71.661641",
        "lat": "51.757971",
        "timezone": "5",
        "region": "Ақмола облысы",
        "district": "Шортанды ауданы",
        "distance": null
    },
    {
        "id": 6031,
        "title": "Қара-мурза",
        "lng": "79.666902",
        "lat": "50.671686",
        "timezone": "5",
        "region": "Абай облысы",
        "district": "Бесқарағай ауданы",
        "distance": null
    },
    {
        "id": 9582,
        "title": "Қараағаш",
        "lng": "74.956999",
        "lat": "53.793518",
        "timezone": "5",
        "region": "Павлодар облысы",
        "district": "Ертіс ауданы",
        "distance": null
    },
    {
        "id": 5859,
        "title": "Қарабас",
        "lng": "79.099239",
        "lat": "51.044002",
        "timezone": "5",
        "region": "Абай облысы",
        "district": "Бесқарағай ауданы",
        "distance": null
    },
    {
        "id": 7752,
        "title": "Қарабас",
        "lng": "51.417294",
        "lat": "50.434224",
        "timezone": "5",
        "region": "Батыс Қазақстан облысы",
        "district": "Теректі ауданы",
        "distance": null
    },
    {
        "id": 8386,
        "title": "Қарабас",
        "lng": "72.901196",
        "lat": "49.574018",
        "timezone": "5",
        "region": "Қарағанды облысы",
        "district": "Абай ауданы",
        "distance": null
    },
    {
        "id": 7020,
        "title": "Қарабастау",
        "lng": "75.585533",
        "lat": "43.776649",
        "timezone": "5",
        "region": "Алматы облысы",
        "district": "Жамбыл ауданы",
        "distance": null
    },
    {
        "id": 7876,
        "title": "Қарабастау",
        "lng": "70.809559",
        "lat": "42.930637",
        "timezone": "5",
        "region": "Жамбыл облысы",
        "district": "Жуалы ауданы",
        "distance": null
    },
    {
        "id": 10450,
        "title": "Қарабастау",
        "lng": "69.673558",
        "lat": "41.912345",
        "timezone": "5",
        "region": "Түркістан облысы",
        "district": "Қазығұрт ауданы",
        "distance": null
    },
    {
        "id": 10593,
        "title": "Қарабастау",
        "lng": "69.295816",
        "lat": "42.358222",
        "timezone": "5",
        "region": "Түркістан облысы",
        "district": "Ордабасы ауданы",
        "distance": null
    },
    {
        "id": 10921,
        "title": "Қарабастау",
        "lng": "70.255568",
        "lat": "42.604420",
        "timezone": "5",
        "region": "Түркістан облысы",
        "district": "Түлкібас ауданы",
        "distance": null
    },
    {
        "id": 8846,
        "title": "Қарабатыр",
        "lng": "62.146080",
        "lat": "52.135547",
        "timezone": "5",
        "region": "Қостанай облысы",
        "district": "Қамысты ауданы",
        "distance": null
    },
    {
        "id": 7299,
        "title": "Қарабау",
        "lng": "52.925826",
        "lat": "48.450908",
        "timezone": "5",
        "region": "Атырау облысы",
        "district": "Қызылқоға ауданы",
        "distance": null
    },
    {
        "id": 10410,
        "title": "Қарабау",
        "lng": "69.542330",
        "lat": "41.844219",
        "timezone": "5",
        "region": "Түркістан облысы",
        "district": "Қазығұрт ауданы",
        "distance": null
    },
    {
        "id": 10423,
        "title": "Қарабау",
        "lng": "69.542332",
        "lat": "41.844216",
        "timezone": "5",
        "region": "Түркістан облысы",
        "district": "Қазығұрт ауданы",
        "distance": null
    },
    {
        "id": 10723,
        "title": "Қарабау",
        "lng": "69.303946",
        "lat": "41.479983",
        "timezone": "5",
        "region": "Түркістан облысы",
        "district": "Сарыағаш ауданы",
        "distance": null
    },
    {
        "id": 6240,
        "title": "Қарабауыр",
        "lng": "70.234583",
        "lat": "53.196229",
        "timezone": "5",
        "region": "Ақмола облысы",
        "district": "Бурабай ауданы",
        "distance": null
    },
    {
        "id": 9897,
        "title": "Қарабеловка",
        "lng": "68.165502",
        "lat": "53.899260",
        "timezone": "5",
        "region": "Солтүстік Қазақстан облысы",
        "district": "Есіл ауданы",
        "distance": null
    },
    {
        "id": 10505,
        "title": "Қарабура әулие",
        "lng": "68.857729",
        "lat": "41.269765",
        "timezone": "5",
        "region": "Түркістан облысы",
        "district": "Келес ауданы",
        "distance": null
    },
    {
        "id": 9461,
        "title": "Қарабұзау",
        "lng": "75.974530",
        "lat": "52.726057",
        "timezone": "5",
        "region": "Павлодар облысы",
        "district": "Ақтоғай ауданы",
        "distance": null
    },
    {
        "id": 11312,
        "title": "Қарабұлақ",
        "lng": "80.870429",
        "lat": "46.129399",
        "timezone": "5",
        "region": "Жетісу облысы",
        "district": "Алакөл ауданы",
        "distance": null
    },
    {
        "id": 5772,
        "title": "Қарабұлақ",
        "lng": "80.876969",
        "lat": "47.511700",
        "timezone": "5",
        "region": "Абай облысы",
        "district": "Аягөз ауданы",
        "distance": null
    },
    {
        "id": 5981,
        "title": "Қарабұлақ",
        "lng": "82.169186",
        "lat": "46.142052",
        "timezone": "5",
        "region": "Абай облысы",
        "district": "Мақаншы ауданы",
        "distance": null
    },
    {
        "id": 6241,
        "title": "Қарабұлақ",
        "lng": "69.326341",
        "lat": "52.478149",
        "timezone": "5",
        "region": "Ақмола облысы",
        "district": "Бурабай ауданы",
        "distance": null
    },
    {
        "id": 6563,
        "title": "Қарабұлақ",
        "lng": "71.814022",
        "lat": "52.307229",
        "timezone": "5",
        "region": "Ақмола облысы",
        "district": "Степногорск қаласы",
        "distance": null
    },
    {
        "id": 6609,
        "title": "Қарабұлақ",
        "lng": "56.854698",
        "lat": "49.775548",
        "timezone": "5",
        "region": "Ақтөбе облысы",
        "district": "Алға ауданы",
        "distance": null
    },
    {
        "id": 6696,
        "title": "Қарабұлақ",
        "lng": "56.339451",
        "lat": "50.874493",
        "timezone": "5",
        "region": "Ақтөбе облысы",
        "district": "Мәртөк ауданы",
        "distance": null
    },
    {
        "id": 6859,
        "title": "Қарабұлақ",
        "lng": "58.540485",
        "lat": "48.517513",
        "timezone": "5",
        "region": "Ақтөбе облысы",
        "district": "Шалқар ауданы",
        "distance": null
    },
    {
        "id": 7141,
        "title": "Қарабұлақ",
        "lng": "78.536139",
        "lat": "43.069227",
        "timezone": "5",
        "region": "Алматы облысы",
        "district": "Кеген ауданы",
        "distance": null
    },
    {
        "id": 7229,
        "title": "Қарабұлақ",
        "lng": "77.147317",
        "lat": "43.407706",
        "timezone": "5",
        "region": "Алматы облысы",
        "district": "Талғар ауданы",
        "distance": null
    },
    {
        "id": 8232,
        "title": "Қарабұлақ",
        "lng": "78.489031",
        "lat": "44.909355",
        "timezone": "5",
        "region": "Жетісу облысы",
        "district": "Ескелді ауданы",
        "distance": null
    },
    {
        "id": 8491,
        "title": "Қарабұлақ",
        "lng": "76.100905",
        "lat": "49.706014",
        "timezone": "5",
        "region": "Қарағанды облысы",
        "district": "Қарқаралы ауданы",
        "distance": null
    },
    {
        "id": 10682,
        "title": "Қарабұлақ",
        "lng": "69.773900",
        "lat": "42.531379",
        "timezone": "5",
        "region": "Түркістан облысы",
        "district": "Сайрам ауданы",
        "distance": null
    },
    {
        "id": 10816,
        "title": "Қарабұлақ",
        "lng": "68.582211",
        "lat": "43.432921",
        "timezone": "5",
        "region": "Түркістан облысы",
        "district": "Созақ ауданы",
        "distance": null
    },
    {
        "id": 11055,
        "title": "Қарабұлақ",
        "lng": "84.682376",
        "lat": "47.551434",
        "timezone": "5",
        "region": "Шығыс Қазақстан облысы",
        "district": "Зайсан ауданы",
        "distance": null
    },
    {
        "id": 5982,
        "title": "Қарабұта",
        "lng": "82.578486",
        "lat": "46.867046",
        "timezone": "5",
        "region": "Абай облысы",
        "district": "Мақаншы ауданы",
        "distance": null
    },
    {
        "id": 6592,
        "title": "Қарабұтақ",
        "lng": "60.120029",
        "lat": "49.955593",
        "timezone": "5",
        "region": "Ақтөбе облысы",
        "district": "Әйтеке би ауданы",
        "distance": null
    },
    {
        "id": 6685,
        "title": "Қарабұтақ",
        "lng": "57.967216",
        "lat": "50.618823",
        "timezone": "5",
        "region": "Ақтөбе облысы",
        "district": "Қарғалы ауданы",
        "distance": null
    },
    {
        "id": 8009,
        "title": "Қарабөгет",
        "lng": "72.263617",
        "lat": "44.557801",
        "timezone": "5",
        "region": "Жамбыл облысы",
        "district": "Мойынқұм ауданы",
        "distance": null
    },
    {
        "id": 8365,
        "title": "Қарабөгет",
        "lng": "80.257967",
        "lat": "45.763091",
        "timezone": "5",
        "region": "Жетісу облысы",
        "district": "Сарқан ауданы",
        "distance": null
    },
    {
        "id": 6447,
        "title": "Қараегін",
        "lng": "70.380936",
        "lat": "50.850803",
        "timezone": "5",
        "region": "Ақмола облысы",
        "district": "Қорғалжын ауданы",
        "distance": null
    },
    {
        "id": 5780,
        "title": "Қаражал",
        "lng": "80.706711",
        "lat": "47.983381",
        "timezone": "5",
        "region": "Абай облысы",
        "district": "Аягөз ауданы",
        "distance": null
    },
    {
        "id": 5928,
        "title": "Қаражал",
        "lng": "80.703882",
        "lat": "47.982723",
        "timezone": "5",
        "region": "Абай облысы",
        "district": "Жарма ауданы",
        "distance": null
    },
    {
        "id": 11095,
        "title": "Қаражал",
        "lng": "84.847451",
        "lat": "49.433502",
        "timezone": "5",
        "region": "Шығыс Қазақстан облысы",
        "district": "Катонқарағай ауданы",
        "distance": null
    },
    {
        "id": 79,
        "title": "Қаражал қаласы",
        "lng": "70.785762",
        "lat": "48.001042",
        "timezone": "5",
        "region": "Ұлытау облысы",
        "district": null,
        "distance": null
    },
    {
        "id": 11293,
        "title": "Қаражантақ",
        "lng": "68.952938",
        "lat": "42.609954",
        "timezone": "5",
        "region": "Түркістан облысы",
        "district": "Арыс қаласы",
        "distance": null
    },
    {
        "id": 6141,
        "title": "Қаражар",
        "lng": "68.764948",
        "lat": "51.698839",
        "timezone": "5",
        "region": "Ақмола облысы",
        "district": "Атбасар ауданы",
        "distance": null
    },
    {
        "id": 6243,
        "title": "Қаражар",
        "lng": "70.276669",
        "lat": "52.683419",
        "timezone": "5",
        "region": "Ақмола облысы",
        "district": "Бурабай ауданы",
        "distance": null
    },
    {
        "id": 6504,
        "title": "Қаражар",
        "lng": "71.234084",
        "lat": "51.075930",
        "timezone": "5",
        "region": "Ақмола облысы",
        "district": "Целиноград ауданы",
        "distance": null
    },
    {
        "id": 6543,
        "title": "Қаражар",
        "lng": "71.464573",
        "lat": "51.760614",
        "timezone": "5",
        "region": "Ақмола облысы",
        "district": "Шортанды ауданы",
        "distance": null
    },
    {
        "id": 6634,
        "title": "Қаражар",
        "lng": "56.202368",
        "lat": "47.840646",
        "timezone": "5",
        "region": "Ақтөбе облысы",
        "district": "Байғанин ауданы",
        "distance": null
    },
    {
        "id": 7517,
        "title": "Қаражар",
        "lng": "50.764039",
        "lat": "51.164115",
        "timezone": "5",
        "region": "Батыс Қазақстан облысы",
        "district": "Бәйтерек ауданы",
        "distance": null
    },
    {
        "id": 8453,
        "title": "Қаражар",
        "lng": "72.576329",
        "lat": "49.865124",
        "timezone": "5",
        "region": "Қарағанды облысы",
        "district": "Бұқар жырау ауданы",
        "distance": null
    },
    {
        "id": 9495,
        "title": "Қаражар",
        "lng": "75.538254",
        "lat": "50.719831",
        "timezone": "5",
        "region": "Павлодар облысы",
        "district": "Баянауыл ауданы",
        "distance": null
    },
    {
        "id": 8257,
        "title": "Қаражиде",
        "lng": "78.065350",
        "lat": "45.054582",
        "timezone": "5",
        "region": "Жетісу облысы",
        "district": "Қаратал ауданы",
        "distance": null
    },
    {
        "id": 10770,
        "title": "Қаражон",
        "lng": "67.881203",
        "lat": "43.673940",
        "timezone": "5",
        "region": "Түркістан облысы",
        "district": "Сауран ауданы",
        "distance": null
    },
    {
        "id": 6942,
        "title": "Қаражота",
        "lng": "78.183065",
        "lat": "43.649992",
        "timezone": "5",
        "region": "Алматы облысы",
        "district": "Еңбекшіқазақ ауданы",
        "distance": null
    },
    {
        "id": 6797,
        "title": "Қаракемер",
        "lng": "54.531466",
        "lat": "49.189884",
        "timezone": "5",
        "region": "Ақтөбе облысы",
        "district": "Ойыл ауданы",
        "distance": null
    },
    {
        "id": 6817,
        "title": "Қаракемер",
        "lng": "54.950889",
        "lat": "50.754068",
        "timezone": "5",
        "region": "Ақтөбе облысы",
        "district": "Қобда ауданы",
        "distance": null
    },
    {
        "id": 6945,
        "title": "Қаракемер",
        "lng": "77.619309",
        "lat": "43.424044",
        "timezone": "5",
        "region": "Алматы облысы",
        "district": "Еңбекшіқазақ ауданы",
        "distance": null
    },
    {
        "id": 7843,
        "title": "Қаракемер",
        "lng": "71.074777",
        "lat": "43.082813",
        "timezone": "5",
        "region": "Жамбыл облысы",
        "district": "Жамбыл ауданы",
        "distance": null
    },
    {
        "id": 7932,
        "title": "Қаракемер",
        "lng": "75.326593",
        "lat": "42.916503",
        "timezone": "5",
        "region": "Жамбыл облысы",
        "district": "Қордай ауданы",
        "distance": null
    },
    {
        "id": 8103,
        "title": "Қаракемер",
        "lng": "72.441761",
        "lat": "42.944861",
        "timezone": "5",
        "region": "Жамбыл облысы",
        "district": "Тұрар рысқұлов ауданы",
        "distance": null
    },
    {
        "id": 9278,
        "title": "Қаракеткен",
        "lng": "64.513357",
        "lat": "45.192312",
        "timezone": "5",
        "region": "Қызылорда облысы",
        "district": "Жалағаш ауданы",
        "distance": null
    },
    {
        "id": 6573,
        "title": "Қаракөл",
        "lng": "69.511170",
        "lat": "51.842967",
        "timezone": "5",
        "region": "Ақмола облысы",
        "district": "Астрахан ауданы",
        "distance": null
    },
    {
        "id": 7293,
        "title": "Қаракөл",
        "lng": "52.881072",
        "lat": "48.782601",
        "timezone": "5",
        "region": "Атырау облысы",
        "district": "Қызылқоға ауданы",
        "distance": null
    },
    {
        "id": 7596,
        "title": "Қаракөл",
        "lng": "53.832900",
        "lat": "49.705490",
        "timezone": "5",
        "region": "Батыс Қазақстан облысы",
        "district": "Казталов ауданы",
        "distance": null
    },
    {
        "id": 8508,
        "title": "Қаракөл",
        "lng": "76.227109",
        "lat": "49.703777",
        "timezone": "5",
        "region": "Қарағанды облысы",
        "district": "Қарқаралы ауданы",
        "distance": null
    },
    {
        "id": 9629,
        "title": "Қаракөл",
        "lng": "76.593874",
        "lat": "52.844653",
        "timezone": "5",
        "region": "Павлодар облысы",
        "district": "Павлодар ауданы",
        "distance": null
    },
    {
        "id": 8989,
        "title": "Қарамеңді",
        "lng": "64.222500",
        "lat": "51.656640",
        "timezone": "5",
        "region": "Қостанай облысы",
        "district": "Науырзым ауданы",
        "distance": null
    },
    {
        "id": 11268,
        "title": "Қарамеңді батыр",
        "lng": "70.762217",
        "lat": "51.320450",
        "timezone": "5",
        "region": "Ақмола облысы",
        "district": "Целиноград ауданы",
        "distance": null
    },
    {
        "id": 5963,
        "title": "Қарамойыл",
        "lng": "82.694997",
        "lat": "48.743761",
        "timezone": "5",
        "region": "Абай облысы",
        "district": "Көкпекті ауданы",
        "distance": null
    },
    {
        "id": 10954,
        "title": "Қарамола",
        "lng": "71.881024",
        "lat": "48.754258",
        "timezone": "5",
        "region": "Ұлытау облысы",
        "district": "Жаңаарқа ауданы",
        "distance": null
    },
    {
        "id": 8908,
        "title": "Қарамырза",
        "lng": "65.819624",
        "lat": "52.547502",
        "timezone": "5",
        "region": "Қостанай облысы",
        "district": "Қарасу ауданы",
        "distance": null
    },
    {
        "id": 10163,
        "title": "Қарамырза",
        "lng": "73.091396",
        "lat": "53.421826",
        "timezone": "5",
        "region": "Солтүстік Қазақстан облысы",
        "district": "Уәлиханов ауданы",
        "distance": null
    },
    {
        "id": 8663,
        "title": "Қарамыс",
        "lng": "73.339493",
        "lat": "48.912772",
        "timezone": "5",
        "region": "Қарағанды облысы",
        "district": "Шет ауданы",
        "distance": null
    },
    {
        "id": 10683,
        "title": "Қарамұрт",
        "lng": "69.969059",
        "lat": "42.309067",
        "timezone": "5",
        "region": "Түркістан облысы",
        "district": "Сайрам ауданы",
        "distance": null
    },
    {
        "id": 8643,
        "title": "Қарамұрын",
        "lng": "72.976600",
        "lat": "49.254908",
        "timezone": "5",
        "region": "Қарағанды облысы",
        "district": "Шет ауданы",
        "distance": null
    },
    {
        "id": 7608,
        "title": "Қараоба",
        "lng": "47.952205",
        "lat": "49.973128",
        "timezone": "5",
        "region": "Батыс Қазақстан облысы",
        "district": "Казталов ауданы",
        "distance": null
    },
    {
        "id": 8771,
        "title": "Қараоба",
        "lng": "61.376673",
        "lat": "52.939399",
        "timezone": "5",
        "region": "Қостанай облысы",
        "district": "Денисов ауданы",
        "distance": null
    },
    {
        "id": 9013,
        "title": "Қараоба",
        "lng": "65.094683",
        "lat": "53.287742",
        "timezone": "5",
        "region": "Қостанай облысы",
        "district": "Сарыкөл ауданы",
        "distance": null
    },
    {
        "id": 9475,
        "title": "Қараоба",
        "lng": "76.490873",
        "lat": "52.685516",
        "timezone": "5",
        "region": "Павлодар облысы",
        "district": "Ақтоғай ауданы",
        "distance": null
    },
    {
        "id": 11272,
        "title": "Қараой",
        "lng": "54.014710",
        "lat": "49.483023",
        "timezone": "5",
        "region": "Ақтөбе облысы",
        "district": "Ойыл ауданы",
        "distance": null
    },
    {
        "id": 6910,
        "title": "Қараой",
        "lng": "74.787469",
        "lat": "45.852922",
        "timezone": "5",
        "region": "Алматы облысы",
        "district": "Балқаш ауданы",
        "distance": null
    },
    {
        "id": 7078,
        "title": "Қараой",
        "lng": "76.833212",
        "lat": "43.517111",
        "timezone": "5",
        "region": "Алматы облысы",
        "district": "Іле ауданы",
        "distance": null
    },
    {
        "id": 7693,
        "title": "Қараой",
        "lng": "50.283701",
        "lat": "50.990972",
        "timezone": "5",
        "region": "Батыс Қазақстан облысы",
        "district": "Тасқала ауданы",
        "distance": null
    },
    {
        "id": 8062,
        "title": "Қараой",
        "lng": "70.088346",
        "lat": "43.283429",
        "timezone": "5",
        "region": "Жамбыл облысы",
        "district": "Талас ауданы",
        "distance": null
    },
    {
        "id": 9481,
        "title": "Қараой",
        "lng": "75.764199",
        "lat": "53.086350",
        "timezone": "5",
        "region": "Павлодар облысы",
        "district": "Ақтоғай ауданы",
        "distance": null
    },
    {
        "id": 11139,
        "title": "Қараой",
        "lng": "85.378939",
        "lat": "48.385801",
        "timezone": "5",
        "region": "Шығыс Қазақстан облысы",
        "district": "Күршім ауданы",
        "distance": null
    },
    {
        "id": 7185,
        "title": "Қарасаз",
        "lng": "79.875006",
        "lat": "43.045849",
        "timezone": "5",
        "region": "Алматы облысы",
        "district": "Райымбек ауданы",
        "distance": null
    },
    {
        "id": 7888,
        "title": "Қарасаз",
        "lng": "70.685497",
        "lat": "42.631957",
        "timezone": "5",
        "region": "Жамбыл облысы",
        "district": "Жуалы ауданы",
        "distance": null
    },
    {
        "id": 6046,
        "title": "Қарасай",
        "lng": "71.965529",
        "lat": "51.900731",
        "timezone": "5",
        "region": "Ақмола облысы",
        "district": "Ақкөл ауданы",
        "distance": null
    },
    {
        "id": 6662,
        "title": "Қарасай",
        "lng": "60.166130",
        "lat": "48.976518",
        "timezone": "5",
        "region": "Ақтөбе облысы",
        "district": "Ырғыз ауданы",
        "distance": null
    },
    {
        "id": 6934,
        "title": "Қарасай",
        "lng": "77.485326",
        "lat": "43.390472",
        "timezone": "5",
        "region": "Алматы облысы",
        "district": "Еңбекшіқазақ ауданы",
        "distance": null
    },
    {
        "id": 7014,
        "title": "Қарасай",
        "lng": "76.213671",
        "lat": "43.228736",
        "timezone": "5",
        "region": "Алматы облысы",
        "district": "Жамбыл ауданы",
        "distance": null
    },
    {
        "id": 7935,
        "title": "Қарасай батыр",
        "lng": "75.688156",
        "lat": "42.837637",
        "timezone": "5",
        "region": "Жамбыл облысы",
        "district": "Қордай ауданы",
        "distance": null
    },
    {
        "id": 9747,
        "title": "Қарасай батыр",
        "lng": "68.038166",
        "lat": "53.128143",
        "timezone": "5",
        "region": "Солтүстік Қазақстан облысы",
        "district": "Айыртау ауданы",
        "distance": null
    },
    {
        "id": 10366,
        "title": "Қарасақал",
        "lng": "68.138337",
        "lat": "41.041233",
        "timezone": "5",
        "region": "Түркістан облысы",
        "district": "Жетісай ауданы",
        "distance": null
    },
    {
        "id": 10616,
        "title": "Қараспан",
        "lng": "69.065497",
        "lat": "42.493756",
        "timezone": "5",
        "region": "Түркістан облысы",
        "district": "Ордабасы ауданы",
        "distance": null
    },
    {
        "id": 11264,
        "title": "Қарасу",
        "lng": "47.403801",
        "lat": "48.822769",
        "timezone": "5",
        "region": "Батыс Қазақстан облысы",
        "district": "Бөкей ордасы ауданы",
        "distance": null
    },
    {
        "id": 6778,
        "title": "Қарасу",
        "lng": "54.694824",
        "lat": "48.873275",
        "timezone": "5",
        "region": "Ақтөбе облысы",
        "district": "Ойыл ауданы",
        "distance": null
    },
    {
        "id": 6785,
        "title": "Қарасу",
        "lng": "54.470533",
        "lat": "48.831659",
        "timezone": "5",
        "region": "Ақтөбе облысы",
        "district": "Ойыл ауданы",
        "distance": null
    },
    {
        "id": 7612,
        "title": "Қарасу",
        "lng": "49.808133",
        "lat": "49.217879",
        "timezone": "5",
        "region": "Батыс Қазақстан облысы",
        "district": "Казталов ауданы",
        "distance": null
    },
    {
        "id": 7889,
        "title": "Қарасу",
        "lng": "70.715282",
        "lat": "42.658724",
        "timezone": "5",
        "region": "Жамбыл облысы",
        "district": "Жуалы ауданы",
        "distance": null
    },
    {
        "id": 7936,
        "title": "Қарасу",
        "lng": "74.898339",
        "lat": "42.984524",
        "timezone": "5",
        "region": "Жамбыл облысы",
        "district": "Қордай ауданы",
        "distance": null
    },
    {
        "id": 7990,
        "title": "Қарасу",
        "lng": "73.202194",
        "lat": "43.192078",
        "timezone": "5",
        "region": "Жамбыл облысы",
        "district": "Меркі ауданы",
        "distance": null
    },
    {
        "id": 8412,
        "title": "Қарасу",
        "lng": "75.588731",
        "lat": "47.439205",
        "timezone": "5",
        "region": "Қарағанды облысы",
        "district": "Ақтоғай ауданы",
        "distance": null
    },
    {
        "id": 8603,
        "title": "Қарасу",
        "lng": "73.951281",
        "lat": "51.052428",
        "timezone": "5",
        "region": "Қарағанды облысы",
        "district": "Осакаров ауданы",
        "distance": null
    },
    {
        "id": 8711,
        "title": "Қарасу",
        "lng": "65.375021",
        "lat": "50.287394",
        "timezone": "5",
        "region": "Қостанай облысы",
        "district": "Амангелді ауданы",
        "distance": null
    },
    {
        "id": 8914,
        "title": "Қарасу",
        "lng": "65.484502",
        "lat": "52.656147",
        "timezone": "5",
        "region": "Қостанай облысы",
        "district": "Қарасу ауданы",
        "distance": null
    },
    {
        "id": 9467,
        "title": "Қарасу",
        "lng": "74.355568",
        "lat": "52.756081",
        "timezone": "5",
        "region": "Павлодар облысы",
        "district": "Ақтоғай ауданы",
        "distance": null
    },
    {
        "id": 10688,
        "title": "Қарасу",
        "lng": "69.798963",
        "lat": "42.403411",
        "timezone": "5",
        "region": "Түркістан облысы",
        "district": "Сайрам ауданы",
        "distance": null
    },
    {
        "id": 11178,
        "title": "Қарасу",
        "lng": "83.430179",
        "lat": "47.740586",
        "timezone": "5",
        "region": "Шығыс Қазақстан облысы",
        "district": "Тарбағатай ауданы",
        "distance": null
    },
    {
        "id": 9668,
        "title": "Қарасуық",
        "lng": "76.252424",
        "lat": "53.021849",
        "timezone": "5",
        "region": "Павлодар облысы",
        "district": "Тереңкөл ауданы",
        "distance": null
    },
    {
        "id": 9685,
        "title": "Қаратай",
        "lng": "77.396509",
        "lat": "53.515370",
        "timezone": "5",
        "region": "Павлодар облысы",
        "district": "Успен ауданы",
        "distance": null
    },
    {
        "id": 5983,
        "title": "Қаратал",
        "lng": "82.089533",
        "lat": "46.750734",
        "timezone": "5",
        "region": "Абай облысы",
        "district": "Мақаншы ауданы",
        "distance": null
    },
    {
        "id": 6174,
        "title": "Қаратал",
        "lng": "70.676671",
        "lat": "52.406611",
        "timezone": "5",
        "region": "Ақмола облысы",
        "district": "Біржан сал ауданы",
        "distance": null
    },
    {
        "id": 6291,
        "title": "Қаратал",
        "lng": "73.069597",
        "lat": "51.034933",
        "timezone": "5",
        "region": "Ақмола облысы",
        "district": "Ерейментау ауданы",
        "distance": null
    },
    {
        "id": 6779,
        "title": "Қаратал",
        "lng": "54.760015",
        "lat": "48.940995",
        "timezone": "5",
        "region": "Ақтөбе облысы",
        "district": "Ойыл ауданы",
        "distance": null
    },
    {
        "id": 6871,
        "title": "Қаратал",
        "lng": "60.172616",
        "lat": "47.682370",
        "timezone": "5",
        "region": "Ақтөбе облысы",
        "district": "Шалқар ауданы",
        "distance": null
    },
    {
        "id": 8236,
        "title": "Қаратал",
        "lng": "78.205343",
        "lat": "44.939765",
        "timezone": "5",
        "region": "Жетісу облысы",
        "district": "Ескелді ауданы",
        "distance": null
    },
    {
        "id": 8420,
        "title": "Қаратал",
        "lng": "74.509557",
        "lat": "48.314397",
        "timezone": "5",
        "region": "Қарағанды облысы",
        "district": "Ақтоғай ауданы",
        "distance": null
    },
    {
        "id": 9661,
        "title": "Қаратал",
        "lng": "76.219599",
        "lat": "53.435566",
        "timezone": "5",
        "region": "Павлодар облысы",
        "district": "Тереңкөл ауданы",
        "distance": null
    },
    {
        "id": 9780,
        "title": "Қаратал",
        "lng": "67.646087",
        "lat": "53.391448",
        "timezone": "5",
        "region": "Солтүстік Қазақстан облысы",
        "district": "Айыртау ауданы",
        "distance": null
    },
    {
        "id": 9851,
        "title": "Қаратал",
        "lng": "67.974700",
        "lat": "54.246845",
        "timezone": "5",
        "region": "Солтүстік Қазақстан облысы",
        "district": "Есіл ауданы",
        "distance": null
    },
    {
        "id": 10167,
        "title": "Қаратал",
        "lng": "73.703679",
        "lat": "52.742007",
        "timezone": "5",
        "region": "Солтүстік Қазақстан облысы",
        "district": "Уәлиханов ауданы",
        "distance": null
    },
    {
        "id": 10174,
        "title": "Қаратал",
        "lng": "67.467844",
        "lat": "53.862260",
        "timezone": "5",
        "region": "Солтүстік Қазақстан облысы",
        "district": "Шал ақын ауданы",
        "distance": null
    },
    {
        "id": 10515,
        "title": "Қаратал",
        "lng": "68.731010",
        "lat": "41.327107",
        "timezone": "5",
        "region": "Түркістан облысы",
        "district": "Келес ауданы",
        "distance": null
    },
    {
        "id": 11059,
        "title": "Қаратал",
        "lng": "85.173800",
        "lat": "47.612743",
        "timezone": "5",
        "region": "Шығыс Қазақстан облысы",
        "district": "Зайсан ауданы",
        "distance": null
    },
    {
        "id": 7898,
        "title": "Қаратас",
        "lng": "70.517140",
        "lat": "42.774803",
        "timezone": "5",
        "region": "Жамбыл облысы",
        "district": "Жуалы ауданы",
        "distance": null
    },
    {
        "id": 10277,
        "title": "Қаратас",
        "lng": "69.743555",
        "lat": "42.833882",
        "timezone": "5",
        "region": "Түркістан облысы",
        "district": "Бәйдібек ауданы",
        "distance": null
    },
    {
        "id": 7828,
        "title": "Қаратау",
        "lng": "71.240301",
        "lat": "42.712369",
        "timezone": "5",
        "region": "Жамбыл облысы",
        "district": "Жамбыл ауданы",
        "distance": null
    },
    {
        "id": 8078,
        "title": "Қаратау",
        "lng": "70.465556",
        "lat": "43.176944",
        "timezone": "5",
        "region": "Жамбыл облысы",
        "district": "Талас ауданы",
        "distance": null
    },
    {
        "id": 10797,
        "title": "Қаратау",
        "lng": "68.111211",
        "lat": "44.082101",
        "timezone": "5",
        "region": "Түркістан облысы",
        "district": "Созақ ауданы",
        "distance": null
    },
    {
        "id": 34,
        "title": "Қаратау қаласы",
        "lng": "70.466667",
        "lat": "43.166667",
        "timezone": "5",
        "region": "Жамбыл облысы",
        "district": null,
        "distance": null
    },
    {
        "id": 6711,
        "title": "Қаратаусай",
        "lng": "56.791097",
        "lat": "50.781220",
        "timezone": "5",
        "region": "Ақтөбе облысы",
        "district": "Мәртөк ауданы",
        "distance": null
    },
    {
        "id": 10160,
        "title": "Қаратерек",
        "lng": "73.508879",
        "lat": "53.918079",
        "timezone": "5",
        "region": "Солтүстік Қазақстан облысы",
        "district": "Уәлиханов ауданы",
        "distance": null
    },
    {
        "id": 9250,
        "title": "Қаратерең",
        "lng": "61.020195",
        "lat": "45.970583",
        "timezone": "5",
        "region": "Қызылорда облысы",
        "district": "Арал ауданы",
        "distance": null
    },
    {
        "id": 6550,
        "title": "Қаратоба",
        "lng": "71.839755",
        "lat": "51.805560",
        "timezone": "5",
        "region": "Ақмола облысы",
        "district": "Шортанды ауданы",
        "distance": null
    },
    {
        "id": 6529,
        "title": "Қаратомар",
        "lng": "71.082530",
        "lat": "50.861589",
        "timezone": "5",
        "region": "Ақмола облысы",
        "district": "Целиноград ауданы",
        "distance": null
    },
    {
        "id": 9071,
        "title": "Қаратомар",
        "lng": "66.103815",
        "lat": "54.146260",
        "timezone": "5",
        "region": "Қостанай облысы",
        "district": "Ұзынкөл ауданы",
        "distance": null
    },
    {
        "id": 9506,
        "title": "Қаратомар",
        "lng": "75.205006",
        "lat": "50.164535",
        "timezone": "5",
        "region": "Павлодар облысы",
        "district": "Баянауыл ауданы",
        "distance": null
    },
    {
        "id": 9832,
        "title": "Қаратомар",
        "lng": "69.214483",
        "lat": "54.505289",
        "timezone": "5",
        "region": "Солтүстік Қазақстан облысы",
        "district": "Аққайың ауданы",
        "distance": null
    },
    {
        "id": 6709,
        "title": "Қаратоғай",
        "lng": "56.817013",
        "lat": "50.620201",
        "timezone": "5",
        "region": "Ақтөбе облысы",
        "district": "Мәртөк ауданы",
        "distance": null
    },
    {
        "id": 6878,
        "title": "Қаратоғай",
        "lng": "59.686214",
        "lat": "48.709808",
        "timezone": "5",
        "region": "Ақтөбе облысы",
        "district": "Шалқар ауданы",
        "distance": null
    },
    {
        "id": 9617,
        "title": "Қаратоғай",
        "lng": "77.188918",
        "lat": "52.007521",
        "timezone": "5",
        "region": "Павлодар облысы",
        "district": "Павлодар ауданы",
        "distance": null
    },
    {
        "id": 11124,
        "title": "Қаратоғай",
        "lng": "84.486355",
        "lat": "48.394740",
        "timezone": "5",
        "region": "Шығыс Қазақстан облысы",
        "district": "Күршім ауданы",
        "distance": null
    },
    {
        "id": 7168,
        "title": "Қаратоған",
        "lng": "80.007966",
        "lat": "42.713740",
        "timezone": "5",
        "region": "Алматы облысы",
        "district": "Райымбек ауданы",
        "distance": null
    },
    {
        "id": 7223,
        "title": "Қаратоған",
        "lng": "77.303031",
        "lat": "43.676978",
        "timezone": "5",
        "region": "Алматы облысы",
        "district": "Талғар ауданы",
        "distance": null
    },
    {
        "id": 5984,
        "title": "Қаратұма",
        "lng": "82.010840",
        "lat": "47.102996",
        "timezone": "5",
        "region": "Абай облысы",
        "district": "Мақаншы ауданы",
        "distance": null
    },
    {
        "id": 6951,
        "title": "Қаратұрық",
        "lng": "77.993009",
        "lat": "43.553114",
        "timezone": "5",
        "region": "Алматы облысы",
        "district": "Еңбекшіқазақ ауданы",
        "distance": null
    },
    {
        "id": 5948,
        "title": "Қаратөбе",
        "lng": "81.903609",
        "lat": "49.252821",
        "timezone": "5",
        "region": "Абай облысы",
        "district": "Жарма ауданы",
        "distance": null
    },
    {
        "id": 7089,
        "title": "Қаратөбе",
        "lng": "76.731262",
        "lat": "43.424313",
        "timezone": "5",
        "region": "Алматы облысы",
        "district": "Қарасай ауданы",
        "distance": null
    },
    {
        "id": 7647,
        "title": "Қаратөбе",
        "lng": "53.505042",
        "lat": "49.691296",
        "timezone": "5",
        "region": "Батыс Қазақстан облысы",
        "district": "Қаратөбе ауданы",
        "distance": null
    },
    {
        "id": 9317,
        "title": "Қаратөбе",
        "lng": "67.572911",
        "lat": "43.359366",
        "timezone": "5",
        "region": "Қызылорда облысы",
        "district": "Жаңақорған ауданы",
        "distance": null
    },
    {
        "id": 10466,
        "title": "Қаратөбе",
        "lng": "68.677057",
        "lat": "41.079588",
        "timezone": "5",
        "region": "Түркістан облысы",
        "district": "Келес ауданы",
        "distance": null
    },
    {
        "id": 10845,
        "title": "Қаратөбе",
        "lng": "70.234852",
        "lat": "42.286426",
        "timezone": "5",
        "region": "Түркістан облысы",
        "district": "Төле би ауданы",
        "distance": null
    },
    {
        "id": 6635,
        "title": "Қарауыкелді",
        "lng": "55.888551",
        "lat": "48.701972",
        "timezone": "5",
        "region": "Ақтөбе облысы",
        "district": "Байғанин ауданы",
        "distance": null
    },
    {
        "id": 5795,
        "title": "Қарауыл",
        "lng": "79.256062",
        "lat": "48.945896",
        "timezone": "5",
        "region": "Абай облысы",
        "district": "Аягөз ауданы",
        "distance": null
    },
    {
        "id": 6029,
        "title": "Қарауыл",
        "lng": "79.256076",
        "lat": "48.945906",
        "timezone": "5",
        "region": "Абай облысы",
        "district": "Абай ауданы",
        "distance": null
    },
    {
        "id": 7424,
        "title": "Қарауылтөбе",
        "lng": "51.604844",
        "lat": "49.624803",
        "timezone": "5",
        "region": "Батыс Қазақстан облысы",
        "district": "Ақжайық ауданы",
        "distance": null
    },
    {
        "id": 8359,
        "title": "Қарауылтөбе",
        "lng": "79.917550",
        "lat": "45.551771",
        "timezone": "5",
        "region": "Жетісу облысы",
        "district": "Сарқан ауданы",
        "distance": null
    },
    {
        "id": 6616,
        "title": "Қарахобда",
        "lng": "56.687701",
        "lat": "50.047801",
        "timezone": "5",
        "region": "Ақтөбе облысы",
        "district": "Алға ауданы",
        "distance": null
    },
    {
        "id": 7259,
        "title": "Қараша",
        "lng": "53.591666",
        "lat": "46.980007",
        "timezone": "5",
        "region": "Атырау облысы",
        "district": "Жылыой ауданы",
        "distance": null
    },
    {
        "id": 9236,
        "title": "Қарашалаң",
        "lng": "61.090209",
        "lat": "46.073646",
        "timezone": "5",
        "region": "Қызылорда облысы",
        "district": "Арал ауданы",
        "distance": null
    },
    {
        "id": 8718,
        "title": "Қарашатөбе",
        "lng": "65.306344",
        "lat": "50.156577",
        "timezone": "5",
        "region": "Қостанай облысы",
        "district": "Амангелді ауданы",
        "distance": null
    },
    {
        "id": 8265,
        "title": "Қарашеңгел",
        "lng": "77.874036",
        "lat": "45.167458",
        "timezone": "5",
        "region": "Жетісу облысы",
        "district": "Қаратал ауданы",
        "distance": null
    },
    {
        "id": 9501,
        "title": "Қарашоки",
        "lng": "74.996750",
        "lat": "50.998427",
        "timezone": "5",
        "region": "Павлодар облысы",
        "district": "Баянауыл ауданы",
        "distance": null
    },
    {
        "id": 11273,
        "title": "Қарашоқат",
        "lng": "60.842427",
        "lat": "47.413010",
        "timezone": "5",
        "region": "Ақтөбе облысы",
        "district": "Шалқар ауданы",
        "distance": null
    },
    {
        "id": 8298,
        "title": "Қарашоқы",
        "lng": "77.930791",
        "lat": "44.103777",
        "timezone": "5",
        "region": "Жетісу облысы",
        "district": "Кербұлақ ауданы",
        "distance": null
    },
    {
        "id": 8493,
        "title": "Қарашоқы",
        "lng": "74.506009",
        "lat": "49.483913",
        "timezone": "5",
        "region": "Қарағанды облысы",
        "district": "Қарқаралы ауданы",
        "distance": null
    },
    {
        "id": 7472,
        "title": "Қарашығанақ",
        "lng": "53.389608",
        "lat": "51.450781",
        "timezone": "5",
        "region": "Батыс Қазақстан облысы",
        "district": "Бөрлі ауданы",
        "distance": null
    },
    {
        "id": 10768,
        "title": "Қарашық",
        "lng": "68.288320",
        "lat": "43.375481",
        "timezone": "5",
        "region": "Түркістан облысы",
        "district": "Сауран ауданы",
        "distance": null
    },
    {
        "id": 6244,
        "title": "Қарашілік",
        "lng": "70.094383",
        "lat": "52.844609",
        "timezone": "5",
        "region": "Ақмола облысы",
        "district": "Бурабай ауданы",
        "distance": null
    },
    {
        "id": 6386,
        "title": "Қарашілік",
        "lng": "69.468994",
        "lat": "52.798479",
        "timezone": "5",
        "region": "Ақмола облысы",
        "district": "Зеренді ауданы",
        "distance": null
    },
    {
        "id": 8171,
        "title": "Қарашілік",
        "lng": "79.189816",
        "lat": "45.466206",
        "timezone": "5",
        "region": "Жетісу облысы",
        "district": "Ақсу ауданы",
        "distance": null
    },
    {
        "id": 9008,
        "title": "Қарашілік",
        "lng": "65.978922",
        "lat": "53.168610",
        "timezone": "5",
        "region": "Қостанай облысы",
        "district": "Сарыкөл ауданы",
        "distance": null
    },
    {
        "id": 9819,
        "title": "Қарашілік",
        "lng": "72.045865",
        "lat": "53.778644",
        "timezone": "5",
        "region": "Солтүстік Қазақстан облысы",
        "district": "Ақжар ауданы",
        "distance": null
    },
    {
        "id": 10147,
        "title": "Қарашілік",
        "lng": "72.548041",
        "lat": "53.427095",
        "timezone": "5",
        "region": "Солтүстік Қазақстан облысы",
        "district": "Уәлиханов ауданы",
        "distance": null
    },
    {
        "id": 11140,
        "title": "Қарашілік",
        "lng": "85.517908",
        "lat": "48.204823",
        "timezone": "5",
        "region": "Шығыс Қазақстан облысы",
        "district": "Күршім ауданы",
        "distance": null
    },
    {
        "id": 6173,
        "title": "Қарағай",
        "lng": "70.506584",
        "lat": "52.641002",
        "timezone": "5",
        "region": "Ақмола облысы",
        "district": "Біржан сал ауданы",
        "distance": null
    },
    {
        "id": 6242,
        "title": "Қарағай",
        "lng": "69.684967",
        "lat": "52.581824",
        "timezone": "5",
        "region": "Ақмола облысы",
        "district": "Бурабай ауданы",
        "distance": null
    },
    {
        "id": 6429,
        "title": "Қарағай",
        "lng": "68.855022",
        "lat": "53.311598",
        "timezone": "5",
        "region": "Ақмола облысы",
        "district": "Зеренді ауданы",
        "distance": null
    },
    {
        "id": 7263,
        "title": "Қарағай",
        "lng": "54.128104",
        "lat": "47.001342",
        "timezone": "5",
        "region": "Атырау облысы",
        "district": "Жылыой ауданы",
        "distance": null
    },
    {
        "id": 7398,
        "title": "Қарағай",
        "lng": "50.646225",
        "lat": "50.697573",
        "timezone": "5",
        "region": "Батыс Қазақстан облысы",
        "district": "Ақжайық ауданы",
        "distance": null
    },
    {
        "id": 9866,
        "title": "Қарағай",
        "lng": "68.299369",
        "lat": "53.888154",
        "timezone": "5",
        "region": "Солтүстік Қазақстан облысы",
        "district": "Есіл ауданы",
        "distance": null
    },
    {
        "id": 5840,
        "title": "Қарағайлы",
        "lng": "79.410703",
        "lat": "51.067628",
        "timezone": "5",
        "region": "Абай облысы",
        "district": "Бесқарағай ауданы",
        "distance": null
    },
    {
        "id": 5891,
        "title": "Қарағайлы",
        "lng": "80.387450",
        "lat": "50.597461",
        "timezone": "5",
        "region": "Абай облысы",
        "district": "Бородулиха ауданы",
        "distance": null
    },
    {
        "id": 6302,
        "title": "Қарағайлы",
        "lng": "72.697038",
        "lat": "51.729117",
        "timezone": "5",
        "region": "Ақмола облысы",
        "district": "Ерейментау ауданы",
        "distance": null
    },
    {
        "id": 8507,
        "title": "Қарағайлы",
        "lng": "75.738857",
        "lat": "49.357602",
        "timezone": "5",
        "region": "Қарағанды облысы",
        "district": "Қарқаралы ауданы",
        "distance": null
    },
    {
        "id": 8584,
        "title": "Қарағайлы",
        "lng": "72.915578",
        "lat": "50.804644",
        "timezone": "5",
        "region": "Қарағанды облысы",
        "district": "Осакаров ауданы",
        "distance": null
    },
    {
        "id": 11146,
        "title": "Қарағайлыбұлақ",
        "lng": "85.661423",
        "lat": "48.808780",
        "timezone": "5",
        "region": "Шығыс Қазақстан облысы",
        "district": "Күршім ауданы",
        "distance": null
    },
    {
        "id": 6806,
        "title": "Қарағанды",
        "lng": "55.601988",
        "lat": "50.420853",
        "timezone": "5",
        "region": "Ақтөбе облысы",
        "district": "Қобда ауданы",
        "distance": null
    },
    {
        "id": 7475,
        "title": "Қарағанды",
        "lng": "52.798580",
        "lat": "50.874971",
        "timezone": "5",
        "region": "Батыс Қазақстан облысы",
        "district": "Бөрлі ауданы",
        "distance": null
    },
    {
        "id": 7688,
        "title": "Қарағанды",
        "lng": "52.149089",
        "lat": "50.705697",
        "timezone": "5",
        "region": "Батыс Қазақстан облысы",
        "district": "Сырым ауданы",
        "distance": null
    },
    {
        "id": 10012,
        "title": "Қарағанды",
        "lng": "71.053649",
        "lat": "54.664458",
        "timezone": "5",
        "region": "Солтүстік Қазақстан облысы",
        "district": "Мағжан жұмабаев ауданы",
        "distance": null
    },
    {
        "id": 39,
        "title": "Қарағанды қаласы",
        "lng": "73.085485",
        "lat": "49.806406",
        "timezone": "5",
        "region": "Қарағанды облысы",
        "district": null,
        "distance": null
    },
    {
        "id": 5962,
        "title": "Қарағандыкөл",
        "lng": "82.951529",
        "lat": "48.468594",
        "timezone": "5",
        "region": "Абай облысы",
        "district": "Көкпекті ауданы",
        "distance": null
    },
    {
        "id": 6619,
        "title": "Қарағандысай",
        "lng": "56.603151",
        "lat": "50.306044",
        "timezone": "5",
        "region": "Ақтөбе облысы",
        "district": "Алға ауданы",
        "distance": null
    },
    {
        "id": 6713,
        "title": "Қарағансай",
        "lng": "56.470407",
        "lat": "50.512190",
        "timezone": "5",
        "region": "Ақтөбе облысы",
        "district": "Мәртөк ауданы",
        "distance": null
    },
    {
        "id": 7774,
        "title": "Қарағаш",
        "lng": "53.869084",
        "lat": "50.410987",
        "timezone": "5",
        "region": "Батыс Қазақстан облысы",
        "district": "Шыңғырлау ауданы",
        "distance": null
    },
    {
        "id": 9907,
        "title": "Қарағаш",
        "lng": "66.944297",
        "lat": "54.225685",
        "timezone": "5",
        "region": "Солтүстік Қазақстан облысы",
        "district": "Жамбыл ауданы",
        "distance": null
    },
    {
        "id": 10063,
        "title": "Қарағаш",
        "lng": "70.119024",
        "lat": "53.630269",
        "timezone": "5",
        "region": "Солтүстік Қазақстан облысы",
        "district": "Тайынша ауданы",
        "distance": null
    },
    {
        "id": 10256,
        "title": "Қарағаш",
        "lng": "67.151996",
        "lat": "53.044463",
        "timezone": "5",
        "region": "Солтүстік Қазақстан облысы",
        "district": "Ғабит мүсірепов ауданы",
        "distance": null
    },
    {
        "id": 10900,
        "title": "Қарағашты",
        "lng": "70.384161",
        "lat": "42.524024",
        "timezone": "5",
        "region": "Түркістан облысы",
        "district": "Түлкібас ауданы",
        "distance": null
    },
    {
        "id": 10356,
        "title": "Қарақай",
        "lng": "68.237664",
        "lat": "40.824344",
        "timezone": "5",
        "region": "Түркістан облысы",
        "district": "Жетісай ауданы",
        "distance": null
    },
    {
        "id": 8735,
        "title": "Қарақалпақ",
        "lng": "63.701297",
        "lat": "52.465538",
        "timezone": "5",
        "region": "Қостанай облысы",
        "district": "Әулиекөл ауданы",
        "distance": null
    },
    {
        "id": 10725,
        "title": "Қарақалпақ",
        "lng": "68.845778",
        "lat": "41.574342",
        "timezone": "5",
        "region": "Түркістан облысы",
        "district": "Сарыағаш ауданы",
        "distance": null
    },
    {
        "id": 7650,
        "title": "Қарақамыс",
        "lng": "53.159541",
        "lat": "49.297838",
        "timezone": "5",
        "region": "Батыс Қазақстан облысы",
        "district": "Қаратөбе ауданы",
        "distance": null
    },
    {
        "id": 9796,
        "title": "Қарақамыс",
        "lng": "68.268764",
        "lat": "53.697206",
        "timezone": "5",
        "region": "Солтүстік Қазақстан облысы",
        "district": "Айыртау ауданы",
        "distance": null
    },
    {
        "id": 9926,
        "title": "Қарақамыс",
        "lng": "66.354427",
        "lat": "54.253704",
        "timezone": "5",
        "region": "Солтүстік Қазақстан облысы",
        "district": "Жамбыл ауданы",
        "distance": null
    },
    {
        "id": 7043,
        "title": "Қарақастек",
        "lng": "76.100752",
        "lat": "43.128538",
        "timezone": "5",
        "region": "Алматы облысы",
        "district": "Жамбыл ауданы",
        "distance": null
    },
    {
        "id": 8543,
        "title": "Қарақасқа",
        "lng": "69.858818",
        "lat": "49.306050",
        "timezone": "5",
        "region": "Қарағанды облысы",
        "district": "Нұра ауданы",
        "distance": null
    },
    {
        "id": 8100,
        "title": "Қарақат",
        "lng": "72.748554",
        "lat": "42.888191",
        "timezone": "5",
        "region": "Жамбыл облысы",
        "district": "Тұрар рысқұлов ауданы",
        "distance": null
    },
    {
        "id": 5924,
        "title": "Қарақожа",
        "lng": "81.395872",
        "lat": "49.429834",
        "timezone": "5",
        "region": "Абай облысы",
        "district": "Жарма ауданы",
        "distance": null
    },
    {
        "id": 8408,
        "title": "Қарақой",
        "lng": "74.768712",
        "lat": "48.572388",
        "timezone": "5",
        "region": "Қарағанды облысы",
        "district": "Ақтоғай ауданы",
        "distance": null
    },
    {
        "id": 6011,
        "title": "Қарақол",
        "lng": "80.738009",
        "lat": "47.080634",
        "timezone": "5",
        "region": "Абай облысы",
        "district": "Үржар ауданы",
        "distance": null
    },
    {
        "id": 6313,
        "title": "Қарақол",
        "lng": "65.952387",
        "lat": "51.754600",
        "timezone": "5",
        "region": "Ақмола облысы",
        "district": "Есіл ауданы",
        "distance": null
    },
    {
        "id": 7348,
        "title": "Қарақол",
        "lng": "49.455939",
        "lat": "46.617156",
        "timezone": "5",
        "region": "Атырау облысы",
        "district": "Құрманғазы ауданы",
        "distance": null
    },
    {
        "id": 11155,
        "title": "Қарақол",
        "lng": "83.657120",
        "lat": "49.371583",
        "timezone": "5",
        "region": "Шығыс Қазақстан облысы",
        "district": "Самар ауданы",
        "distance": null
    },
    {
        "id": 9074,
        "title": "Қарақопа",
        "lng": "63.011779",
        "lat": "53.706058",
        "timezone": "5",
        "region": "Қостанай облысы",
        "district": "Фёдоров ауданы",
        "distance": null
    },
    {
        "id": 8388,
        "title": "Қарақоға",
        "lng": "72.557114",
        "lat": "49.643264",
        "timezone": "5",
        "region": "Қарағанды облысы",
        "district": "Абай ауданы",
        "distance": null
    },
    {
        "id": 10003,
        "title": "Қарақоға",
        "lng": "70.815380",
        "lat": "54.900467",
        "timezone": "5",
        "region": "Солтүстік Қазақстан облысы",
        "district": "Мағжан жұмабаев ауданы",
        "distance": null
    },
    {
        "id": 10649,
        "title": "Қарақоңыр",
        "lng": "68.614516",
        "lat": "42.611912",
        "timezone": "5",
        "region": "Түркістан облысы",
        "district": "Отырар ауданы",
        "distance": null
    },
    {
        "id": 10558,
        "title": "Қарақыр",
        "lng": "68.394025",
        "lat": "40.665538",
        "timezone": "5",
        "region": "Түркістан облысы",
        "district": "Мақтаарал ауданы",
        "distance": null
    },
    {
        "id": 6612,
        "title": "Қарақұдық",
        "lng": "56.793289",
        "lat": "50.179178",
        "timezone": "5",
        "region": "Ақтөбе облысы",
        "district": "Алға ауданы",
        "distance": null
    },
    {
        "id": 6661,
        "title": "Қарақұдық",
        "lng": "60.501678",
        "lat": "49.216579",
        "timezone": "5",
        "region": "Ақтөбе облысы",
        "district": "Ырғыз ауданы",
        "distance": null
    },
    {
        "id": 7476,
        "title": "Қарақұдық",
        "lng": "52.584484",
        "lat": "50.937234",
        "timezone": "5",
        "region": "Батыс Қазақстан облысы",
        "district": "Бөрлі ауданы",
        "distance": null
    },
    {
        "id": 7667,
        "title": "Қарақұдық",
        "lng": "53.308203",
        "lat": "50.232173",
        "timezone": "5",
        "region": "Батыс Қазақстан облысы",
        "district": "Сырым ауданы",
        "distance": null
    },
    {
        "id": 8454,
        "title": "Қарақұдық",
        "lng": "73.482981",
        "lat": "49.789200",
        "timezone": "5",
        "region": "Қарағанды облысы",
        "district": "Бұқар жырау ауданы",
        "distance": null
    },
    {
        "id": 8701,
        "title": "Қарақұдық",
        "lng": "65.548988",
        "lat": "50.400055",
        "timezone": "5",
        "region": "Қостанай облысы",
        "district": "Амангелді ауданы",
        "distance": null
    },
    {
        "id": 9591,
        "title": "Қарақұдық",
        "lng": "75.431130",
        "lat": "53.214663",
        "timezone": "5",
        "region": "Павлодар облысы",
        "district": "Ертіс ауданы",
        "distance": null
    },
    {
        "id": 5781,
        "title": "Қарақұм",
        "lng": "79.571501",
        "lat": "46.813646",
        "timezone": "5",
        "region": "Абай облысы",
        "district": "Аягөз ауданы",
        "distance": null
    },
    {
        "id": 8269,
        "title": "Қарақұм",
        "lng": "77.156309",
        "lat": "46.540136",
        "timezone": "5",
        "region": "Жетісу облысы",
        "district": "Қаратал ауданы",
        "distance": null
    },
    {
        "id": 10609,
        "title": "Қарақұм",
        "lng": "68.920024",
        "lat": "42.879445",
        "timezone": "5",
        "region": "Түркістан облысы",
        "district": "Ордабасы ауданы",
        "distance": null
    },
    {
        "id": 10792,
        "title": "Қарақұр",
        "lng": "68.112654",
        "lat": "44.141277",
        "timezone": "5",
        "region": "Түркістан облысы",
        "district": "Созақ ауданы",
        "distance": null
    },
    {
        "id": 6747,
        "title": "Қарақөл",
        "lng": "58.005908",
        "lat": "49.284333",
        "timezone": "5",
        "region": "Ақтөбе облысы",
        "district": "Мұғалжар ауданы",
        "distance": null
    },
    {
        "id": 6793,
        "title": "Қарақөл",
        "lng": "53.786277",
        "lat": "49.322952",
        "timezone": "5",
        "region": "Ақтөбе облысы",
        "district": "Ойыл ауданы",
        "distance": null
    },
    {
        "id": 6056,
        "title": "Қараөзек",
        "lng": "71.467215",
        "lat": "51.976110",
        "timezone": "5",
        "region": "Ақмола облысы",
        "district": "Ақкөл ауданы",
        "distance": null
    },
    {
        "id": 6182,
        "title": "Қараөзек",
        "lng": "70.270348",
        "lat": "52.589042",
        "timezone": "5",
        "region": "Ақмола облысы",
        "district": "Бұланды ауданы",
        "distance": null
    },
    {
        "id": 6376,
        "title": "Қараөзек",
        "lng": "69.065875",
        "lat": "53.661398",
        "timezone": "5",
        "region": "Ақмола облысы",
        "district": "Зеренді ауданы",
        "distance": null
    },
    {
        "id": 6913,
        "title": "Қараөзек",
        "lng": "74.235598",
        "lat": "45.570160",
        "timezone": "5",
        "region": "Алматы облысы",
        "district": "Балқаш ауданы",
        "distance": null
    },
    {
        "id": 7227,
        "title": "Қараөзек",
        "lng": "77.288433",
        "lat": "43.740852",
        "timezone": "5",
        "region": "Алматы облысы",
        "district": "Талғар ауданы",
        "distance": null
    },
    {
        "id": 10357,
        "title": "Қараөзек",
        "lng": "68.184808",
        "lat": "40.860323",
        "timezone": "5",
        "region": "Түркістан облысы",
        "district": "Жетісай ауданы",
        "distance": null
    },
    {
        "id": 7615,
        "title": "Қараөзен",
        "lng": "49.504727",
        "lat": "49.657606",
        "timezone": "5",
        "region": "Батыс Қазақстан облысы",
        "district": "Казталов ауданы",
        "distance": null
    },
    {
        "id": 6505,
        "title": "Қараөткел",
        "lng": "71.214672",
        "lat": "51.119292",
        "timezone": "5",
        "region": "Ақмола облысы",
        "district": "Целиноград ауданы",
        "distance": null
    },
    {
        "id": 9590,
        "title": "Қараөткел",
        "lng": "75.647606",
        "lat": "53.192706",
        "timezone": "5",
        "region": "Павлодар облысы",
        "district": "Ертіс ауданы",
        "distance": null
    },
    {
        "id": 10411,
        "title": "Қаржан",
        "lng": "69.712510",
        "lat": "41.833636",
        "timezone": "5",
        "region": "Түркістан облысы",
        "district": "Қазығұрт ауданы",
        "distance": null
    },
    {
        "id": 6835,
        "title": "Қарлау",
        "lng": "59.296435",
        "lat": "50.118944",
        "timezone": "5",
        "region": "Ақтөбе облысы",
        "district": "Хромтау ауданы",
        "distance": null
    },
    {
        "id": 6367,
        "title": "Қарлыкөл",
        "lng": "68.756225",
        "lat": "53.212453",
        "timezone": "5",
        "region": "Ақмола облысы",
        "district": "Зеренді ауданы",
        "distance": null
    },
    {
        "id": 9959,
        "title": "Қарлыға",
        "lng": "68.881540",
        "lat": "54.622831",
        "timezone": "5",
        "region": "Солтүстік Қазақстан облысы",
        "district": "Қызылжар ауданы",
        "distance": null
    },
    {
        "id": 8191,
        "title": "Қарлығаш",
        "lng": "80.606962",
        "lat": "45.676433",
        "timezone": "5",
        "region": "Жетісу облысы",
        "district": "Алакөл ауданы",
        "distance": null
    },
    {
        "id": 8273,
        "title": "Қарлығаш",
        "lng": "78.407500",
        "lat": "44.283252",
        "timezone": "5",
        "region": "Жетісу облысы",
        "district": "Кербұлақ ауданы",
        "distance": null
    },
    {
        "id": 11365,
        "title": "Қармақшы",
        "lng": "64.266838",
        "lat": "45.385646",
        "timezone": "5",
        "region": "Қызылорда облысы",
        "district": "Қармақшы ауданы",
        "distance": null
    },
    {
        "id": 11282,
        "title": "Қарнақ",
        "lng": "68.346351",
        "lat": "43.512665",
        "timezone": "5",
        "region": "Түркістан облысы",
        "district": "Кентау қаласы",
        "distance": null
    },
    {
        "id": 8551,
        "title": "Қарой",
        "lng": "71.483187",
        "lat": "50.256022",
        "timezone": "5",
        "region": "Қарағанды облысы",
        "district": "Нұра ауданы",
        "distance": null
    },
    {
        "id": 10324,
        "title": "Қарой",
        "lng": "68.203020",
        "lat": "40.730282",
        "timezone": "5",
        "region": "Түркістан облысы",
        "district": "Жетісай ауданы",
        "distance": null
    },
    {
        "id": 6404,
        "title": "Қарсақ",
        "lng": "68.814885",
        "lat": "52.957483",
        "timezone": "5",
        "region": "Ақмола облысы",
        "district": "Зеренді ауданы",
        "distance": null
    },
    {
        "id": 10983,
        "title": "Қарсақпай",
        "lng": "66.731881",
        "lat": "47.833370",
        "timezone": "5",
        "region": "Ұлытау облысы",
        "district": "Ұлытау ауданы",
        "distance": null
    },
    {
        "id": 8279,
        "title": "Қарымсақ",
        "lng": "78.369133",
        "lat": "44.431578",
        "timezone": "5",
        "region": "Жетісу облысы",
        "district": "Кербұлақ ауданы",
        "distance": null
    },
    {
        "id": 8715,
        "title": "Қарынсалды",
        "lng": "66.040798",
        "lat": "50.771531",
        "timezone": "5",
        "region": "Қостанай облысы",
        "district": "Амангелді ауданы",
        "distance": null
    },
    {
        "id": 11362,
        "title": "Қарғалы",
        "lng": "76.407707",
        "lat": "43.167300",
        "timezone": "5",
        "region": "Алматы облысы",
        "district": "Жамбыл ауданы",
        "distance": null
    },
    {
        "id": 7016,
        "title": "Қарғалы",
        "lng": "76.407707",
        "lat": "43.167300",
        "timezone": "5",
        "region": "Алматы облысы",
        "district": "Жамбыл ауданы",
        "distance": null
    },
    {
        "id": 7777,
        "title": "Қарғалы",
        "lng": "53.767233",
        "lat": "50.396335",
        "timezone": "5",
        "region": "Батыс Қазақстан облысы",
        "district": "Шыңғырлау ауданы",
        "distance": null
    },
    {
        "id": 8372,
        "title": "Қарғалы",
        "lng": "80.466394",
        "lat": "45.614231",
        "timezone": "5",
        "region": "Жетісу облысы",
        "district": "Сарқан ауданы",
        "distance": null
    },
    {
        "id": 8800,
        "title": "Қарғалы",
        "lng": "63.080023",
        "lat": "49.356088",
        "timezone": "5",
        "region": "Қостанай облысы",
        "district": "Жангелді ауданы",
        "distance": null
    },
    {
        "id": 5828,
        "title": "Қарғыба",
        "lng": "82.840417",
        "lat": "47.740525",
        "timezone": "5",
        "region": "Абай облысы",
        "district": "Ақсуат ауданы",
        "distance": null
    },
    {
        "id": 7142,
        "title": "Қарқара",
        "lng": "79.031210",
        "lat": "42.983093",
        "timezone": "5",
        "region": "Алматы облысы",
        "district": "Кеген ауданы",
        "distance": null
    },
    {
        "id": 146,
        "title": "Қарқаралы қаласы",
        "lng": "75.470095",
        "lat": "49.412240",
        "timezone": "5",
        "region": "Қарағанды облысы",
        "district": null,
        "distance": null
    },
    {
        "id": 7127,
        "title": "Қаскелең",
        "lng": "76.622278",
        "lat": "43.202455",
        "timezone": "5",
        "region": "Алматы облысы",
        "district": "Қарасай ауданы",
        "distance": null
    },
    {
        "id": 75,
        "title": "Қаскелең қаласы",
        "lng": "76.622278",
        "lat": "43.202449",
        "timezone": "5",
        "region": "Алматы облысы",
        "district": null,
        "distance": null
    },
    {
        "id": 8301,
        "title": "Қаспан",
        "lng": "78.266438",
        "lat": "44.494328",
        "timezone": "5",
        "region": "Жетісу облысы",
        "district": "Кербұлақ ауданы",
        "distance": null
    },
    {
        "id": 7026,
        "title": "Қастек",
        "lng": "75.985840",
        "lat": "43.085269",
        "timezone": "5",
        "region": "Алматы облысы",
        "district": "Жамбыл ауданы",
        "distance": null
    },
    {
        "id": 11206,
        "title": "Қасым Қайсенов",
        "lng": "82.490280",
        "lat": "49.875958",
        "timezone": "5",
        "region": "Шығыс Қазақстан облысы",
        "district": "Ұлан ауданы",
        "distance": null
    },