[
    {
        "id": 9330,
        "title": "Үйрек",
        "lng": "62.239667",
        "lat": "45.794312",
        "timezone": "5",
        "region": "Қызылорда облысы",
        "district": "Қазалы ауданы",
        "distance": null
    },
    {
        "id": 9518,
        "title": "Үйтас",
        "lng": "76.278996",
        "lat": "50.546020",
        "timezone": "5",
        "region": "Павлодар облысы",
        "district": "Баянауыл ауданы",
        "distance": null
    },
    {
        "id": 9068,
        "title": "Үкіатқан",
        "lng": "65.488756",
        "lat": "54.172446",
        "timezone": "5",
        "region": "Қостанай облысы",
        "district": "Ұзынкөл ауданы",
        "distance": null
    },
    {
        "id": 9778,
        "title": "Үкілі ыбырай",
        "lng": "68.596280",
        "lat": "53.707297",
        "timezone": "5",
        "region": "Солтүстік Қазақстан облысы",
        "district": "Айыртау ауданы",
        "distance": null
    },
    {
        "id": 5959,
        "title": "Үкілі қыз",
        "lng": "82.688107",
        "lat": "48.894254",
        "timezone": "5",
        "region": "Абай облысы",
        "district": "Көкпекті ауданы",
        "distance": null
    },
    {
        "id": 9233,
        "title": "Үкілісай",
        "lng": "61.920010",
        "lat": "46.097130",
        "timezone": "5",
        "region": "Қызылорда облысы",
        "district": "Арал ауданы",
        "distance": null
    },
    {
        "id": 11337,
        "title": "Үлгі",
        "lng": "70.711948",
        "lat": "52.891908",
        "timezone": "5",
        "region": "Ақмола облысы",
        "district": "Біржан сал ауданы",
        "distance": null
    },
    {
        "id": 6265,
        "title": "Үлгіалған",
        "lng": "69.751226",
        "lat": "52.564218",
        "timezone": "5",
        "region": "Ақмола облысы",
        "district": "Бурабай ауданы",
        "distance": null
    },
    {
        "id": 6365,
        "title": "Үлгілі",
        "lng": "68.677102",
        "lat": "52.868246",
        "timezone": "5",
        "region": "Ақмола облысы",
        "district": "Зеренді ауданы",
        "distance": null
    },
    {
        "id": 7053,
        "title": "Үлгілі",
        "lng": "76.104049",
        "lat": "43.426892",
        "timezone": "5",
        "region": "Алматы облысы",
        "district": "Жамбыл ауданы",
        "distance": null
    },
    {
        "id": 7815,
        "title": "Үлгілі",
        "lng": "71.473557",
        "lat": "42.989826",
        "timezone": "5",
        "region": "Жамбыл облысы",
        "district": "Байзақ ауданы",
        "distance": null
    },
    {
        "id": 8182,
        "title": "Үлгілі",
        "lng": "78.885575",
        "lat": "45.778374",
        "timezone": "5",
        "region": "Жетісу облысы",
        "district": "Ақсу ауданы",
        "distance": null
    },
    {
        "id": 9569,
        "title": "Үлгілі",
        "lng": "75.011824",
        "lat": "53.658485",
        "timezone": "5",
        "region": "Павлодар облысы",
        "district": "Ертіс ауданы",
        "distance": null
    },
    {
        "id": 10529,
        "title": "Үлгілі",
        "lng": "68.419743",
        "lat": "40.773261",
        "timezone": "5",
        "region": "Түркістан облысы",
        "district": "Мақтаарал ауданы",
        "distance": null
    },
    {
        "id": 10758,
        "title": "Үлгілі",
        "lng": "68.126165",
        "lat": "43.533406",
        "timezone": "5",
        "region": "Түркістан облысы",
        "district": "Сауран ауданы",
        "distance": null
    },
    {
        "id": 6027,
        "title": "Үлгілі малшы",
        "lng": "83.096864",
        "lat": "48.580040",
        "timezone": "5",
        "region": "Абай облысы",
        "district": "Көкпекті ауданы",
        "distance": null
    },
    {
        "id": 7055,
        "title": "Үлкен",
        "lng": "73.984115",
        "lat": "45.208971",
        "timezone": "5",
        "region": "Алматы облысы",
        "district": "Жамбыл ауданы",
        "distance": null
    },
    {
        "id": 9593,
        "title": "Үлкен ақжар",
        "lng": "78.467822",
        "lat": "50.800323",
        "timezone": "5",
        "region": "Павлодар облысы",
        "district": "Май ауданы",
        "distance": null
    },
    {
        "id": 7256,
        "title": "Үлкен ақсу",
        "lng": "79.611036",
        "lat": "43.364852",
        "timezone": "5",
        "region": "Алматы облысы",
        "district": "Ұйғыр ауданы",
        "distance": null
    },
    {
        "id": 7244,
        "title": "Үлкен диқан",
        "lng": "80.524317",
        "lat": "43.506866",
        "timezone": "5",
        "region": "Алматы облысы",
        "district": "Ұйғыр ауданы",
        "distance": null
    },
    {
        "id": 7718,
        "title": "Үлкен еңбек",
        "lng": "51.236068",
        "lat": "50.670293",
        "timezone": "5",
        "region": "Батыс Қазақстан облысы",
        "district": "Теректі ауданы",
        "distance": null
    },
    {
        "id": 7336,
        "title": "Үлкен күйген",
        "lng": "48.866411",
        "lat": "46.567713",
        "timezone": "5",
        "region": "Атырау облысы",
        "district": "Құрманғазы ауданы",
        "distance": null
    },
    {
        "id": 8033,
        "title": "Үлкен көкдала",
        "lng": "70.164299",
        "lat": "44.185501",
        "timezone": "5",
        "region": "Жамбыл облысы",
        "district": "Сарысу ауданы",
        "distance": null
    },
    {
        "id": 11109,
        "title": "Үлкен нарын",
        "lng": "84.506648",
        "lat": "49.211959",
        "timezone": "5",
        "region": "Шығыс Қазақстан облысы",
        "district": "Катонқарағай ауданы",
        "distance": null
    },
    {
        "id": 10254,
        "title": "Үлкен талсай",
        "lng": "66.763870",
        "lat": "52.470086",
        "timezone": "5",
        "region": "Солтүстік Қазақстан облысы",
        "district": "Ғабит мүсірепов ауданы",
        "distance": null
    },
    {
        "id": 7500,
        "title": "Үлкен шаған",
        "lng": "51.149102",
        "lat": "50.925045",
        "timezone": "5",
        "region": "Батыс Қазақстан облысы",
        "district": "Бәйтерек ауданы",
        "distance": null
    },
    {
        "id": 11060,
        "title": "Үлкен қаратал",
        "lng": "85.237769",
        "lat": "47.623870",
        "timezone": "5",
        "region": "Шығыс Қазақстан облысы",
        "district": "Зайсан ауданы",
        "distance": null
    },
    {
        "id": 11231,
        "title": "Үлкен өзен",
        "lng": "82.358947",
        "lat": "50.581964",
        "timezone": "5",
        "region": "Шығыс Қазақстан облысы",
        "district": "Шемонаиха ауданы",
        "distance": null
    },
    {
        "id": 7956,
        "title": "Үлкен-сұлтөр",
        "lng": "75.162765",
        "lat": "43.258514",
        "timezone": "5",
        "region": "Жамбыл облысы",
        "district": "Қордай ауданы",
        "distance": null
    },
    {
        "id": 8346,
        "title": "Үлкенағаш",
        "lng": "79.836549",
        "lat": "44.225086",
        "timezone": "5",
        "region": "Жетісу облысы",
        "district": "Панфилов ауданы",
        "distance": null
    },
    {
        "id": 5973,
        "title": "Үлкенбөкен",
        "lng": "82.694252",
        "lat": "48.781692",
        "timezone": "5",
        "region": "Абай облысы",
        "district": "Көкпекті ауданы",
        "distance": null
    },
    {
        "id": 7038,
        "title": "Үмбетәлі Кәрібаев",
        "lng": "76.361354",
        "lat": "43.253338",
        "timezone": "5",
        "region": "Алматы облысы",
        "district": "Жамбыл ауданы",
        "distance": null
    },
    {
        "id": 9623,
        "title": "Үміт апа",
        "lng": "76.931901",
        "lat": "52.500917",
        "timezone": "5",
        "region": "Павлодар облысы",
        "district": "Павлодар ауданы",
        "distance": null
    },
    {
        "id": 8480,
        "title": "Үміткер",
        "lng": "74.275933",
        "lat": "50.368942",
        "timezone": "5",
        "region": "Қарағанды облысы",
        "district": "Бұқар жырау ауданы",
        "distance": null
    },
    {
        "id": 10879,
        "title": "Үрбұлақ",
        "lng": "70.093062",
        "lat": "42.581262",
        "timezone": "5",
        "region": "Түркістан облысы",
        "district": "Түлкібас ауданы",
        "distance": null
    },
    {
        "id": 9321,
        "title": "Үрмаш Түктібаев",
        "lng": "61.477509",
        "lat": "45.737502",
        "timezone": "5",
        "region": "Қызылорда облысы",
        "district": "Қазалы ауданы",
        "distance": null
    },
    {
        "id": 8720,
        "title": "Үрпек",
        "lng": "65.309479",
        "lat": "50.102353",
        "timezone": "5",
        "region": "Қостанай облысы",
        "district": "Амангелді ауданы",
        "distance": null
    },
    {
        "id": 9697,
        "title": "Үспен",
        "lng": "77.419380",
        "lat": "52.907129",
        "timezone": "5",
        "region": "Павлодар облысы",
        "district": "Успен ауданы",
        "distance": null
    },
    {
        "id": 10340,
        "title": "Үтіртөбе",
        "lng": "68.348154",
        "lat": "40.982638",
        "timezone": "5",
        "region": "Түркістан облысы",
        "district": "Жетісай ауданы",
        "distance": null
    },
    {
        "id": 7654,
        "title": "Үшана",
        "lng": "52.952740",
        "lat": "49.451590",
        "timezone": "5",
        "region": "Батыс Қазақстан облысы",
        "district": "Қаратөбе ауданы",
        "distance": null
    },
    {
        "id": 8074,
        "title": "Үшарал",
        "lng": "70.522897",
        "lat": "43.878122",
        "timezone": "5",
        "region": "Жамбыл облысы",
        "district": "Талас ауданы",
        "distance": null
    },
    {
        "id": 8353,
        "title": "Үшарал",
        "lng": "79.881294",
        "lat": "44.113240",
        "timezone": "5",
        "region": "Жетісу облысы",
        "district": "Панфилов ауданы",
        "distance": null
    },
    {
        "id": 8410,
        "title": "Үшарал",
        "lng": "74.759092",
        "lat": "48.475487",
        "timezone": "5",
        "region": "Қарағанды облысы",
        "district": "Ақтоғай ауданы",
        "distance": null
    },
    {
        "id": 22,
        "title": "Үшарал қаласы",
        "lng": "80.939444",
        "lat": "46.169722",
        "timezone": "5",
        "region": "Жетісу облысы",
        "district": null,
        "distance": null
    },
    {
        "id": 7646,
        "title": "Үшағаш",
        "lng": "53.275639",
        "lat": "49.652036",
        "timezone": "5",
        "region": "Батыс Қазақстан облысы",
        "district": "Қаратөбе ауданы",
        "distance": null
    },
    {
        "id": 10480,
        "title": "Үшағаш",
        "lng": "68.676338",
        "lat": "41.331907",
        "timezone": "5",
        "region": "Түркістан облысы",
        "district": "Келес ауданы",
        "distance": null
    },
    {
        "id": 8052,
        "title": "Үшбас",
        "lng": "69.691542",
        "lat": "43.407523",
        "timezone": "5",
        "region": "Жамбыл облысы",
        "district": "Сарысу ауданы",
        "distance": null
    },
    {
        "id": 10448,
        "title": "Үшбастау",
        "lng": "69.586359",
        "lat": "41.907333",
        "timezone": "5",
        "region": "Түркістан облысы",
        "district": "Қазығұрт ауданы",
        "distance": null
    },
    {
        "id": 5953,
        "title": "Үшбік",
        "lng": "80.581441",
        "lat": "48.458760",
        "timezone": "5",
        "region": "Абай облысы",
        "district": "Жарма ауданы",
        "distance": null
    },
    {
        "id": 11309,
        "title": "Үшбұлақ",
        "lng": "81.305986",
        "lat": "45.803775",
        "timezone": "5",
        "region": "Жетісу облысы",
        "district": "Алакөл ауданы",
        "distance": null
    },
    {
        "id": 6016,
        "title": "Үшбұлақ",
        "lng": "81.305986",
        "lat": "45.803775",
        "timezone": "5",
        "region": "Абай облысы",
        "district": "Үржар ауданы",
        "distance": null
    },
    {
        "id": 7044,
        "title": "Үшбұлақ",
        "lng": "76.125519",
        "lat": "43.169713",
        "timezone": "5",
        "region": "Алматы облысы",
        "district": "Жамбыл ауданы",
        "distance": null
    },
    {
        "id": 7825,
        "title": "Үшбұлақ",
        "lng": "71.565",
        "lat": "42.970833",
        "timezone": "5",
        "region": "Жамбыл облысы",
        "district": "Байзақ ауданы",
        "distance": null
    },
    {
        "id": 10425,
        "title": "Үшбұлақ",
        "lng": "69.565293",
        "lat": "41.908252",
        "timezone": "5",
        "region": "Түркістан облысы",
        "district": "Қазығұрт ауданы",
        "distance": null
    },
    {
        "id": 11093,
        "title": "Үшбұлақ",
        "lng": "85.219021",
        "lat": "49.399099",
        "timezone": "5",
        "region": "Шығыс Қазақстан облысы",
        "district": "Катонқарағай ауданы",
        "distance": null
    },
    {
        "id": 11135,
        "title": "Үшбұлақ",
        "lng": "84.956353",
        "lat": "48.773416",
        "timezone": "5",
        "region": "Шығыс Қазақстан облысы",
        "district": "Күршім ауданы",
        "distance": null
    },
    {
        "id": 6903,
        "title": "Үшжарма",
        "lng": "75.851838",
        "lat": "44.933091",
        "timezone": "5",
        "region": "Алматы облысы",
        "district": "Балқаш ауданы",
        "distance": null
    },
    {
        "id": 7547,
        "title": "Үшкемпір",
        "lng": "50.690674",
        "lat": "49.220321",
        "timezone": "5",
        "region": "Батыс Қазақстан облысы",
        "district": "Жаңақала ауданы",
        "distance": null
    },
    {
        "id": 5970,
        "title": "Үшкүмей",
        "lng": "82.958168",
        "lat": "48.331082",
        "timezone": "5",
        "region": "Абай облысы",
        "district": "Көкпекті ауданы",
        "distance": null
    },
    {
        "id": 10404,
        "title": "Үшкөпір",
        "lng": "68.351912",
        "lat": "40.901410",
        "timezone": "5",
        "region": "Түркістан облысы",
        "district": "Жетісай ауданы",
        "distance": null
    },
    {
        "id": 6443,
        "title": "Үшсарт",
        "lng": "70.049871",
        "lat": "50.300895",
        "timezone": "5",
        "region": "Ақмола облысы",
        "district": "Қорғалжын ауданы",
        "distance": null
    },
    {
        "id": 7325,
        "title": "Үштаған",
        "lng": "48.792659",
        "lat": "47.905063",
        "timezone": "5",
        "region": "Атырау облысы",
        "district": "Құрманғазы ауданы",
        "distance": null
    },
    {
        "id": 9434,
        "title": "Үштаған",
        "lng": "52.723211",
        "lat": "43.825941",
        "timezone": "5",
        "region": "Маңғыстау облысы",
        "district": "Маңғыстау ауданы",
        "distance": null
    },
    {
        "id": 7121,
        "title": "Үштерек",
        "lng": "76.533606",
        "lat": "43.237945",
        "timezone": "5",
        "region": "Алматы облысы",
        "district": "Қарасай ауданы",
        "distance": null
    },
    {
        "id": 7455,
        "title": "Үштерек",
        "lng": "47.612920",
        "lat": "48.956083",
        "timezone": "5",
        "region": "Батыс Қазақстан облысы",
        "district": "Бөкей ордасы ауданы",
        "distance": null
    },
    {
        "id": 8722,
        "title": "Үштоғай",
        "lng": "65.170501",
        "lat": "50.834115",
        "timezone": "5",
        "region": "Қостанай облысы",
        "district": "Амангелді ауданы",
        "distance": null
    },
    {
        "id": 5833,
        "title": "Үштөбе",
        "lng": "81.860948",
        "lat": "47.602829",
        "timezone": "5",
        "region": "Абай облысы",
        "district": "Ақсуат ауданы",
        "distance": null
    },
    {
        "id": 7420,
        "title": "Үштөбе",
        "lng": "50.306186",
        "lat": "50.045319",
        "timezone": "5",
        "region": "Батыс Қазақстан облысы",
        "district": "Ақжайық ауданы",
        "distance": null
    },
    {
        "id": 8484,
        "title": "Үштөбе",
        "lng": "73.237723",
        "lat": "49.773308",
        "timezone": "5",
        "region": "Қарағанды облысы",
        "district": "Бұқар жырау ауданы",
        "distance": null
    },
    {
        "id": 163,
        "title": "Үштөбе қаласы",
        "lng": "77.980827",
        "lat": "45.251221",
        "timezone": "5",
        "region": "Жетісу облысы",
        "district": null,
        "distance": null
    },
    {
        "id": 8192,
        "title": "Үшқайың",
        "lng": "80.584460",
        "lat": "45.679355",
        "timezone": "5",
        "region": "Жетісу облысы",
        "district": "Алакөл ауданы",
        "distance": null
    },
    {
        "id": 6356,
        "title": "Үшқарасу",
        "lng": "66.475861",
        "lat": "51.623937",
        "timezone": "5",
        "region": "Ақмола облысы",
        "district": "Жарқайың ауданы",
        "distance": null
    },
    {
        "id": 8731,
        "title": "Үшқарасу",
        "lng": "63.904982",
        "lat": "52.014666",
        "timezone": "5",
        "region": "Қостанай облысы",
        "district": "Әулиекөл ауданы",
        "distance": null
    },
    {
        "id": 6602,
        "title": "Үшқатты",
        "lng": "60.160920",
        "lat": "50.831242",
        "timezone": "5",
        "region": "Ақтөбе облысы",
        "district": "Әйтеке би ауданы",
        "distance": null
    },
    {
        "id": 6629,
        "title": "Үшқұдық",
        "lng": "56.821739",
        "lat": "50.099614",
        "timezone": "5",
        "region": "Ақтөбе облысы",
        "district": "Алға ауданы",
        "distance": null
    },
    {
        "id": 6875,
        "title": "Үшқұрай",
        "lng": "59.708708",
        "lat": "47.785183",
        "timezone": "5",
        "region": "Ақтөбе облысы",
        "district": "Шалқар ауданы",
        "distance": null
    },
    {
        "id": 10985,
        "title": "Үңгірлі",
        "lng": "67.029376",
        "lat": "49.354158",
        "timezone": "5",
        "region": "Ұлытау облысы",
        "district": "Ұлытау ауданы",
        "distance": null
    },
    {
        "id": 7034,
        "title": "Үңгіртас",
        "lng": "76.027980",
        "lat": "43.274680",
        "timezone": "5",
        "region": "Алматы облысы",
        "district": "Жамбыл ауданы",
        "distance": null
    },
    {
        "id": 8666,
        "title": "Үңірек",
        "lng": "72.981281",
        "lat": "48.837892",
        "timezone": "5",
        "region": "Қарағанды облысы",
        "district": "Шет ауданы",
        "distance": null
    }
]