[
    {
        "id": 8040,
        "title": "Ұзақбай Сыздықбаев",
        "lng": "69.786350",
        "lat": "43.511613",
        "timezone": "5",
        "region": "Жамбыл облысы",
        "district": "Сарысу ауданы",
        "distance": null
    },
    {
        "id": 10943,
        "title": "Ұзын ата",
        "lng": "67.972355",
        "lat": "41.665673",
        "timezone": "5",
        "region": "Түркістан облысы",
        "district": "Шардара ауданы",
        "distance": null
    },
    {
        "id": 10861,
        "title": "Ұзынарық",
        "lng": "70.110463",
        "lat": "42.226072",
        "timezone": "5",
        "region": "Түркістан облысы",
        "district": "Төле би ауданы",
        "distance": null
    },
    {
        "id": 7030,
        "title": "Ұзынағаш",
        "lng": "76.314210",
        "lat": "43.220925",
        "timezone": "5",
        "region": "Алматы облысы",
        "district": "Жамбыл ауданы",
        "distance": null
    },
    {
        "id": 8955,
        "title": "Ұзынағаш",
        "lng": "64.306205",
        "lat": "54.324905",
        "timezone": "5",
        "region": "Қостанай облысы",
        "district": "Меңдіқара ауданы",
        "distance": null
    },
    {
        "id": 6028,
        "title": "Ұзынбұлақ",
        "lng": "82.21250",
        "lat": "48.342700",
        "timezone": "5",
        "region": "Абай облысы",
        "district": "Ақсуат ауданы",
        "distance": null
    },
    {
        "id": 7152,
        "title": "Ұзынбұлақ",
        "lng": "79.014914",
        "lat": "43.160507",
        "timezone": "5",
        "region": "Алматы облысы",
        "district": "Кеген ауданы",
        "distance": null
    },
    {
        "id": 5952,
        "title": "Ұзынжал",
        "lng": "80.746794",
        "lat": "49.982362",
        "timezone": "5",
        "region": "Абай облысы",
        "district": "Жарма ауданы",
        "distance": null
    },
    {
        "id": 10203,
        "title": "Ұзынжар",
        "lng": "67.079987",
        "lat": "53.539355",
        "timezone": "5",
        "region": "Солтүстік Қазақстан облысы",
        "district": "Шал ақын ауданы",
        "distance": null
    },
    {
        "id": 6124,
        "title": "Ұзынкөл",
        "lng": "69.391209",
        "lat": "51.500803",
        "timezone": "5",
        "region": "Ақмола облысы",
        "district": "Астрахан ауданы",
        "distance": null
    },
    {
        "id": 6281,
        "title": "Ұзынкөл",
        "lng": "69.915618",
        "lat": "50.938863",
        "timezone": "5",
        "region": "Ақмола облысы",
        "district": "Егіндікөл ауданы",
        "distance": null
    },
    {
        "id": 7585,
        "title": "Ұзынкөл",
        "lng": "47.085124",
        "lat": "49.332840",
        "timezone": "5",
        "region": "Батыс Қазақстан облысы",
        "district": "Жәнібек ауданы",
        "distance": null
    },
    {
        "id": 7749,
        "title": "Ұзынкөл",
        "lng": "51.756291",
        "lat": "51.010782",
        "timezone": "5",
        "region": "Батыс Қазақстан облысы",
        "district": "Теректі ауданы",
        "distance": null
    },
    {
        "id": 9065,
        "title": "Ұзынкөл",
        "lng": "65.337758",
        "lat": "54.037498",
        "timezone": "5",
        "region": "Қостанай облысы",
        "district": "Ұзынкөл ауданы",
        "distance": null
    },
    {
        "id": 9924,
        "title": "Ұзынкөл",
        "lng": "67.153990",
        "lat": "54.590865",
        "timezone": "5",
        "region": "Солтүстік Қазақстан облысы",
        "district": "Жамбыл ауданы",
        "distance": null
    },
    {
        "id": 10023,
        "title": "Ұзынкөл",
        "lng": "70.738978",
        "lat": "54.462477",
        "timezone": "5",
        "region": "Солтүстік Қазақстан облысы",
        "district": "Мағжан жұмабаев ауданы",
        "distance": null
    },
    {
        "id": 10246,
        "title": "Ұзынкөл",
        "lng": "66.672143",
        "lat": "53.277141",
        "timezone": "5",
        "region": "Солтүстік Қазақстан облысы",
        "district": "Ғабит мүсірепов ауданы",
        "distance": null
    },
    {
        "id": 9563,
        "title": "Ұзынсу",
        "lng": "74.689158",
        "lat": "53.306094",
        "timezone": "5",
        "region": "Павлодар облысы",
        "district": "Ертіс ауданы",
        "distance": null
    },
    {
        "id": 7248,
        "title": "Ұзынтам",
        "lng": "79.687761",
        "lat": "43.644259",
        "timezone": "5",
        "region": "Алматы облысы",
        "district": "Ұйғыр ауданы",
        "distance": null
    },
    {
        "id": 8805,
        "title": "Ұзынқарасу",
        "lng": "64.257040",
        "lat": "50.466957",
        "timezone": "5",
        "region": "Қостанай облысы",
        "district": "Жангелді ауданы",
        "distance": null
    },
    {
        "id": 10665,
        "title": "Ұзынқұдық",
        "lng": "68.361353",
        "lat": "42.955386",
        "timezone": "5",
        "region": "Түркістан облысы",
        "district": "Отырар ауданы",
        "distance": null
    },
    {
        "id": 9526,
        "title": "Ұзыңбұлақ",
        "lng": "74.265009",
        "lat": "50.807376",
        "timezone": "5",
        "region": "Павлодар облысы",
        "district": "Баянауыл ауданы",
        "distance": null
    },
    {
        "id": 9042,
        "title": "Ұйкескен",
        "lng": "65.561511",
        "lat": "53.819253",
        "timezone": "5",
        "region": "Қостанай облысы",
        "district": "Ұзынкөл ауданы",
        "distance": null
    },
    {
        "id": 8042,
        "title": "Ұйым",
        "lng": "69.940430",
        "lat": "43.727264",
        "timezone": "5",
        "region": "Жамбыл облысы",
        "district": "Сарысу ауданы",
        "distance": null
    },
    {
        "id": 10855,
        "title": "Ұйымшыл",
        "lng": "69.655852",
        "lat": "42.091675",
        "timezone": "5",
        "region": "Түркістан облысы",
        "district": "Төле би ауданы",
        "distance": null
    },
    {
        "id": 6459,
        "title": "Ұлан",
        "lng": "69.285037",
        "lat": "52.209580",
        "timezone": "5",
        "region": "Ақмола облысы",
        "district": "Сандықтау ауданы",
        "distance": null
    },
    {
        "id": 7094,
        "title": "Ұлан",
        "lng": "76.680669",
        "lat": "43.300706",
        "timezone": "5",
        "region": "Алматы облысы",
        "district": "Қарасай ауданы",
        "distance": null
    },
    {
        "id": 8019,
        "title": "Ұланбел",
        "lng": "71.136572",
        "lat": "44.825004",
        "timezone": "5",
        "region": "Жамбыл облысы",
        "district": "Мойынқұм ауданы",
        "distance": null
    },
    {
        "id": 6198,
        "title": "Ұлтуған",
        "lng": "70.470817",
        "lat": "52.290482",
        "timezone": "5",
        "region": "Ақмола облысы",
        "district": "Бұланды ауданы",
        "distance": null
    },
    {
        "id": 10993,
        "title": "Ұлытау",
        "lng": "67.009397",
        "lat": "48.654767",
        "timezone": "5",
        "region": "Ұлытау облысы",
        "district": "Ұлытау ауданы",
        "distance": null
    },
    {
        "id": 6583,
        "title": "Ұлғайсын",
        "lng": "60.301902",
        "lat": "49.539709",
        "timezone": "5",
        "region": "Ақтөбе облысы",
        "district": "Әйтеке би ауданы",
        "distance": null
    },
    {
        "id": 8251,
        "title": "Ұмтыл",
        "lng": "77.873209",
        "lat": "45.225910",
        "timezone": "5",
        "region": "Жетісу облысы",
        "district": "Қаратал ауданы",
        "distance": null
    },
    {
        "id": 6022,
        "title": "Ұржар",
        "lng": "81.630898",
        "lat": "47.087390",
        "timezone": "5",
        "region": "Абай облысы",
        "district": "Үржар ауданы",
        "distance": null
    },
    {
        "id": 6264,
        "title": "Ұрымқай",
        "lng": "69.997535",
        "lat": "52.703199",
        "timezone": "5",
        "region": "Ақмола облысы",
        "district": "Бурабай ауданы",
        "distance": null
    },
    {
        "id": 7780,
        "title": "Ұрысай",
        "lng": "54.103778",
        "lat": "51.009694",
        "timezone": "5",
        "region": "Батыс Қазақстан облысы",
        "district": "Шыңғырлау ауданы",
        "distance": null
    },
    {
        "id": 10508,
        "title": "Ұшқын",
        "lng": "68.916943",
        "lat": "41.288314",
        "timezone": "5",
        "region": "Түркістан облысы",
        "district": "Келес ауданы",
        "distance": null
    },
    {
        "id": 10522,
        "title": "Ұшқын",
        "lng": "68.916940",
        "lat": "41.288316",
        "timezone": "5",
        "region": "Түркістан облысы",
        "district": "Келес ауданы",
        "distance": null
    },
    {
        "id": 10601,
        "title": "Ұялыжар",
        "lng": "69.297397",
        "lat": "42.434295",
        "timezone": "5",
        "region": "Түркістан облысы",
        "district": "Ордабасы ауданы",
        "distance": null
    }
]