[{"id":745044,"name":"Istanbul","names":{"en":"Istanbul","tr":"İstanbul","es":"Estambul","ja":"イスタンブール","ko":"이스탄불","de":"Istanbul","fr":"Istanbul","cs":"Istanbul","pl":"Stambuł","sv":"Istanbul","pt":"Istambul","el":"Ισταμπούλ","ru":"Стамбул","it":"Istanbul","nl":"Istanbul","uk":"Стамбул","ar":"اسطنبول","hi":"इस्तांबुल","bn":"ইস্তাম্বুল","zh":"伊斯坦堡","hy":"Ստամբուլ"},"country":"TR","lat":41.01384,"lon":28.94966,"pop":15701602,"search_terms":["비잔티움","i̇stanbul","стамбул","estambul","ビュザンティオン","ισταμπούλ","ইস্তাম্বুল","伊斯坦堡","ստամբուլ","이스탄불","stambuł","istambul","istanbul","イスタンブール","इस्तांबुल","istambuł","ισταμπουλ","اسطنبول"]},{"id":2339354,"name":"Ibadan","names":{"en":"Ibadan","de":"Ibadan","fr":"Ibadan","it":"Ibadan","nl":"Ibadan","pl":"Ibadan","pt":"Ibadan","ja":"イバダン","ar":"إبادان","id":"Ibadan","ru":"Ибадан","es":"Ibadán","ur":"ابادان","fa":"ابادان","tr":"İbadan","uk":"Ібадан","ko":"이바단","zh":"伊巴丹","ky":"Ибадан шаары","az":"İbadan","el":"Ιμπαντάν","hy":"Իբադան"},"country":"NG","lat":7.37756,"lon":3.90591,"pop":3649000,"search_terms":["إبادان","ibadán","ibadan","伊巴丹","イバダン","ибадан шаары","ιμπαντάν","իբադան","ибадан","إيبادان","i̇badan","이바단","ابادان","ібадан"]},{"id":1843564,"name":"Incheon","names":{"en":"Incheon","de":"Incheon","fr":"Incheon","id":"Incheon","ja":"仁川広域市","nl":"Incheon","pl":"Inch'ŏn","pt":"Incheon","ru":"Инчхон","sv":"Inchon","es":"Inchon","vi":"Nhân Xuyên","tr":"İncheon","uk":"Інчхон","el":"Ίντσον","cs":"Inčchon","mr":"इंचेवॉन","ta":"இங்கியோன்","th":"อินช็อน","ar":"إنتشون","fa":"اینچئون","kk":"Инчхон","ko":"인천광역시","az":"İnçxon"},"country":"KR","lat":37.45646,"lon":126.70515,"pop":3039450,"search_terms":["อินช็อน","incheon","инчхон","nhân xuyên","إنتشون","ίντσον","इंचेवॉन","i̇nçxon","inčchon","인천광역시","仁川広域市","inchon","இங்கியோன்","인천","inch'ŏn","اینچئون","i̇ncheon","інчхон","incheon-si","인천시"]},{"id":311046,"name":"Izmir","names":{"en":"Izmir","es":"Esmirna","de":"Izmir","fr":"Izmir","pl":"Izmir","ar":"إزمير","az":"İzmir","cs":"İzmir","el":"Σμύρνη","id":"Izmir","it":"Smirne","ja":"イズミル","ka":"იზმირი","nl":"Izmir","pt":"Esmirna","ru":"Измир","sv":"Izmir","tk":"İzmir","tr":"İzmir","uz":"Izmir"},"country":"TR","lat":38.41273,"lon":27.13838,"pop":2938292,"search_terms":["იზმირი","измир","smirne","izmir","i̇zmir","esmirna","σμύρνη","イズミル","إزمير"]},{"id":1269743,"name":"Indore","names":{"en":"Indore","de":"Indore","fr":"Indore","hi":"इन्दौर","mr":"इंदूर","nl":"Indore","pl":"Indore","pt":"Indore","sv":"Indore","ro":"Indore","ja":"インドール","ru":"Индор","ar":"إندور","bn":"ইন্দোর","fa":"ایندور","ka":"ინდორი","ko":"인도르","ta":"இந்தோர்","te":"ఇండోర్","uk":"Індаур","zh":"印多尔","ps":"اندور","ur":"اندور"},"country":"IN","lat":22.71792,"lon":75.8333,"pop":1994397,"search_terms":["індаур","インドール","индаур","ఇండోర్","индор","إندور","印多尔","ইন্দোর","indore","인도르","اندور","ინდორი","இந்தோர்","ایندور","इंदूर","इन्दौर"]},{"id":3526683,"name":"Iztapalapa","names":{"en":"Iztapalapa","it":"Delegazione Iztapalapa","ru":"Истапалапа","zh":"伊斯塔帕拉帕","es":"Delegación Iztapalapa"},"country":"MX","lat":19.35529,"lon":-99.06224,"pop":1835486,"search_terms":["истапалапа","iztapalapa","伊斯塔帕拉帕","delegazione iztapalapa","delegación iztapalapa"]},{"id":418863,"name":"Isfahan","names":{"en":"Isfahan","ru":"Исфахан","fr":"Ispahan","fa":"اصفهان","es":"Isfahán","it":"Esfahan","ar":"أصفهان","az":"İsfahan","bn":"এসফাহন","cs":"Isfahán","el":"Ισφαχάν","hi":"इस्फ़हान","hy":"Սպահան","id":"Kota Isfahan","ja":"エスファハーン","ka":"ისპაანი","kk":"Исфаһан","ko":"이스파한","ku":"Îsfehan","mr":"इस्फहान","tg":"Исфаҳон","th":"อิสฟาฮาน","tk":"Yspyhan","tl":"Esfahān","tr":"İsfahan","uk":"Ісфахан","ur":"اصفہان","sv":"Esfahan","zh":"伊斯法罕","de":"Isfahan","ky":"Исфахан","ta":"இசுபகான்","uz":"Isfahon"},"country":"IR","lat":32.65246,"lon":51.67462,"pop":1547164,"search_terms":["kota isfahan","esfahan","এসফাহন","isfahán","இசுபகான்","սպահան","อิสฟาฮาน","yspyhan","ισφαχάν","이스파한","исфаҳон","اصفهان","i̇sfahan","इस्फ़हान","îsfehan","ісфахан","ისპაანი","इस्फहान","isfahan","isfahon","伊斯法罕","исфаһан","أصفهان","エスファハーン","اصفہان","esfahān","ispahan","исфахан"]},{"id":2337639,"name":"Ilorin","names":{"en":"Ilorin","de":"Ilorin","pl":"Ilorin","ja":"イロリン","ko":"일로린","ur":"الورن","ru":"Илорин","zh":"伊洛林"},"country":"NG","lat":8.49664,"lon":4.54214,"pop":1080000,"search_terms":["伊洛林","илорин","ilorin","الورن","イロリン","일로린"]},{"id":4259418,"name":"Indianapolis","names":{"en":"Indianapolis","ru":"Индианаполис","es":"Indianápolis","uk":"Індіанаполіс","fa":"ایندیاناپولیس","mr":"इंडियानापोलिस","hy":"Ինդիանապոլիս","hi":"इंडियानापोलिस","th":"อินเดียแนโพลิส","az":"İndianapolis","ar":"إنديانابوليس","ta":"இண்டியானாபொலிஸ்","ja":"インディアナポリス","ur":"انڈیاناپولس، انڈیانا","tl":"Indiyanapolis","el":"Ινδιανάπολη","ko":"인디애나폴리스","ka":"ინდიანაპოლისი","pt":"Indianápolis","zh":"印第安納波利斯","am":"ኢንዲያናፖሊስ","bn":"ইন্ডিয়ানাপোলিস","kk":"Индианаполис","ky":"Индианаполис"},"country":"US","lat":39.76838,"lon":-86.15804,"pop":887642,"search_terms":["ایندیاناپولیس","ইন্ডিয়ানাপোলিস","індіанаполіс","இண்டியானாபொலிஸ்","インディアナポリス","ինդիանապոլիս","индианаполис","indianapolis","印第安納波利斯","इंडियानापोलिस","انڈیاناپولس، انڈیانا","indiyanapolis","indpls","i̇ndianapolis","ινδιανάπολη","ინდიანაპოლისი","ኢንዲያናፖሊስ","อินเดียแนโพลิส","إنديانابوليس","인디애나폴리스","indianápolis"]},{"id":74477,"name":"Ibb","names":{"en":"Ibb","ar":"إب","fa":"اب","ja":"イッブ","ko":"이브","uk":"Ібб","ur":"اب","ru":"Ибб","zh":"伊卜"},"country":"YE","lat":13.96667,"lon":44.18333,"pop":771514,"search_terms":["إب","伊卜","이브","ібб","イッブ","ибб","اب","ibb"]},{"id":1734634,"name":"Ipoh","names":{"en":"Ipoh","de":"Ipoh","id":"Ipoh","it":"Ipoh","ja":"イポー","ms":"Ipoh","nl":"Ipoh","sv":"Ipoh","vi":"Ipoh","zh":"怡保","ru":"Ипо","ur":"ایپو","ta":"ஈப்போ","fa":"ایپوه","ko":"이포","th":"อีโปห์","ar":"ايبوه","uk":"Іпох"},"country":"MY","lat":4.5841,"lon":101.0829,"pop":759952,"search_terms":["ايبوه","イポー","ипо","ایپو","ஈப்போ","іпох","ipoh","ипох","怡保","ایپوه","이포","อีโปห์"]},{"id":554840,"name":"Izhevsk","names":{"en":"Izhevsk","de":"Ischewsk","cs":"Iževsk","ja":"イジェフスク","ko":"이젭스크","nl":"Izjevsk","pl":"Iżewsk","pt":"Ijevsk","ru":"Ижевск","sv":"Izjevsk","fr":"Ijevsk","it":"Iževsk","el":"Ιζέβσκ","uk":"Іжевськ","ro":"Ijevsk","tt":"Ижау","tr":"İjevsk","kk":"Ижау","ar":"إيجيفسك","ka":"იჟევსკი","fa":"ایژوسک","zh":"伊熱夫斯克"},"country":"RU","lat":56.85225,"lon":53.19862,"pop":648213,"search_terms":["ижевск","iževsk","izhevsk","이젭스크","ایژوسک","ijevsk","إيجيفسك","イジェフスク","ижау","іжевськ","iżewsk","伊熱夫斯克","i̇jevsk","იჟევსკი","ischewsk","ιζέβσκ","izjevsk"]},{"id":2023469,"name":"Irkutsk","names":{"en":"Irkutsk","de":"Irkutsk","es":"Irkutsk","cs":"Irkutsk","el":"Ιρκούτσκ","fr":"Irkoutsk","it":"Irkutsk","ja":"イルクーツク","ko":"이르쿠츠크","nl":"Irkoetsk","pl":"Irkuck","pt":"Irkutsk","sv":"Irkutsk","id":"Irkutsk","ro":"Irkuțk","uk":"Іркутськ","ru":"Иркутск","mr":"इरकुत्स्क","fa":"ایرکوتسک","tr":"İrkutsk","ar":"إيركوتسك","az":"İrkutsk","ka":"ირკუტსკი","tt":"Өркет","hi":"इरकुत्स्क","zh":"伊爾庫茨克","th":"อีร์คุตสค์","ky":"Иркутск","ur":"ایرکتسک"},"country":"RU","lat":52.29566,"lon":104.29076,"pop":623869,"search_terms":["irkuțk","ირკუტსკი","өркет","ιρκούτσκ","i̇rkutsk","irkoetsk","伊爾庫茨克","irkutsc","อีร์คุตสค์","ایرکوتسک","иркутск","إيركوتسك","इरकुत्स्क","іркутськ","ایرکتسک","イルクーツク","irkuck","irkoutsk","irkutsk","이르쿠츠크"]},{"id":1176615,"name":"Islamabad","names":{"en":"Islamabad","de":"Islamabad","fr":"Islamabad","it":"Islamabad","el":"Ισλαμαμπάντ","es":"Islamabad","pt":"Islamabade","sv":"Islamabad","ru":"Исламабад","hy":"Իսլամաբադ","bn":"ইসলামাবাদ","tg":"Исламабад","az":"İslamabad","tr":"İslamabad","hi":"इस्लामाबाद","th":"อิสลามาบัด","ta":"இஸ்லாமாபாத்","ar":"إسلام آباد","mr":"इस्लामाबाद","fa":"اسلام‌آباد","kk":"Исламабад","ku":"Îslamabad","ko":"이슬라마바드","ka":"ისლამაბადი","ps":"اسلام آباد","ja":"イスラマバード","cs":"Islámábád","am":"ኢስላማባድ","uk":"Ісламабад","ur":"اسلام آباد","zh":"伊斯兰堡","tt":"İslamabad"},"country":"PK","lat":33.72148,"lon":73.04329,"pop":601600,"search_terms":["îslamabad","исламабад","இஸ்லாமாபாத்","اسلام آباد","իսլամաբադ","ισλαμαμπάντ","اسلام‌آباد","islamabade","이슬라마바드","islamabad","ისლამაბადი","इस्लामाबाद","ісламабад","ኢስላማባድ","إسلام آباد","伊斯兰堡","ইসলামাবাদ","i̇slamabad","イスラマバード","islámábád","อิสลามาบัด"]},{"id":1861321,"name":"Itabashi","names":{"en":"Itabashi","ja":"板橋"},"country":"JP","lat":35.74893,"lon":139.71497,"pop":584483,"search_terms":["イタバシ","tabashi city","板橋","itabashi","いたばし"]},{"id":10063567,"name":"Iskandar Puteri","names":{"en":"Iskandar Puteri","zh":"依斯干达公主城","ta":"இஸ்கந்தர் புத்திரி","ms":"Nusajaya"},"country":"MY","lat":1.39324,"lon":103.62322,"pop":575977,"search_terms":["nusajaya","iskandar puteri","依斯干达公主城","இஸ்கந்தர் புத்திரி"]},{"id":248946,"name":"Irbid","names":{"en":"Irbid","de":"Irbid","ar":"إربد","pl":"Irbid","pt":"Irbid","ru":"Ирбид","fa":"اربد","ja":"イルビド","kk":"Ирбид қаласы","ko":"이르비드","tr":"İrbid","uk":"Ірбід","zh":"伊爾比德","hy":"Իրբիդ","ur":"اربد"},"country":"JO","lat":32.55556,"lon":35.85,"pop":569068,"search_terms":["イルビド","իրբիդ","ірбід","irbid","إربد","ирбид қаласы","伊爾比德","i̇rbid","이르비드","ирбид","اربد"]},{"id":2338900,"name":"Ile-Ife","names":{"en":"Ile-Ife"},"country":"NG","lat":7.4824,"lon":4.56032,"pop":560000,"search_terms":["ile-ife"]},{"id":3680656,"name":"Ibague","names":{"en":"Ibague","uk":"Ібаге","ko":"이바게","ja":"イバゲ","ar":"أباجي","ru":"Ибаге","zh":"伊瓦格","ka":"იბაგე"},"country":"CO","lat":4.43573,"lon":-75.20289,"pop":529635,"search_terms":["이바게","იბაგე","ibague","イバゲ","ибаге","ібаге","أباجي","伊瓦格"]},{"id":11837657,"name":"Ichikawa","names":{"en":"Ichikawa","ja":"市川","ar":"ايشيكاوا"},"country":"JP","lat":35.73413,"lon":139.9065,"pop":496676,"search_terms":["ichikawa","ايشيكاوا","市川"]},{"id":1710914,"name":"Imus","names":{"en":"Imus","tl":"Lungsod ng Imus","ru":"Имус","ur":"اموس"},"country":"PH","lat":14.42972,"lon":120.93667,"pop":481949,"search_terms":["imus","lungsod ng imus","اموس","имус"]},{"id":1711005,"name":"Iloilo","names":{"en":"Iloilo City","ru":"Илоило","de":"Iloilo City","fr":"Iloilo"},"country":"PH","lat":10.69694,"lon":122.56444,"pop":473728,"search_terms":["iloilo","iloilo city","илоило"]},{"id":2338325,"name":"Ikare","names":{"en":"Ikare"},"country":"NG","lat":7.52591,"lon":5.75342,"pop":465000,"search_terms":["ikare"]},{"id":361055,"name":"Ismailia","names":{"en":"Ismailia","pl":"Ismailia","fr":"Ismaïlia","de":"Ismailia","ar":"مدينة الإسماعيلية","id":"Ismaïlia","ru":"Исмаилия","sv":"Ismaïlia","nl":"Ismaïlia","es":"Ismailía","cs":"Ismáílíja","fa":"اسماعیلیه","ja":"イスマイリア","ka":"ისმაილია","ko":"이스마일리아","sw":"Ismaïlia","th":"อิสเมอิลีอา","tr":"İsmailiye","uk":"Ісмаїлія","pt":"Ismaília","zh":"伊斯梅利亚","el":"Ισμαηλία","hi":"इस्माइलिया","hy":"Իսմայիլիա","ur":"اسماعیلیہ","uz":"Ismoiliya"},"country":"EG","lat":30.60427,"lon":32.27225,"pop":429465,"search_terms":["اسماعیلیہ","مدينة الإسماعيلية","อิสเมอิลีอา","el ismalia","इस्माइलिया","伊斯梅利亚","ismoiliya","ismailia","اسماعیلیه","이스마일리아","イスマイリア","исмаилия","ісмаїлія","ისმაილია","ismaïlia","i̇smailiye","իսմայիլիա","الإسماعيلية","ismáílíja","ismaília","ismailía","ισμαηλία","ismalia"]},{"id":555312,"name":"Ivanovo","names":{"en":"Ivanovo","de":"Iwanowo","es":"Ivánovo","cs":"Ivanovo","fr":"Ivanovo","ko":"이바노보","nl":"Ivanovo","pl":"Iwanowo","id":"Ivanovo","it":"Ivanovo","ru":"Иваново","ar":"إيفانوفو","hy":"Իվանովո","ja":"イヴァノヴォ","uk":"Іваново","tr":"İvanovo","fa":"ایوانوفو","th":"อีวาโนโว","zh":"伊万诺沃","ky":"Иваново шаары"},"country":"RU","lat":56.99988,"lon":40.97257,"pop":406113,"search_terms":["iwanowo","иваново шаары","إيفانوفو","イヴァノヴォ","이바노보","իվանովո","ایوانوفو","i̇vanovo","иваново","伊万诺沃","ivánovo","іваново","อีวาโนโว","ivanovo"]},{"id":3526700,"name":"Iztacalco","names":{"en":"Iztacalco"},"country":"MX","lat":19.39528,"lon":-99.09778,"pop":384326,"search_terms":["iztacalco"]},{"id":4004330,"name":"Irapuato","names":{"en":"Irapuato","ru":"Ирапуато","ka":"ირაპუატო","fa":"ایرپواتو، گوانخواتو","zh":"伊拉普阿托","ar":"ايرابواتو","ur":"ایراپواتو"},"country":"MX","lat":20.67675,"lon":-101.35628,"pop":380941,"search_terms":["ирапуато","ایرپواتو، گوانخواتو","ایراپواتو","irapuato","ايرابواتو","伊拉普阿托","ირაპუატო"]},{"id":1861949,"name":"Ichinomiya","names":{"en":"Ichinomiya","fr":"Ichinomiya","ja":"一宮市","ko":"이치노미야 시","pl":"Ichinomiya","pt":"Owari-ichinomiya","de":"Ichinomiya","ar":"إيتشينوميا","az":"İtinomiya","fa":"ایچینومیا، آیچی","ka":"იტინომია","kk":"Итиномия","tg":"Ичиномия","th":"อิชิโนะมิยะ","uk":"Ітіномія","ur":"اچینومیا، ایچی","ru":"Итиномия","zh":"一宮市"},"country":"JP","lat":35.3,"lon":136.8,"pop":380073,"search_terms":["owari-ichinomiya","一宮市","ичиномия","이치노미야 시","i̇tinomiya","ichinomiya","إيتشينوميا","ایچینومیا، آیچی","იტინომია","ітіномія","اچینومیا، ایچی","一宮","อิชิโนะมิยะ","итиномия"]},{"id":675810,"name":"Iasi","names":{"en":"Iași","de":"Iaşi","cs":"Jasy","fr":"Iași","ja":"ヤシ","nl":"Iași","pl":"Jassy","ro":"Iași","sv":"Iaşi","uk":"Ясси","it":"Iași","pt":"Iaşi","ru":"Яссы","zh":"雅西","ar":"ياش","es":"Iași","el":"Ιάσιο","tr":"Yaş","hy":"Յասի","ms":"Iași","ko":"이아시","tg":"Яш","th":"ยาช","mr":"याश","fa":"یاش","az":"Yassı","ka":"იასი"},"country":"RO","lat":47.16667,"lon":27.6,"pop":378954,"search_terms":["याश","yassı","იასი","iasi","iaşi","яссы","이아시","ياش","ясси","雅西","ยาช","յասի","яш","jassy","یاش","ιάσιο","ヤシ","yaş","iași","jasy"]},{"id":3696183,"name":"Iquitos","names":{"en":"Iquitos","de":"Iquitos","es":"Iquitos","fr":"Iquitos","id":"Iquitos","nl":"Iquitos","pl":"Iquitos","pt":"Iquitos","sv":"Iquitos","ru":"Икитос","uk":"Ікітос","ko":"이키토스","ja":"イキトス","ka":"იკიტოსი","zh":"伊基托斯","th":"อีกีโตส","fa":"ایکیتوس","ur":"اکیتوس","uz":"Ikitos"},"country":"PE","lat":-3.74814,"lon":-73.2529,"pop":377609,"search_terms":["イキトス","اکیتوس","伊基托斯","iquitos","икитос","อีกีโตส","ikitos","ікітос","იკიტოსი","ایکیتوس","이키토스"]},{"id":10627325,"name":"Ingombota","names":{"en":"Ingombota","uk":"Інгомбота","ja":"インゴンボタ"},"country":"AO","lat":-8.81806,"lon":13.22889,"pop":370000,"search_terms":["インゴンボタ","інгомбота","ingombota"]},{"id":3460644,"name":"Itaquaquecetuba","names":{"en":"Itaquaquecetuba"},"country":"BR","lat":-23.48611,"lon":-46.34833,"pop":369275,"search_terms":["itaquaquecetuba"]},{"id":2337181,"name":"Iseyin","names":{"en":"Iseyin"},"country":"NG","lat":7.97022,"lon":3.59626,"pop":365300,"search_terms":["iseyin"]},{"id":2338400,"name":"Ijebu Ode","names":{"en":"Ijebu Ode","de":"Ijebu-Ode"},"country":"NG","lat":6.81944,"lon":3.91731,"pop":360000,"search_terms":["ijebu-ode","ijebu ode"]},{"id":2112539,"name":"Iwaki","names":{"en":"Iwaki","ru":"Иваки","tg":"Иваки","ko":"이와키 시","ar":"لواكي","th":"อิวะกิ","ja":"いわき市","uk":"Івакі","fa":"ایواکی، فوکوشیما","zh":"磐城市","ur":"ایواکی، فوکوشیما"},"country":"JP","lat":37.05,"lon":140.88333,"pop":357309,"search_terms":["ایواکی، فوکوشیما","いわき市","івакі","いわき","iwaki","磐城市","иваки","อิวะกิ","이와키 시","لواكي"]},{"id":1711084,"name":"Iligan","names":{"en":"Iligan","ja":"イリガン","ko":"일리간","tl":"Lungsod ng Iligan","zh":"伊利甘"},"country":"PH","lat":8.2289,"lon":124.24344,"pop":342618,"search_terms":["イリガン","伊利甘","iligan","lungsod ng iligan","일리간"]},{"id":2337704,"name":"Ilesa","names":{"en":"Ilesa","pt":"Ilesa"},"country":"NG","lat":7.62789,"lon":4.74161,"pop":325000,"search_terms":["ilesa"]},{"id":3526682,"name":"Ixtapaluca","names":{"en":"Ixtapaluca","es":"Iztapaluca"},"country":"MX","lat":19.31556,"lon":-98.88284,"pop":322271,"search_terms":["ixtapaluca","iztapaluca"]},{"id":2646003,"name":"Islington","names":{"en":"Islington","ja":"イズリントン","ur":"ازلنگٹن، لندن","ka":"იზლინგტონი","ru":"Ислингтон","fr":"District londonien d'Islington","ko":"이즐링턴","az":"İslinqton","fa":"ایزلینتن","zh":"伊斯靈頓"},"country":"GB","lat":51.53622,"lon":-0.10304,"pop":319143,"search_terms":["이즐링턴","ازلنگٹن، لندن","イズリントン","伊斯靈頓","ислингтон","ایزلینتن","district londonien d'islington","იზლინგტონი","i̇slinqton","islington"]},{"id":2338313,"name":"Ikeja","names":{"en":"Ikeja","de":"Ikeja","pl":"Ikeja"},"country":"NG","lat":6.59651,"lon":3.34205,"pop":313196,"search_terms":["ikeja"]},{"id":1711082,"name":"Iligan City","names":{"en":"Iligan City"},"country":"PH","lat":8.25,"lon":124.4,"pop":312323,"search_terms":["iligan city"]},{"id":1843491,"name":"Iksan","names":{"en":"Iksan","ru":"Иксан","fa":"ایکسان","ja":"益山市","ka":"იქსანი","ko":"익산시","uk":"Іксан","ur":"اکسان","zh":"益山市"},"country":"KR","lat":35.94389,"lon":126.95444,"pop":307000,"search_terms":["익산시","იქსანი","اکسان","иксан","iksan","益山市","іксан","ایکسان"]},{"id":1862033,"name":"Ibaraki","names":{"en":"Ibaraki","ru":"Ибараки","ja":"茨木市","ar":"إباراكي","fa":"ایباراکی، اوساکا","ka":"იბარაკი","ko":"이바라키 시","tg":"Ибараки","th":"อิบะระกิ","uk":"Ібаракі","ur":"ایباراکی، اوساکا","zh":"茨木市"},"country":"JP","lat":34.81641,"lon":135.56828,"pop":287730,"search_terms":["ibaraki","茨木","茨木市","ібаракі","茨城市","ибараки","იბარაკი","이바라키 시","ایباراکی، اوساکا","อิบะระกิ","إباراكي"]},{"id":1269834,"name":"Ichalkaranji","names":{"en":"Ichalkaranji","bn":"ইচালকরনজি","fa":"ایچالکارانجی","mr":"इचलकरंजी","zh":"伊切尔格伦吉","ur":"ایچل کرنجی"},"country":"IN","lat":16.69117,"lon":74.46054,"pop":287353,"search_terms":["ইচালকরনজি","इचलकरंजी","ichalkaranji","ایچل کرنجی","ایچالکارانجی","伊切尔格伦吉"]},{"id":2112664,"name":"Ichihara","names":{"en":"Ichihara","pl":"Ichihara","fr":"Ichihara","de":"Ichihara","ja":"市原市","nl":"Ichihara","pt":"Ichihara","ru":"Итихара","ar":"إيتشيهارا","fa":"ایچیهارا، چیبا","ka":"იტიჰარა","ko":"이치하라 시","tg":"Ичиҳара","th":"อิชิฮะระ","uk":"Ітіхара","zh":"市原市","ur":"اچیہارا، چیبا"},"country":"JP","lat":35.51667,"lon":140.08333,"pop":283531,"search_terms":["ітіхара","итихара","ایچیهارا، چیبا","ichihara","市原市","اچیہارا، چیبا","이치하라 시","إيتشيهارا","ичиҳара","იტიჰარა","原","อิชิฮะระ"]},{"id":3938527,"name":"Ica","names":{"en":"Ica","de":"Ica","es":"Ica","fr":"Ica","pt":"Ica","sv":"Ica","pl":"Ica","ru":"Ика","ja":"イカ","ka":"იკა","uk":"Іка","zh":"伊卡","fa":"ایکا، پرو","ko":"이카","ur":"اکا، پیرو"},"country":"PE","lat":-14.07538,"lon":-75.73422,"pop":282407,"search_terms":["ика","іка","იკა","اکا، پیرو","ica","伊卡","이카","イカ","ایکا، پرو"]},{"id":3680450,"name":"Itaguei","names":{"en":"Itaguei","el":"Ιταγουί","ru":"Итагуи","zh":"伊塔圭","fa":"ایتاگویی","ur":"اتاگوی"},"country":"CO","lat":6.18461,"lon":-75.59913,"pop":281853,"search_terms":["итагуи","ایتاگویی","itaguei","ιταγουί","伊塔圭","اتاگوی"]},{"id":1269771,"name":"Imphal","names":{"en":"Imphal","de":"Imphal","hi":"इंफाल","sv":"Imphal","ta":"இம்பால்","pl":"Imphal","ja":"インパール","ro":"Imphal","bn":"ইম্ফল","ru":"Импхал"},"country":"IN","lat":24.80805,"lon":93.9442,"pop":277196,"search_terms":["इंफाल","இம்பால்","ইম্ফল","импхал","imphal","インパール"]},{"id":1514896,"name":"Isfara","names":{"en":"Isfara","ru":"Исфара","ar":"اسفرة","az":"İsfərah","fa":"اسفره","ja":"イスファラ","ko":"이스파라","tt":"Исфәрә","uk":"Ісфара","ur":"اسفرہ","zh":"伊斯法拉"},"country":"TJ","lat":40.12649,"lon":70.62526,"pop":274000,"search_terms":["اسفرة","исфәрә","ісфара","이스파라","исфара","i̇sfərah","isfara","اسفرہ","اسفره","伊斯法拉","イスファラ"]},{"id":1220253,"name":"Istaravshan","names":{"en":"Istaravshan","ru":"Истаравшан","de":"Istarawschan","fr":"Istaravchan","it":"Istaravšan","az":"İstərövşən","cs":"Istaravšan","fa":"استروشن","id":"Istarawshan","ja":"イスタラフシャン","ko":"이스트라브샨","ro":"Istaravșan","tt":"Истәраушан","uk":"Істаравшан","ur":"استروشن","pl":"Istarawszan","pt":"Istarawshan","sv":"Istaravsjan","zh":"伊斯塔拉夫尚"},"country":"TJ","lat":39.9142,"lon":69.00328,"pop":273500,"search_terms":["истаравшан","истәраушан","istarawszan","istarawschan","istaravchan","istaravšan","istaravsjan","イスタラフシャン","استروشن","i̇stərövşən","istarawshan","істаравшан","이스트라브샨","istaravșan","伊斯塔拉夫尚","istaravshan"]},{"id":5359777,"name":"Irvine","names":{"en":"Irvine","de":"Irvine","fr":"Irvine","it":"Irvine","ja":"アーバイン","nl":"Irvine","pt":"Irvine","sv":"Irvine","ru":"Ирвин","zh":"爾灣","uk":"Ервайн","ar":"إرفاين","ko":"어바인","fa":"ارواین، کالیفرنیا"},"country":"US","lat":33.66946,"lon":-117.82311,"pop":256927,"search_terms":["ارواین، کالیفرنیا","ирвайн","ервайн","爾灣","إرفاين","アーバイン","歐文","어바인","irvine","ирвин"]},{"id":3461311,"name":"Indaiatuba","names":{"en":"Indaiatuba","pt":"Indaiatuba","kk":"Индаятуба","ru":"Индаятуба","zh":"因达亚图巴"},"country":"BR","lat":-23.08842,"lon":-47.2119,"pop":256223,"search_terms":["indaiatuba","индаятуба","因达亚图巴"]},{"id":215771,"name":"Isiro","names":{"en":"Isiro","fr":"Isiro","ru":"Исиро"},"country":"CD","lat":2.77391,"lon":27.61603,"pop":255409,"search_terms":["исиро","isiro"]},{"id":2338106,"name":"Ikot Ekpene","names":{"en":"Ikot Ekpene"},"country":"NG","lat":5.18194,"lon":7.71481,"pop":254806,"search_terms":["ikot ekpene"]},{"id":311111,"name":"Iskenderun","names":{"en":"İskenderun","es":"Alejandreta","pl":"Aleksandretta","de":"İskenderun","fr":"İskenderun","id":"İskenderun","nl":"İskenderun","sv":"İskenderun","tr":"İskenderun","fa":"اسکندرون","ru":"Искендерун","ar":"إسكندرونة","el":"Αλεξανδρέττα","hy":"Ալեքսանդրեթ","kk":"Искендерун","ko":"이스켄데룬","ku":"Îskenderûn","uk":"Іскендерун","ur":"اسکندرون","uz":"Aleksandretta","zh":"伊斯肯德倫"},"country":"TR","lat":36.58718,"lon":36.17347,"pop":251682,"search_terms":["إسكندرونة","i̇skenderun","iskenderun","îskenderûn","искендерун","ալեքսանդրետտա","alejandreta","ալեքսանդրեթ","伊斯肯德倫","aleksandretta","이스켄데룬","իսքենդերուն","اسکندرون","іскендерун","αλεξανδρέττα"]},{"id":2336905,"name":"Iwo","names":{"en":"Iwo","pl":"Iwo","de":"Iwo","ru":"Иво"},"country":"NG","lat":7.63527,"lon":4.18156,"pop":250443,"search_terms":["iwo","иво"]},{"id":1321937,"name":"Insein","names":{"en":"Insein"},"country":"MM","lat":16.88874,"lon":96.10257,"pop":247675,"search_terms":["insein"]},{"id":3460718,"name":"Itapevi","names":{"en":"Itapevi"},"country":"BR","lat":-23.54889,"lon":-46.93417,"pop":240961,"search_terms":["itapevi"]},{"id":3460950,"name":"Itaborai","names":{"en":"Itaborai","kk":"Итабораи","ru":"Итабораи","zh":"伊塔博拉伊"},"country":"BR","lat":-22.74444,"lon":-42.85944,"pop":240040,"search_terms":["伊塔博拉伊","itaborai","итабораи"]},{"id":707471,"name":"Ivano-Frankivsk","names":{"en":"Ivano-Frankivsk","pl":"Iwano-Frankiwsk","ru":"Ивано-Франковск","fr":"Ivano-Frankivsk","uk":"Івано-Франківськ","ja":"イヴァーノ＝フランキーウシク","it":"Ivano-Frankivs'k"},"country":"UA","lat":48.92312,"lon":24.71248,"pop":238196,"search_terms":["ivano-frankivsk","ивано-франковск","iwano-frankiwsk","イヴァーノ＝フランキーウシク","івано-франківськ","франківськ","ivano-frankivs'k"]},{"id":4700168,"name":"Irving","names":{"en":"Irving","nl":"Irving","pt":"Irving","fr":"Irving","ru":"Ирвинг","ja":"アービング","fa":"ایروینگ، تگزاس","ko":"어빙","uk":"Ірвінг","ar":"إيرفينغ","zh":"歐文","ur":"ارونگ، ٹیکساس","tt":"Ирвиң","de":"Irving","hi":"इरविंग","hy":"Իրվինգ","id":"Irving","uz":"Irving","mr":"इर्विंग","ms":"Irving","el":"Ίρβινγκ","it":"Irving","es":"Irving","vi":"Irving","bn":"আরভিং","sv":"Irving","sw":"Irving","ta":"இர்விங்","cs":"Irving","te":"ఇర్వింగ్","th":"เอ วิง","tl":"Irving","pl":"Irving","tr":"Irving"},"country":"US","lat":32.81402,"lon":-96.94889,"pop":236607,"search_terms":["ірвінг","어빙","إيرفينغ","ирвиң","เอ วิง","ఇర్వింగ్","ارونگ، ٹیکساس","इर्विंग","இர்விங்","इरविंग","իրվինգ","ίρβινγκ","歐文","ایروینگ، تگزاس","আরভিং","アービング","ирвинг","irving"]},{"id":3461144,"name":"Ipatinga","names":{"en":"Ipatinga","pt":"Ipatinga","sv":"Ipatinga","ja":"イパチンガ","kk":"Ипатинга","ru":"Ипатинга","zh":"伊帕廷加"},"country":"BR","lat":-19.46833,"lon":-42.53667,"pop":228746,"search_terms":["イパチンガ","伊帕廷加","ipatinga","ипатинга"]},{"id":2338273,"name":"Ikire","names":{"en":"Ikire"},"country":"NG","lat":7.36983,"lon":4.1863,"pop":222160,"search_terms":["ikire"]},{"id":3655673,"name":"Ibarra","names":{"en":"Ibarra","de":"Ibarra","fr":"Ibarra","nl":"Ibarra","pl":"Ibarra","it":"Ibarra","ru":"Ибарра"},"country":"EC","lat":0.34881,"lon":-78.12462,"pop":221149,"search_terms":["ибарра","ibarra"]},{"id":3398269,"name":"Imperatriz","names":{"en":"Imperatriz","de":"Imperatriz","pl":"Imperatriz","pt":"Imperatriz","fr":"Imperatriz","it":"Imperatriz","sv":"Imperatriz","ru":"Императрис","ka":"იმპერატრისი","kk":"Императрис","zh":"因佩拉特里斯"},"country":"BR","lat":-5.52639,"lon":-47.49167,"pop":218106,"search_terms":["императрис","因佩拉特里斯","იმპერატრისი","imperatriz"]},{"id":1861436,"name":"Isesaki","names":{"en":"Isesaki","ja":"伊勢崎市","ar":"إسيساكي","fa":"ایسه‌ساکی، گونما","ko":"이세사키 시","tg":"Исесаки","th":"อิเซะซะกิ","uk":"Ісесакі","ur":"اسیساکی، گونما","ru":"Исэсаки","zh":"伊勢崎市"},"country":"JP","lat":36.31667,"lon":139.2,"pop":211850,"search_terms":["исэсаки","ایسه‌ساکی، گونما","исесаки","อิเซะซะกิ","伊勢崎","اسیساکی، گونما","إسيساكي","伊勢崎市","ісесакі","isesaki","이세사키 시"]},{"id":3460634,"name":"Itaquera","names":{"en":"Itaquera"},"country":"BR","lat":-23.53194,"lon":-46.44417,"pop":210960,"search_terms":["itaquera"]},{"id":159492,"name":"Ifakara","names":{"en":"Ifakara"},"country":"TZ","lat":-8.13333,"lon":36.68333,"pop":205843,"search_terms":["ifakara"]},{"id":3460949,"name":"Itabuna","names":{"en":"Itabuna","pl":"Itabuna","fr":"Itabuna","de":"Itabuna","pt":"Itabuna","ro":"Itabuna","sv":"Itabuna","es":"Itabuna","ru":"Итабуна","ja":"イタブーナ","ka":"იტაბუნა","kk":"Итабуна","zh":"伊塔布纳"},"country":"BR","lat":-14.78556,"lon":-39.28028,"pop":205660,"search_terms":["იტაბუნა","itabuna","イタブーナ","итабуна","伊塔布纳"]},{"id":6317317,"name":"Itaim Paulista","names":{"en":"Itaim Paulista"},"country":"BR","lat":-23.50308,"lon":-46.38566,"pop":205295,"search_terms":["itaim paulista"]},{"id":159071,"name":"Iringa","names":{"en":"Iringa","de":"Iringa","ru":"Иринга","ar":"إيرينغا","fa":"ایرینگا","ja":"イリンガ","ko":"이링가","zh":"伊林加","el":"Ιρίνγκα"},"country":"TZ","lat":-7.76667,"lon":35.7,"pop":202490,"search_terms":["إيرينغا","iringa","ایرینگا","이링가","伊林加","ιρίνγκα","イリンガ","иринга"]},{"id":3887127,"name":"Iquique","names":{"en":"Iquique","es":"Iquique","pl":"Iquique","de":"Iquique","fr":"Iquique","id":"Iquique","it":"Iquique","ja":"イキケ","pt":"Iquique","ru":"Икике","sv":"Iquique","tr":"Iquique","uk":"Ікіке","el":"Ικίκε","ka":"იკიკე","zh":"伊基克","hy":"Իկիկե","ko":"이키케"},"country":"CL","lat":-20.21326,"lon":-70.15027,"pop":199587,"search_terms":["iquique","икике","ікіке","伊基克","իկիկե","ικίκε","이키케","イキケ","იკიკე"]},{"id":1861310,"name":"Itami","names":{"en":"Itami","es":"Itami","de":"Itami","ja":"伊丹市","ko":"이타미 시","pt":"Itami","pl":"Itami","ru":"Итами","ar":"إتامي","az":"İtami","fa":"ایتامی، هیوگو","tg":"Итами","th":"อิตะมิ","uk":"Ітамі","zh":"伊丹市"},"country":"JP","lat":34.78427,"lon":135.40126,"pop":198138,"search_terms":["ایتامی، هیوگو","i̇tami","ітамі","伊丹","伊丹市","이타미 시","itami","итами","อิตะมิ","إتامي"]},{"id":745028,"name":"Izmit","names":{"en":"Izmit","it":"İzmit","fr":"Izmit","pl":"Izmit","ja":"イズミット","nl":"Izmit","tr":"İzmit","ru":"Измит"},"country":"TR","lat":40.76499,"lon":29.92928,"pop":196571,"search_terms":["nikomedia","イズミット","i̇zmit","nicomédie","izmit","nicomedia","измит"]},{"id":1843702,"name":"Icheon-si","names":{"en":"Icheon-si","ko":"이천시"},"country":"KR","lat":37.27917,"lon":127.4425,"pop":196230,"search_terms":["이천시","icheon-si","icheon","이천"]},{"id":2337207,"name":"Ise-Ekiti","names":{"en":"Ise-Ekiti"},"country":"NG","lat":7.46478,"lon":5.42333,"pop":190063,"search_terms":["ise-ekiti"]},{"id":1861107,"name":"Izumi","names":{"en":"Izumi","ja":"和泉"},"country":"JP","lat":34.48333,"lon":135.43333,"pop":184615,"search_terms":["和泉","izumi"]},{"id":11204237,"name":"Ivory Park","names":{"en":"Ivory Park"},"country":"ZA","lat":-25.9957,"lon":28.1971,"pop":184383,"search_terms":["ivory park"]},{"id":2337765,"name":"Ila Orangun","names":{"en":"Ila Orangun"},"country":"NG","lat":8.01714,"lon":4.90421,"pop":179192,"search_terms":["ila orangun"]},{"id":2646057,"name":"Ipswich","names":{"en":"Ipswich","de":"Ipswich","ar":"إبسوتش","fr":"Ipswich","id":"Ipswich","nl":"Ipswich","pl":"Ipswich","sv":"Ipswich","ka":"იფსუიჩი","ja":"イプスウィッチ","fa":"ایپسوییچ","th":"อิปสวิช","ta":"இப்ஸ்விச்","ko":"입스위치","ru":"Ипсуич","zh":"伊普斯威奇","hy":"Իպսուիչ","uk":"Іпсвіч"},"country":"GB","lat":52.05917,"lon":1.15545,"pop":178835,"search_terms":["伊普斯威奇","ipswich","입스위치","إبسوتش","イプスウィッチ","ایپسوییچ","იფსუიჩი","இப்ஸ்விச்","іпсвіч","իպսուիչ","อิปสวิช","ипсуич"]},{"id":355628,"name":"Idku","names":{"en":"Idku","ru":"Идку"},"country":"EG","lat":31.3073,"lon":30.2981,"pop":177152,"search_terms":["идку","idku"]},{"id":1861084,"name":"Izumo","names":{"en":"Izumo","ru":"Идзумо","ar":"إزومو","fa":"ایزومو","ja":"出雲市","ko":"이즈모 시","tg":"Изумо","th":"อิซุโมะ","tl":"Isumo","uk":"Ідзумо","zh":"出雲市"},"country":"JP","lat":35.36667,"lon":132.76667,"pop":172775,"search_terms":["ідзумо","izumo","出雲","出雲市","идзумо","изумо","إزومو","isumo","อิซุโมะ","이즈모 시","ایزومو"]},{"id":311073,"name":"Isparta","names":{"en":"Isparta","de":"Isparta","fr":"Isparta","pl":"Isparta","tr":"Isparta","ru":"Испарта","ar":"إسبرطة","az":"İsparta","el":"Ισπάρτα","fa":"اسپارتا","ja":"ウスパルタ","ka":"ისპარტა","kk":"Ыспарта","ko":"이스파르타","tk":"Ysparta","uk":"Испарта","zh":"伊斯帕爾塔","ur":"اسپارتا"},"country":"TR","lat":37.76444,"lon":30.55222,"pop":172334,"search_terms":["이스파르타","ysparta","ისპარტა","اسپارتا","isparta","إسبرطة","ισπάρτα","ウスパルタ","ыспарта","伊斯帕爾塔","испарта","i̇sparta"]},{"id":1926134,"name":"Imabari","names":{"en":"Imabari","ja":"今治"},"country":"JP","lat":34.07001,"lon":133.00023,"pop":170986,"search_terms":["今治","imabari"]},{"id":3461563,"name":"Ibirite","names":{"en":"Ibirite","ru":"Ибирите"},"country":"BR","lat":-20.02194,"lon":-44.05889,"pop":170537,"search_terms":["ибирите","ibirite"]},{"id":3433360,"name":"Ituzaingo","names":{"en":"Ituzaingo","es":"Ituzaingó"},"country":"AR","lat":-27.58504,"lon":-56.68707,"pop":168419,"search_terms":["ituzaingó","ituzaingo"]},{"id":2646277,"name":"Ilford","names":{"en":"Ilford","hi":"इलफ़र्ड","ru":"Илфорд","ko":"일퍼드","fa":"ایلفورد","ja":"イルフォード","zh":"伊爾福德"},"country":"GB","lat":51.55765,"lon":0.07278,"pop":168168,"search_terms":["ایلفورد","इलफ़र्ड","илфорд","ilford","伊爾福德","일퍼드","イルフォード"]},{"id":2338385,"name":"Ijero-Ekiti","names":{"en":"Ijero-Ekiti"},"country":"NG","lat":7.81514,"lon":5.06716,"pop":167632,"search_terms":["ijero-ekiti"]},{"id":1861171,"name":"Iwata","names":{"en":"Iwata","ru":"Ивата","ja":"磐田","ar":"إواتا","fa":"ایواتا، شیزوئوکا","ko":"이와타 시","tg":"Ивата","th":"อิวะตะ","uk":"Івата","zh":"磐田市","az":"İvata"},"country":"JP","lat":34.7,"lon":137.85,"pop":166672,"search_terms":["อิวะตะ","iwata","ивата","івата","磐田","磐田市","i̇vata","이와타 시","إواتا","ایواتا، شیزوئوکا"]},{"id":2337490,"name":"Inisa","names":{"en":"Inisa"},"country":"NG","lat":7.84855,"lon":4.32981,"pop":164161,"search_terms":["inisa"]},{"id":1711146,"name":"Ilagan","names":{"en":"Ilagan","ur":"الاگان","ru":"Илаган"},"country":"PH","lat":17.14854,"lon":121.88924,"pop":164020,"search_terms":["الاگان","илаган","ilagan"]},{"id":3460748,"name":"Itapecerica da Serra","names":{"en":"Itapecerica da Serra","ru":"Итапесерика-да-Серра"},"country":"BR","lat":-23.71694,"lon":-46.84917,"pop":158522,"search_terms":["итапесерика-да-серра","itapecerica da serra"]},{"id":3460728,"name":"Itapetininga","names":{"en":"Itapetininga","pt":"Itapetininga","ja":"イタペティニンガ","kk":"Итапетининга","uk":"Ітапетінінга","ru":"Итапетининга","zh":"伊塔佩蒂宁加"},"country":"BR","lat":-23.59167,"lon":-48.05306,"pop":157790,"search_terms":["итапетининга","伊塔佩蒂宁加","itapetininga","ітапетінінга","イタペティニンガ"]},{"id":3460845,"name":"Itajai","names":{"en":"Itajai","de":"Itajahy","es":"Itajaí","pt":"Itajaí","sv":"Itajaí","ru":"Итажаи","zh":"伊達賈伊"},"country":"BR","lat":-26.90778,"lon":-48.66194,"pop":155716,"search_terms":["itajahy","伊達賈伊","itajaí","итажаи","itajai"]},{"id":3461408,"name":"Ilheus","names":{"en":"Ilheus","pt":"São Jorgé dos Ilhéos","ru":"Ильеус","ja":"イリェウス","ka":"ილეუსი","kk":"Ильеус","zh":"伊列乌斯"},"country":"BR","lat":-14.79909,"lon":-39.03228,"pop":155499,"search_terms":["ilhéus","ильеус","ilheus","são jorgé dos ilhéos","イリェウス","伊列乌斯","ილეუსი"]},{"id":11962378,"name":"Iguatemi","names":{"en":"Iguatemi"},"country":"BR","lat":-23.61277,"lon":-46.42667,"pop":149700,"search_terms":["iguatemi"]},{"id":6822163,"name":"Iruma","names":{"en":"Iruma","ja":"入間市","ar":"إروما","fa":"ایروما، سایتاما","ko":"이루마 시","tg":"Ирума","uk":"Ірума","ru":"Ирума","zh":"入間市"},"country":"JP","lat":35.818,"lon":139.368,"pop":147166,"search_terms":["iruma","إروما","ірума","ایروما، سایتاما","이루마 시","ирума","入間","入間市"]},{"id":2545957,"name":"Inezgane","names":{"en":"Inezgane"},"country":"MA","lat":30.35535,"lon":-9.53639,"pop":142320,"search_terms":["inezgane"]},{"id":130802,"name":"Ilam","names":{"en":"Ilam","fa":"ایلام","ru":"Илам"},"country":"IR","lat":33.6374,"lon":46.4227,"pop":140940,"search_terms":["īlām","يلام","اِلام","илам","ilam","ایلام"]},{"id":2112576,"name":"Ishinomaki","names":{"en":"Ishinomaki","fr":"Ishinomaki","it":"Ishinomaki","ja":"石巻市","ko":"이시노마키 시","pt":"Ishinomaki","ar":"إيشينوماكي","fa":"ایشینوماکی، میاگی","tg":"Ишиномаки","th":"อิชิโนะมะกิ","tl":"Isyinomaki","uk":"Ісіномакі","ru":"Исиномаки","zh":"石卷市"},"country":"JP","lat":38.41667,"lon":141.3,"pop":140151,"search_terms":["ایشینوماکی، میاگی","исиномаки","อิชิโนะมะกิ","isyinomaki","石卷市","ishinomaki","ишиномаки","石巻","ісіномакі","石巻市","إيشينوماكي","이시노마키 시"]},{"id":2337313,"name":"Irewe","names":{"en":"Irewe"},"country":"NG","lat":6.41692,"lon":3.14058,"pop":139494,"search_terms":["irewe"]},{"id":3460535,"name":"Itu","names":{"en":"Itu","pt":"Itu","ja":"イトゥー","kk":"Иту","uk":"Іту","ru":"Иту","zh":"伊图","ko":"이투"},"country":"BR","lat":-23.26417,"lon":-47.29917,"pop":137586,"search_terms":["іту","иту","伊图","이투","イトゥー","itu"]},{"id":261745,"name":"Irakleion","names":{"en":"Irakleion","de":"Iraklio","es":"Heraklion","cs":"Herákleion","el":"Ηράκλειο","fr":"Héraklion","id":"Heraklion","it":"Iraklio","ja":"イラクリオン","nl":"Iraklion","pl":"Iraklion","pt":"Iráclio","ro":"Heraklion","sv":"Heraklion","tr":"Kandiye","ru":"Ираклион"},"country":"GR","lat":35.32787,"lon":25.14341,"pop":137154,"search_terms":["kandiye","iraklio","heraklion","イラクリオン","candia","irakleion","héraklion","heraclión","heraclião","ираклион","iráclio","ηράκλειο","ηράκλειο κρήτης","iraklion","herákleion"]},{"id":2338711,"name":"Igboho","names":{"en":"Igboho"},"country":"NG","lat":8.83784,"lon":3.75628,"pop":136764,"search_terms":["igboho"]},{"id":1861464,"name":"Isahaya","names":{"en":"Isahaya","fr":"Isahaya","ja":"諫早","pt":"Isahaya","ar":"إيساهايا","fa":"ایساهایا، ناگازاکی","ko":"이사하야 시","tg":"Исаҳая","uk":"Ісахая","ru":"Исахая","zh":"諫早市"},"country":"JP","lat":32.84111,"lon":130.04306,"pop":135546,"search_terms":["isahaya","諫早市","إيساهايا","諫早","이사하야 시","諌早","ایساهایا، ناگازاکی","исаҳая","諌早市","исахая","ісахая"]},{"id":1861602,"name":"Inazawa","names":{"en":"Inazawa","ar":"إنازاوا","fa":"اینازاوا، آیچی","ja":"稲沢市","kk":"Инадзава","ko":"이나자와 시","tg":"Иназава","uk":"Інадзава","ur":"انازاوا، ایچی","ru":"Инадзава","zh":"稻澤市"},"country":"JP","lat":35.25,"lon":136.78333,"pop":134751,"search_terms":["稲沢市","اینازاوا، آیچی","이나자와 시","інадзава","إنازاوا","稻澤市","иназава","انازاوا، ایچی","inazawa","инадзава","稲沢"]},{"id":2338269,"name":"Ikirun","names":{"en":"Ikirun"},"country":"NG","lat":7.91283,"lon":4.66741,"pop":134240,"search_terms":["ikirun"]},{"id":745169,"name":"Inegol","names":{"en":"Inegol","de":"İnegöl","tr":"İnegöl","pl":"İnegöl"},"country":"TR","lat":40.07806,"lon":29.51333,"pop":133959,"search_terms":["i̇negöl","inegol"]},{"id":2775220,"name":"Innsbruck","names":{"en":"Innsbruck","de":"Innsbruck","es":"Innsbruck","fr":"Innsbruck","it":"Innsbruck","ja":"インスブルック","nl":"Innsbruck","pl":"Innsbruck","pt":"Innsbruck","ro":"Innsbruck","ru":"Инсбрук","sv":"Innsbruck","tr":"İnnsbruck","cs":"Innsbruck","id":"Innsbruck","hy":"Ինսբրուք","az":"İnsbruk","bn":"ইন্সব্রুক","ka":"ინსბრუკი","th":"อินส์บรุค","el":"Ίνσμπρουκ","ko":"인스브루크","ar":"إنسبروك","uk":"Інсбрук","mr":"इन्सब्रुक","fa":"اینسبروک","zh":"因斯布鲁克"},"country":"AT","lat":47.26266,"lon":11.39454,"pop":132493,"search_terms":["інсбрук","インスブルック","इन्सब्रुक","инсбрук","innsbruck","因斯布鲁克","i̇nnsbruck","i̇nsbruk","อินส์บรุค","ίνσμπρουκ","인스브루크","إنسبروك","ინსბრუკი","ինսբրուք","اینسبروک","ইন্সব্রুক"]},{"id":1160939,"name":"Iranshahr","names":{"en":"Iranshahr","fa":"ايرانشهر"},"country":"IR","lat":27.20245,"lon":60.68476,"pop":131232,"search_terms":["iranshahr","ايرانشهر"]},{"id":3397909,"name":"Itapipoca","names":{"en":"Itapipoca","ru":"Итапипока"},"country":"BR","lat":-3.49444,"lon":-39.57861,"pop":131123,"search_terms":["itapipoca","итапипока"]},{"id":1861212,"name":"Iwakuni","names":{"en":"Iwakuni","ru":"Ивакуни","ar":"إواكوني","fa":"ایواکونی، یاماگوچی","ja":"岩国市","ka":"ივაკუნი","ko":"이와쿠니 시","tg":"Ивакуни","uk":"Івакуні","zh":"岩國市"},"country":"JP","lat":34.16297,"lon":132.22,"pop":129125,"search_terms":["岩国市","iwakuni","ایواکونی، یاماگوچی","ивакуни","إواكوني","ივაკუნი","岩国","івакуні","岩國市","이와쿠니 시"]},{"id":169389,"name":"Idlib","names":{"en":"Idlib","de":"Idlib","ar":"إدلب","pl":"Idlib","fr":"Idlib","ru":"Идлиб","az":"İdlib","fa":"ادلب","hi":"इदलिब","hy":"Իդլիբ","ja":"イドリブ","ko":"이들리브","tr":"İdlip","uk":"Ідліб","ur":"ادلب","zh":"伊德利卜","ku":"Îdlîb","el":"Ιντλίμπ"},"country":"SY","lat":35.93062,"lon":36.63393,"pop":128840,"search_terms":["イドリブ","ادلب","i̇dlip","idlib","ιντλίμπ","идлиб","իդլիբ","ідліб","إدلب","이들리브","伊德利卜","इदलिब","i̇dlib","îdlîb"]},{"id":555129,"name":"Ivanovskoye","names":{"en":"Ivanovskoye","ru":"Ивановское"},"country":"RU","lat":55.76667,"lon":37.83333,"pop":128000,"search_terms":["ивановское","ivanovskoye"]},{"id":1861835,"name":"Iizuka","names":{"en":"Iizuka","ru":"Иидзука","ja":"飯塚","ar":"ليزوكا","fa":"ایزوکا، فوکوئوکا","ko":"이즈카 시","tg":"Иизука","tl":"Iisuka","uk":"Іїдзука","zh":"飯塚市"},"country":"JP","lat":33.63654,"lon":130.68678,"pop":126364,"search_terms":["ليزوكا","иидзука","ایزوکا، فوکوئوکا","iisuka","іїдзука","이즈카 시","飯塚市","иизука","飯塚","iizuka"]},{"id":3460899,"name":"Itaguai","names":{"en":"Itaguai","kk":"Итагуаи","ru":"Итагуаи","zh":"伊塔瓜伊"},"country":"BR","lat":-22.85222,"lon":-43.77528,"pop":123980,"search_terms":["итагуаи","伊塔瓜伊","itaguai"]},{"id":1861450,"name":"Ise","names":{"en":"Ise","ru":"Исэ","uk":"Ісе","ka":"ისე","ko":"이세 시","ar":"إيسه","fa":"ایسه، میه","tg":"Исе","ja":"伊勢市","zh":"伊勢市"},"country":"JP","lat":34.48333,"lon":136.7,"pop":123533,"search_terms":["ісе","ისე","исе","ise","إيسه","исэ","伊勢","ایسه، میه","伊勢市","이세 시"]},{"id":3397967,"name":"Itaituba","names":{"en":"Itaituba","pt":"Itaituba"},"country":"BR","lat":-4.27611,"lon":-55.98361,"pop":123314,"search_terms":["itaituba"]},{"id":1643078,"name":"Indramayu","names":{"en":"Indramayu","id":"Indramayu"},"country":"ID","lat":-6.32639,"lon":108.32,"pop":123263,"search_terms":["indramayu"]},{"id":3460598,"name":"Itatiba","names":{"en":"Itatiba"},"country":"BR","lat":-23.00583,"lon":-46.83889,"pop":122581,"search_terms":["itatiba"]},{"id":3398352,"name":"Igarassu","names":{"en":"Igarassu","kk":"Игарасу","ru":"Игарасу","zh":"伊加拉苏"},"country":"BR","lat":-7.83417,"lon":-34.90639,"pop":122312,"search_terms":["igarassu","伊加拉苏","игарасу"]},{"id":1861749,"name":"Ikoma","names":{"en":"Ikoma","ru":"Икома","ja":"生駒","ar":"إكوما","fa":"ایکوما، نارا","ko":"이코마 시","tg":"Икома","th":"อิโกะมะ","uk":"Ікома","zh":"生駒市"},"country":"JP","lat":34.68333,"lon":135.7,"pop":120741,"search_terms":["ایکوما، نارا","إكوما","ikoma","生駒","이코마 시","อิโกะมะ","икома","生駒市","ікома"]},{"id":2895992,"name":"Ingolstadt","names":{"en":"Ingolstadt","de":"Ingolstadt","es":"Ingolstadt","fr":"Ingolstadt","it":"Ingolstadt","ja":"インゴルシュタット","nl":"Ingolstadt","pl":"Ingolstadt","pt":"Ingolstadt","sv":"Ingolstadt","cs":"Ingolstadt","ro":"Ingolstadt","ru":"Ингольштадт"},"country":"DE","lat":48.76508,"lon":11.42372,"pop":120658,"search_terms":["ингольштадт","ingolstadt","インゴルシュタット"]},{"id":8469668,"name":"International City","names":{"en":"International City"},"country":"AE","lat":25.16383,"lon":55.40987,"pop":120000,"search_terms":["international city","dubai international city"]},{"id":130697,"name":"Izeh","names":{"en":"Izeh","fa":"Īz̄eh"},"country":"IR","lat":31.83027,"lon":49.86756,"pop":119399,"search_terms":["izeh","ایذه","īz̄eh"]},{"id":3526798,"name":"Iguala de la Independencia","names":{"en":"Iguala de la Independencia","fa":"ایگوالا","ru":"Игуала-де-ла-Индепенденсия","zh":"伊瓜拉自治市"},"country":"MX","lat":18.34536,"lon":-99.5413,"pop":118468,"search_terms":["ایگوالا","игуала-де-ла-индепенденсия","伊瓜拉自治市","iguala de la independencia"]},{"id":2337659,"name":"Ilobu","names":{"en":"Ilobu"},"country":"NG","lat":7.83879,"lon":4.48672,"pop":118089,"search_terms":["ilobu"]},{"id":233299,"name":"Ibanda","names":{"en":"Ibanda"},"country":"UG","lat":-0.13398,"lon":30.49616,"pop":117700,"search_terms":["ibanda"]},{"id":4391812,"name":"Independence","names":{"en":"Independence","nl":"Independence","pl":"Independence","sv":"Independence","de":"Independence","ja":"インディペンデンス","fr":"Independence","ko":"인디펜던스","ar":"إنديبندنس","kk":"Индэпенденс","fa":"ایندیپندنس، میزوری","ru":"Индепенденс","zh":"独立城","ky":"Индэпенденс","uk":"Індепенденс","ur":"انڈیپینڈینس، مسوری","tt":"Индепенденс","hi":"इंडिपेंडेंस","pt":"Independence","hy":"Ինդենպենդենս","id":"Independence","mr":"इंडिपेंडंन्स","uz":"Independence","ms":"Independence","el":"Ιντιπέντενς","it":"Independence","es":"Independence","vi":"Independence","az":"İndependens","bn":"ইন্ডিপেন্ডেন্স","sw":"Independence","ta":"இண்டிபெண்டென்ஸ்","cs":"Independence","te":"ఇండిపెండెన్స్","tg":"Индепенденс","th":"อินดิเพนเดนซ์","tl":"Independence","tr":"Independence"},"country":"US","lat":39.09112,"lon":-94.41551,"pop":117255,"search_terms":["ինդենպենդենս","انڈیپینڈینس، مسوری","独立城","インディペンデンス","i̇ndependens","إنديبندنس","इंडिपेंडंन्स","индепенденс","индэпенденс","ایندیپندنس، میزوری","इंडिपेंडेंस","இண்டிபெண்டென்ஸ்","independence","อินดิเพนเดนซ์","인디펜던스","ఇండిపెండెన్స్","ιντιπέντενς","індепенденс","ইন্ডিপেন্ডেন্স"]},{"id":215976,"name":"Ilebo","names":{"en":"Ilebo","ru":"Илебо"},"country":"CD","lat":-4.33111,"lon":20.58638,"pop":117245,"search_terms":["ilebo","илебо"]},{"id":3461109,"name":"Ipiranga","names":{"en":"Ipiranga"},"country":"BR","lat":-23.59957,"lon":-46.61599,"pop":116271,"search_terms":["ipiranga"]},{"id":2315419,"name":"Inkisi","names":{"en":"Inkisi"},"country":"CD","lat":-5.13122,"lon":15.0541,"pop":115317,"search_terms":["inkisi"]},{"id":1710544,"name":"Iriga City","names":{"en":"Iriga City"},"country":"PH","lat":13.4324,"lon":123.4115,"pop":115306,"search_terms":["iriga city"]},{"id":2112656,"name":"Ichinoseki","names":{"en":"Ichinoseki","ar":"إتشينوسيكي","fa":"ایچینوسکی، ایواته","ja":"一関市","ko":"이치노세키 시","tg":"Ичиносеки","uk":"Ітіносекі","ru":"Итиносеки","zh":"一关市"},"country":"JP","lat":38.91667,"lon":141.13333,"pop":114476,"search_terms":["ichinoseki","إتشينوسيكي","итиносеки","一关市","ичиносеки","一関","ітіносекі","一関市","ایچینوسکی، ایواته","이치노세키 시"]},{"id":3460960,"name":"Itabira","names":{"en":"Itabira","ru":"Итабира","kk":"Итабира","zh":"伊塔比拉"},"country":"BR","lat":-19.61917,"lon":-43.22694,"pop":113343,"search_terms":["伊塔比拉","itabira","итабира"]},{"id":3397893,"name":"Itacoatiara","names":{"en":"Itacoatiara"},"country":"BR","lat":-3.14306,"lon":-58.44417,"pop":112520,"search_terms":["itacoatiara"]},{"id":5359488,"name":"Inglewood","names":{"en":"Inglewood","de":"Inglewood","fr":"Inglewood","nl":"Inglewood","sv":"Inglewood","ja":"イングルウッド","ar":"إنغليووود","ko":"잉글우드","fa":"اینگل وود، کالیفرنیا","ru":"Инглвуд","zh":"英格爾伍德","hy":"Ինգլվուդ","uk":"Інґлвуд","ur":"انگلووڈ، کیلیفورنیا","tt":"Иңглвуд","hi":"इंगलवुड","pt":"Inglewood","id":"Inglewood","uz":"Inglewood","mr":"इंजलवुड","ms":"Inglewood","el":"Ίνγκλγουντ","it":"Inglewood","es":"Inglewood","vi":"Inglewood","az":"İnqlvud","ro":"Inglewood","bn":"ইঙ্গেলউড","sw":"Inglewood","ta":"இஞ்லிவுட்","cs":"Inglewood","te":"ఇంగిల్వుడ్","th":"อินเกิลวูด","tl":"Inglewood","pl":"Inglewood","tr":"Inglewood"},"country":"US","lat":33.96168,"lon":-118.35313,"pop":111666,"search_terms":["इंजलवुड","i̇nqlvud","иңглвуд","инглвуд","英格爾伍德","잉글우드","ίνγκλγουντ","イングルウッド","ఇంగిల్వుడ్","ինգլվուդ","inglewood","อินเกิลวูด","إنغليووود","இஞ்லிவுட்","اینگل وود، کالیفرنیا","інґлвуд","انگلووڈ، کیلیفورنیا","इंगलवुड","ইঙ্গেলউড"]},{"id":2338403,"name":"Ijebu-Igbo","names":{"en":"Ijebu-Igbo"},"country":"NG","lat":6.97198,"lon":3.99938,"pop":109261,"search_terms":["ijebu-igbo"]},{"id":1861164,"name":"Iwatsuki","names":{"en":"Iwatsuki","ja":"岩槻"},"country":"JP","lat":35.96474,"lon":139.69644,"pop":108833,"search_terms":["いわつき","イワツキ","岩槻","iwatsuki"]},{"id":3460733,"name":"Itaperuna","names":{"en":"Itaperuna","kk":"Итаперуна","th":"อีตาปิรูนา","ru":"Итаперуна","zh":"伊塔佩鲁纳"},"country":"BR","lat":-21.205,"lon":-41.88778,"pop":107246,"search_terms":["итаперуна","伊塔佩鲁纳","อีตาปิรูนา","itaperuna"]},{"id":3398115,"name":"Ipojuca","names":{"en":"Ipojuca","ru":"Ипожука"},"country":"BR","lat":-8.39889,"lon":-35.06389,"pop":105638,"search_terms":["ипожука","ipojuca"]},{"id":6822179,"name":"Inzai","names":{"en":"Inzai","ja":"印西","ar":"إنزاي","fa":"اینزای، چیبا","ko":"인자이 시","tg":"Инзаи","th":"อินไซ","uk":"Індзай","ru":"Индзай","zh":"印西市","ur":"انزائی، چیبا"},"country":"JP","lat":35.83479,"lon":140.16361,"pop":105463,"search_terms":["印西","انزائی، چیبا","инзаи","inzai","인자이 시","индзай","اینزای، چیبا","إنزاي","อินไซ","印西市","індзай"]},{"id":1861795,"name":"Ikeda","names":{"en":"Ikeda","ru":"Икеда","ja":"池田市"},"country":"JP","lat":34.82208,"lon":135.4298,"pop":104993,"search_terms":["икеда","池田市","池田","ikeda"]},{"id":554787,"name":"Izmaylovo","names":{"en":"Izmaylovo","ru":"Измайлово"},"country":"RU","lat":55.78677,"lon":37.80165,"pop":104000,"search_terms":["измайлово","izmaylovo"]},{"id":3460974,"name":"Itabaiana","names":{"en":"Itabaiana"},"country":"BR","lat":-10.685,"lon":-37.42528,"pop":103440,"search_terms":["itabaiana"]},{"id":1861449,"name":"Isehara","names":{"en":"Isehara","ja":"伊勢原"},"country":"JP","lat":35.39932,"lon":139.31019,"pop":103401,"search_terms":["伊勢原","isehara"]},{"id":3460791,"name":"Itanhaem","names":{"en":"Itanhaem","kk":"Итаньяэн","ru":"Итаньяэн","zh":"伊塔尼亚恩"},"country":"BR","lat":-24.18306,"lon":-46.78889,"pop":103102,"search_terms":["itanhaem","伊塔尼亚恩","итаньяэн"]},{"id":2338287,"name":"Ikere-Ekiti","names":{"en":"Ikere-Ekiti"},"country":"NG","lat":7.49748,"lon":5.23041,"pop":103054,"search_terms":["ikere-ekiti"]},{"id":3460523,"name":"Ituiutaba","names":{"en":"Ituiutaba","pt":"Ituiutaba","ru":"Итиютаба","kk":"Итиютаба","zh":"伊图尤塔巴"},"country":"BR","lat":-18.97428,"lon":-49.46212,"pop":102217,"search_terms":["итиютаба","ituiutaba","伊图尤塔巴"]},{"id":311665,"name":"Igdir","names":{"en":"Igdir","fr":"Iğdır","pl":"Iğdır","de":"Iğdır","ku":"Îdir","tr":"Iğdır","ru":"Игдир","ar":"اغدير","az":"İğdır","fa":"ایغدیر","hy":"Ցոլակերտ","ja":"ウードゥル","ka":"იგდირი","ko":"이디르","uk":"Игдир","zh":"厄德尔"},"country":"TR","lat":39.92371,"lon":44.045,"pop":101700,"search_terms":["i̇ğdır","ウードゥル","îdir","igdir","игдир","ایغدیر","იგდირი","ցոլակերտ","iğdır","厄德尔","이디르","ыгдыр","اغدير"]},{"id":1861864,"name":"Iida","names":{"en":"Iida","ru":"Иида","ar":"إييدا","fa":"ایدا، ناگانو","hy":"Իիդա","ja":"飯田市","ko":"이다 시","tg":"Иида","th":"อีดะ","uk":"Іїда","zh":"飯田市"},"country":"JP","lat":35.51965,"lon":137.82074,"pop":101536,"search_terms":["իիդա","อีดะ","飯田市","іїда","飯田","ایدا، ناگانو","iida","иида","이다 시","إييدا"]},{"id":1710470,"name":"Isulan","names":{"en":"Isulan","ur":"اسولان، سلطان قدرت"},"country":"PH","lat":6.62944,"lon":124.605,"pop":101455,"search_terms":["اسولان، سلطان قدرت","isulan"]},{"id":10173001,"name":"Itaim Bibi","names":{"en":"Itaim Bibi"},"country":"BR","lat":-23.58581,"lon":-46.68241,"pop":101452,"search_terms":["itaim bibi"]},{"id":1769014,"name":"Ijok","names":{"en":"Ijok"},"country":"MY","lat":3.31667,"lon":101.4,"pop":100899,"search_terms":["ijok"]},{"id":1269653,"name":"Itarsi","names":{"en":"Itarsi"},"country":"IN","lat":22.61477,"lon":77.76222,"pop":100574,"search_terms":["itarsi"]},{"id":1861091,"name":"Izumisano","names":{"en":"Izumisano","ru":"Идзумисано"},"country":"JP","lat":34.41667,"lon":135.31667,"pop":100131,"search_terms":["izumisano","идзумисано"]},{"id":334227,"name":"Inda Silase","names":{"en":"Inda Silase"},"country":"ET","lat":14.10307,"lon":38.28289,"pop":100100,"search_terms":["inda silase"]},{"id":11612341,"name":"Itoshima","names":{"en":"Itoshima","ja":"糸島"},"country":"JP","lat":33.54225,"lon":130.18421,"pop":98877,"search_terms":["糸島","itoshima"]},{"id":3398331,"name":"Iguatu","names":{"en":"Iguatu"},"country":"BR","lat":-6.35944,"lon":-39.29861,"pop":98064,"search_terms":["iguatu"]},{"id":2895669,"name":"Iserlohn","names":{"en":"Iserlohn","de":"Iserlohn","es":"Iserlohn","fr":"Iserlohn","it":"Iserlohn","nl":"Iserlohn","pl":"Iserlohn","pt":"Iserlohn","sv":"Iserlohn","ru":"Изерлон","ja":"イーザーローン","ko":"이절론","fa":"ایزلون","kk":"Изерлон","zh":"伊瑟隆","ar":"إزرلون","uk":"Ізерлон"},"country":"DE","lat":51.37547,"lon":7.70281,"pop":97910,"search_terms":["iserlohn","이절론","إزرلون","изерлон","ізерлон","イーザーローン","ایزلون","伊瑟隆"]},{"id":3460584,"name":"Itauna","names":{"en":"Itauna","hy":"Իտաունա","kk":"Итауна","ru":"Итауна","zh":"伊塔乌纳"},"country":"BR","lat":-20.07528,"lon":-44.57639,"pop":97669,"search_terms":["伊塔乌纳","итауна","itauna","իտաունա"]},{"id":1045114,"name":"Inhambane","names":{"en":"Inhambane","de":"Inhambane","es":"Inhambane","pt":"Inhambane","ru":"Иньямбане","fa":"اینهامبانه","ja":"イニャンバネ市","ka":"ინიამბანე","ko":"이냠바느","uk":"Іньямбане","ur":"انہامبان","zh":"伊尼揚巴內"},"country":"MZ","lat":-23.865,"lon":35.38333,"pop":95388,"search_terms":["иньямбане","伊尼揚巴內","이냠바느","inhambane","اینهامبانه","انہامبان","іньямбане","ინიამბანე","イニャンバネ市"]},{"id":11612578,"name":"Inagi","names":{"en":"Inagi","ja":"稲城"},"country":"JP","lat":35.63295,"lon":139.49967,"pop":93151,"search_terms":["inagi","稲城"]},{"id":3460834,"name":"Itajuba","names":{"en":"Itajuba","kk":"Итажуба","uk":"Ітажуба","ru":"Итажуба","zh":"伊塔茹巴"},"country":"BR","lat":-22.42556,"lon":-45.45278,"pop":93073,"search_terms":["ітажуба","itajuba","итажуба","伊塔茹巴"]},{"id":2338669,"name":"Igbo-Ora","names":{"en":"Igbo-Ora"},"country":"NG","lat":7.43383,"lon":3.28788,"pop":92719,"search_terms":["igbo-ora"]},{"id":6822125,"name":"Imizu","names":{"en":"Imizu","ja":"射水町"},"country":"JP","lat":36.76835,"lon":137.12572,"pop":90742,"search_terms":["いみずちょう","射水町","imizu","射水"]},{"id":2337148,"name":"Isieke","names":{"en":"Isieke"},"country":"NG","lat":6.38186,"lon":8.03736,"pop":89990,"search_terms":["isieke"]},{"id":3460723,"name":"Itapeva","names":{"en":"Itapeva"},"country":"BR","lat":-23.98222,"lon":-48.87556,"pop":89728,"search_terms":["itapeva"]},{"id":11468270,"name":"Iga","names":{"en":"Iga","ja":"伊賀市"},"country":"JP","lat":34.75797,"lon":136.13468,"pop":88895,"search_terms":["伊賀市","伊賀","iga"]},{"id":2338876,"name":"Ifo","names":{"en":"Ifo"},"country":"NG","lat":6.81491,"lon":3.19518,"pop":88272,"search_terms":["ifo"]},{"id":2315579,"name":"Idiofa","names":{"en":"Idiofa"},"country":"CD","lat":-4.96589,"lon":19.59151,"pop":87882,"search_terms":["idiofa"]},{"id":5359446,"name":"Indio","names":{"en":"Indio","de":"Indio","fr":"Indio","ja":"インディオ","ko":"인디오","ar":"إنديو","fa":"ایندیو، کالیفرنیا","ru":"Индио","zh":"印第奥","uk":"Індіо"},"country":"US","lat":33.7207,"lon":-116.21677,"pop":87533,"search_terms":["ایندیو، کالیفرنیا","印第奥","indio","індіо","индио","إنديو","インディオ","인디오"]},{"id":2338630,"name":"Igede-Ekiti","names":{"en":"Igede-Ekiti"},"country":"NG","lat":7.6685,"lon":5.12627,"pop":87282,"search_terms":["igede-ekiti"]},{"id":2795011,"name":"Ixelles","names":{"en":"Ixelles","es":"Ixelles","de":"Ixelles/Elsene","it":"Ixelles","ro":"Elsene","id":"Ixelles-Elsene","sv":"Ixelles-Elsene","uk":"Іксель","fa":"ایکسل","ru":"Иксель","zh":"伊克塞尔","ja":"イクセル","ar":"إيكسل","ko":"익셀","fr":"Ixelles","nl":"Elsene"},"country":"BE","lat":50.83333,"lon":4.36667,"pop":86671,"search_terms":["伊克塞尔","иксель","elsene","إيكسل","іксель","イクセル","ixelles-elsene","ixelles","ixelles/elsene","익셀","ایکسل"]},{"id":2339150,"name":"Idanre","names":{"en":"Idanre"},"country":"NG","lat":7.1127,"lon":5.1159,"pop":86468,"search_terms":["idanre"]},{"id":355648,"name":"Ibshaway","names":{"en":"Ibshaway","ar":"إبشواي"},"country":"EG","lat":29.35896,"lon":30.68061,"pop":86186,"search_terms":["ibshaway","إبشواي"]},{"id":2129870,"name":"Iwamizawa","names":{"en":"Iwamizawa","ja":"岩見沢","ar":"إيواميزاوا","az":"İvamizava","fa":"ایوامیزاوا، هوکایدو","ko":"이와미자와 시","tg":"Иуамизава","uk":"Івамідзава","ru":"Ивамидзава","zh":"岩見澤市"},"country":"JP","lat":43.20028,"lon":141.75972,"pop":85107,"search_terms":["iwamizawa","иуамизава","ивамидзава","i̇vamizava","岩見沢","івамідзава","岩見澤市","いわみざわ","イワミザワ","ｲﾜﾐｻﾞﾜ","岩見沢市","إيواميزاوا","이와미자와 시","ایوامیزاوا، هوکایدو"]},{"id":256601,"name":"Ilion","names":{"en":"Ilion","ro":"Ilion","el":"Ίλιον"},"country":"GR","lat":38.03333,"lon":23.7,"pop":84793,"search_terms":["ilion","nea liosia","ίλιον"]},{"id":3461444,"name":"Ijui","names":{"en":"Ijui","kk":"Ижуи","ru":"Ижуи","zh":"伊茹伊"},"country":"BR","lat":-28.38778,"lon":-53.91472,"pop":84780,"search_terms":["ijui","ижуи","伊茹伊"]},{"id":11461652,"name":"Idaiyarpalaiyam","names":{"en":"Idaiyarpalaiyam"},"country":"IN","lat":11.03937,"lon":76.92369,"pop":83908,"search_terms":["idaiyarpalaiyam"]},{"id":2338497,"name":"Ihiala","names":{"en":"Ihiala","pl":"Ihiala"},"country":"NG","lat":5.85475,"lon":6.85944,"pop":83265,"search_terms":["ihiala"]},{"id":2337352,"name":"Ipoti","names":{"en":"Ipoti"},"country":"NG","lat":7.87377,"lon":5.07691,"pop":82113,"search_terms":["ipoti"]},{"id":1185207,"name":"Ishwardi","names":{"en":"Ishwardi"},"country":"BD","lat":24.12858,"lon":89.06573,"pop":81995,"search_terms":["ishwardi"]},{"id":3460522,"name":"Itumbiara","names":{"en":"Itumbiara","id":"Itumbiara","pt":"Itumbiara","ja":"イツンビアラ","kk":"Итумбиара","ru":"Итумбиара","zh":"伊通比亚拉"},"country":"BR","lat":-18.41917,"lon":-49.21528,"pop":79582,"search_terms":["итумбиара","イツンビアラ","itumbiara","伊通比亚拉"]},{"id":2338242,"name":"Ikom","names":{"en":"Ikom"},"country":"NG","lat":5.96669,"lon":8.70632,"pop":79103,"search_terms":["ikom"]},{"id":196231,"name":"Isiolo","names":{"en":"Isiolo","ru":"Исиоло"},"country":"KE","lat":0.35462,"lon":37.58218,"pop":78650,"search_terms":["isiolo","исиоло"]},{"id":8310138,"name":"Ilioupoli","names":{"en":"Ilioupoli","el":"Ηλιούπολη"},"country":"GR","lat":37.93149,"lon":23.76779,"pop":78153,"search_terms":["ηλιούπολη","ilioupoli"]},{"id":3680539,"name":"Ipiales","names":{"en":"Ipiales","es":"Ipiales","de":"Ipiales","ru":"Ипьялес","zh":"伊皮亞萊斯"},"country":"CO","lat":0.82501,"lon":-77.63966,"pop":77729,"search_terms":["ipiales","伊皮亞萊斯","ипьялес"]},{"id":355417,"name":"Itay al Barud","names":{"en":"Itay al Barud","ar":"إيتاي البارود"},"country":"EG","lat":30.88697,"lon":30.66724,"pop":77606,"search_terms":["itay al barud","إيتاي البارود"]},{"id":3097872,"name":"Inowroclaw","names":{"en":"Inowroclaw","pl":"Inowrocław","de":"Inowrocław","fr":"Inowrocław","id":"Inowrocław","it":"Inowrocław","nl":"Inowrocław","ro":"Inowrocław","sv":"Inowrocław","ja":"イノヴロツワフ","uk":"Іновроцлав","ru":"Иновроцлав","zh":"伊诺弗罗茨瓦夫","th":"อีนอวรอตสวัฟ","tt":"Иновроцлав"},"country":"PL","lat":52.79886,"lon":18.26387,"pop":77597,"search_terms":["イノヴロツワフ","伊诺弗罗茨瓦夫","อีนอวรอตสวัฟ","inowrocław","иновроцлав","іновроцлав","inowroclaw"]},{"id":3460740,"name":"Itapema","names":{"en":"Itapema","ru":"Итапема"},"country":"BR","lat":-27.09028,"lon":-48.61139,"pop":75940,"search_terms":["итапема","itapema"]},{"id":3461528,"name":"Ibiuna","names":{"en":"Ibiuna"},"country":"BR","lat":-23.65639,"lon":-47.2225,"pop":75605,"search_terms":["ibiuna"]},{"id":2338640,"name":"Igbo-Ukwu","names":{"en":"Igbo-Ukwu","fr":"Igbo-Ukwu","de":"Igbo-Ukwu","ru":"Игбо-Укву","pt":"Igbo Ukwu","it":"Igbo-Ukwu","es":"Igbo-Ukwu","ja":"イボ＝ウクゥ","tl":"Igbo-Ukwu","ha":"Igbo-Ukwu","id":"Igbo-Ukwu","pl":"Igbo Ukwu","nl":"Igbo-Ukwu","tr":"İgbo-Ukwu"},"country":"NG","lat":6.01798,"lon":7.02027,"pop":75224,"search_terms":["i̇gbo-ukwu","igbo ukwu","igbo-ukwu","イボ＝ウクゥ","игбо-укву"]},{"id":3461013,"name":"Irece","names":{"en":"Irece"},"country":"BR","lat":-11.30417,"lon":-41.85583,"pop":74507,"search_terms":["irece"]},{"id":1861095,"name":"Izumiotsu","names":{"en":"Izumiotsu","ru":"Идзумотсу","ja":"泉大津"},"country":"JP","lat":34.5,"lon":135.4,"pop":74412,"search_terms":["идзумотсу","泉大津","izumiotsu"]},{"id":355420,"name":"Itsa","names":{"en":"Itsa"},"country":"EG","lat":29.2376,"lon":30.78944,"pop":74357,"search_terms":["itsa"]},{"id":4862034,"name":"Iowa City","names":{"en":"Iowa City","pl":"Iowa City","fr":"Iowa City","de":"Iowa City","ar":"آيوا سيتي","fa":"آیووا سیتی، آیووا","hi":"आइओवा नगर","hy":"Այովա Սիթի","ja":"アイオワシティ","kk":"Лова Сити","ko":"아이오와시티","mr":"आयोवा सिटी","uk":"Айова-Сіті","ru":"Айова-Сити","zh":"艾奥瓦城","ur":"آئیووا سٹی، آئیووا"},"country":"US","lat":41.66113,"lon":-91.53017,"pop":74220,"search_terms":["アイオワシティ","آيوا سيتي","艾奥瓦城","아이오와시티","այովա սիթի","айова-сіті","айова-сити","лова сити","आयोवा सिटी","iowa city","آئیووا سٹی، آئیووا","आइओवा नगर","آیووا سیتی، آیووا"]},{"id":2338810,"name":"Igbara-Odo","names":{"en":"Igbara-Odo"},"country":"NG","lat":7.50251,"lon":5.06258,"pop":74121,"search_terms":["igbara-odo"]},{"id":1064121,"name":"Imerintsiatosika","names":{"en":"Imerintsiatosika"},"country":"MG","lat":-18.98333,"lon":47.31667,"pop":74085,"search_terms":["imerintsiatosika"]},{"id":1861528,"name":"Inuyama","names":{"en":"Inuyama","de":"Inuyama","fr":"Inuyama","ja":"犬山市","pt":"Inuyama","zh":"犬山市","ru":"Инуяма","ar":"إنوياما، آيتشي","fa":"اینویاما، آیچی","kk":"Инуяма","ko":"이누야마 시","tg":"Инуяма","th":"อินุยะมะ","uk":"Інуяма"},"country":"JP","lat":35.37995,"lon":136.94295,"pop":73995,"search_terms":["이누야마 시","inuyama","อินุยะมะ","إنوياما، آيتشي","اینویاما، آیچی","инуяма","інуяма","犬山","犬山市"]},{"id":2546917,"name":"Ifrane","names":{"en":"Ifrane","ru":"Ифран","ar":"إفران","fa":"افران","ko":"이프란","zh":"伊夫兰","ur":"افران"},"country":"MA","lat":33.52666,"lon":-5.11019,"pop":73782,"search_terms":["إفران","伊夫兰","ifrane","ифран","افران","이프란"]},{"id":2112571,"name":"Ishioka","names":{"en":"Ishioka","ru":"Исиока","ar":"إيشيوكا","fa":"ایشی‌اوکا، ایباراکی","ja":"石岡市","ko":"이시오카 시","tg":"Ишиока","uk":"Ісіока","zh":"石岡市"},"country":"JP","lat":36.18333,"lon":140.26667,"pop":73061,"search_terms":["石岡","石岡市","ишиока","ایشی‌اوکا، ایباراکی","исиока","ishioka","ісіока","이시오카 시","إيشيوكا"]},{"id":3460699,"name":"Itapira","names":{"en":"Itapira","kk":"Итапира","ru":"Итапира","zh":"伊塔皮拉"},"country":"BR","lat":-22.43611,"lon":-46.82167,"pop":72022,"search_terms":["итапира","伊塔皮拉","itapira"]},{"id":3461316,"name":"Indaial","names":{"en":"Indaial"},"country":"BR","lat":-26.89778,"lon":-49.23167,"pop":71549,"search_terms":["indaial"]},{"id":3199145,"name":"Ilidza","names":{"en":"Ilidza","ja":"イリジャ","ru":"Илиджа","zh":"伊利扎"},"country":"BA","lat":43.83148,"lon":18.30697,"pop":71277,"search_terms":["ilidza","伊利扎","илиджа","イリジャ"]},{"id":555980,"name":"Ishimbay","names":{"en":"Ishimbay","pl":"Iszymbaj","ko":"이심바이","ru":"Ишимбай"},"country":"RU","lat":53.44769,"lon":56.03873,"pop":70421,"search_terms":["ishimbay","iszymbaj","ишимбай","이심바이"]},{"id":7997918,"name":"Inaruwa","names":{"en":"Inaruwa"},"country":"NP","lat":26.60675,"lon":87.1478,"pop":70093,"search_terms":["inaruwa"]},{"id":1710770,"name":"Indang","names":{"en":"Indang"},"country":"PH","lat":14.19528,"lon":120.87694,"pop":70092,"search_terms":["indang"]},{"id":3175537,"name":"Imola","names":{"en":"Imola","es":"Imola","de":"Imola","cs":"Imola","fr":"Imola","id":"Imola","it":"Imola","ja":"イーモラ","nl":"Imola","pl":"Imola","pt":"Imola","sv":"Imola","ru":"Имола"},"country":"IT","lat":44.35916,"lon":11.7132,"pop":69953,"search_terms":["イーモラ","ímola","imola","имола"]},{"id":707308,"name":"Izmayil","names":{"en":"Izmayil","fr":"Izmaïl","pl":"Izmaił","ro":"Ismail","ru":"Измаил","de":"Ismajil","uk":"Ізмаїл","tr":"İşmasıl","ko":"이즈마일","ka":"იზმაილი","ja":"イズマイール","hy":"Իզմայիլ","fa":"ایزمائیل","es":"Izmaíl"},"country":"UA","lat":45.35058,"lon":28.83751,"pop":69932,"search_terms":["イズマイール","izmayil","ismajil","ismail","이즈마일","izmail","измаил","իզմայիլ","იზმაილი","ізмаїл","i̇şmasıl","ایزمائیل","izmaił","izmaíl","izmaïl"]},{"id":2315417,"name":"Inongo","names":{"en":"Inongo"},"country":"CD","lat":-1.9275,"lon":18.2881,"pop":68852,"search_terms":["inongo"]},{"id":1861290,"name":"Ito","names":{"en":"Ito","fr":"Itō","ja":"伊東市","pt":"Ito","sv":"Ito","ru":"Ито","nl":"Ito","ar":"إتو","fa":"ایتو، شیزوئوکا","ko":"이토 시","tg":"Ито","th":"อิโต","tl":"Ito","uk":"Іто","zh":"伊東市"},"country":"JP","lat":34.96667,"lon":139.08333,"pop":68773,"search_terms":["إتو","伊東","이토 시","itō","ито","іто","ایتو، شیزوئوکا","อิโต","伊東市","ito"]},{"id":2339156,"name":"Idah","names":{"en":"Idah"},"country":"NG","lat":7.11345,"lon":6.73866,"pop":68703,"search_terms":["idah"]},{"id":2287790,"name":"Issia","names":{"en":"Issia","zh":"伊西亞"},"country":"CI","lat":6.49224,"lon":-6.58558,"pop":68263,"search_terms":["伊西亞","issia"]},{"id":1861641,"name":"Ina","names":{"en":"Ina","ja":"伊那市","pt":"Ina","ru":"Ина","ar":"إنا","fa":"اینا، ناگانو","hy":"Ինա","ko":"이나 시","tg":"Ина","th":"อินะ","uk":"Іна","zh":"伊那市"},"country":"JP","lat":35.82756,"lon":137.95378,"pop":68177,"search_terms":["伊那市","іна","ina","伊那","إنا","이나 시","ինա","اینا، ناگانو","อินะ","ина"]},{"id":1505453,"name":"Ishim","names":{"en":"Ishim","de":"Ischim","ko":"이심","sv":"Isjim","ru":"Ишим","fr":"Ichim","it":"Išim","nl":"Isjim","ar":"إيشيم","az":"İşim","cs":"Išim","fa":"ایشیم","tt":"Ишем","pl":"Iszym","zh":"伊希姆","ro":"Ișim","uk":"Ішим"},"country":"RU","lat":56.11254,"lon":69.48722,"pop":67762,"search_terms":["isjim","伊希姆","ișim","ischim","ишим","إيشيم","ишем","išim","iszym","ichim","ішим","i̇şim","ایشیم","이심","ishim","коркина слобода"]},{"id":3979673,"name":"Ixtapa-Zihuatanejo","names":{"en":"Ixtapa-Zihuatanejo","es":"Zihuatanejo","sv":"Zihuatanejo","fa":"خوزه ازوتا، گوئررو","vi":"José Azueta","ru":"Сиуатанехо","fr":"Zihuatanejo"},"country":"MX","lat":17.64344,"lon":-101.55212,"pop":67408,"search_terms":["ixtapa-zihuatanejo","zihuatanejo","ixtapa zihuatanejo","خوزه ازوتا، گوئررو","josé azueta","сиуатанехо"]},{"id":3736808,"name":"Iranduba","names":{"en":"Iranduba"},"country":"BR","lat":-3.28472,"lon":-60.18611,"pop":67114,"search_terms":["iranduba"]},{"id":172082,"name":"I`zaz","names":{"en":"I`zaz","ru":"Азаз","ar":"A‘zāz","hy":"Ազազ"},"country":"SY","lat":36.58662,"lon":37.04628,"pop":66138,"search_terms":["a‘zāz","azaz","أعزاز","i‘zāz","i`zaz","إعزاز","азаз","аазаз","ազազ"]},{"id":3460730,"name":"Itapetinga","names":{"en":"Itapetinga"},"country":"BR","lat":-15.24889,"lon":-40.24778,"pop":65897,"search_terms":["itapetinga"]},{"id":261779,"name":"Ioannina","names":{"en":"Ioannina","es":"Ioánina","de":"Ioannina","pl":"Janina","el":"Ιωάννινα","fr":"Ioannina","it":"Giannina","nl":"Ioánnina","ro":"Ioannina","sv":"Ioánnina","tr":"Yanya"},"country":"GR","lat":39.66341,"lon":20.85187,"pop":65574,"search_terms":["ιωάννινα","γιάννενα","janina","ioannina","yannina","ioánina","yanina","ioánnina","γιάννινα","yanya","giannina"]},{"id":233275,"name":"Iganga","names":{"en":"Iganga","de":"Iganga","ur":"اگانگا","ru":"Иганга"},"country":"UG","lat":0.60917,"lon":33.46861,"pop":65500,"search_terms":["اگانگا","иганга","iganga"]},{"id":12432866,"name":"Itapoa","names":{"en":"Itapoa","pt":"Itapoã"},"country":"BR","lat":-15.74937,"lon":-47.7686,"pop":65408,"search_terms":["itapoa","itapoã"]},{"id":707565,"name":"Irpin","names":{"en":"Irpin","ru":"Ирпень","uk":"Ірпінь","it":"Irpin'","cs":"Irpiň","fa":"ایرپین","hy":"Իրպեն","ka":"ირპენი","tt":"Ирпень","pl":"Irpień","zh":"伊爾平","de":"Irpin","ja":"イルピン"},"country":"UA","lat":50.52175,"lon":30.25055,"pop":65167,"search_terms":["ایرپین","irpiň","irpin'","իրպեն","ირპენი","ирпень","irpień","ірпінь","イルピン","伊爾平","irpin"]},{"id":3460966,"name":"Itaberaba","names":{"en":"Itaberaba"},"country":"BR","lat":-12.5275,"lon":-40.30694,"pop":65073,"search_terms":["itaberaba"]},{"id":3437918,"name":"Itaugua","names":{"en":"Itaugua","fa":"ایتائوگوآ","ka":"იტაუგუა","ru":"Итаугуа","zh":"伊陶瓜"},"country":"PY","lat":-25.39258,"lon":-57.35421,"pop":64997,"search_terms":["ایتائوگوآ","伊陶瓜","итаугуа","itaugua","itauguá","იტაუგუა"]},{"id":3398343,"name":"Igarape Miri","names":{"en":"Igarape Miri"},"country":"BR","lat":-1.975,"lon":-48.95972,"pop":64831,"search_terms":["igarape miri"]},{"id":3397969,"name":"Itaitinga","names":{"en":"Itaitinga"},"country":"BR","lat":-3.96944,"lon":-38.52806,"pop":64650,"search_terms":["itaitinga"]},{"id":1861699,"name":"Imaichi","names":{"en":"Imaichi","ja":"今市市"},"country":"JP","lat":36.71667,"lon":139.68333,"pop":64323,"search_terms":["今市市","imaichi"]},{"id":355596,"name":"Ihnasiyah","names":{"en":"Ihnasiyah"},"country":"EG","lat":29.09285,"lon":31.02043,"pop":64058,"search_terms":["ihnasiyah"]},{"id":3398379,"name":"Ico","names":{"en":"Ico"},"country":"BR","lat":-6.40111,"lon":-38.86222,"pop":62642,"search_terms":["ico"]},{"id":707601,"name":"Inhulets","names":{"en":"Inhulets","uk":"Inhulets"},"country":"UA","lat":47.7301,"lon":33.25189,"pop":62173,"search_terms":["інгулець","inhulets"]},{"id":3120304,"name":"Irun","names":{"en":"Irun","es":"Irún","pl":"Irun","de":"Irun","fr":"Irún","id":"Irun","it":"Irun","nl":"Irun","sv":"Irun","ru":"Ирун"},"country":"ES","lat":43.33904,"lon":-1.78938,"pop":61983,"search_terms":["ирун","irún","irún-uranzu","irun"]},{"id":1505429,"name":"Iskitim","names":{"en":"Iskitim","ru":"Искитим","ar":"إيسكيتيم","fa":"ایسکیتیم","uk":"Іскітим","zh":"伊斯基季姆"},"country":"RU","lat":54.64261,"lon":83.30353,"pop":61827,"search_terms":["iskitim","إيسكيتيم","伊斯基季姆","іскітим","искитим","ایسکیتیم"]},{"id":3012649,"name":"Issy-les-Moulineaux","names":{"en":"Issy-les-Moulineaux","fr":"Issy-les-Moulineaux","pl":"Issy-les-Moulineaux","de":"Issy-les-Moulineaux","it":"Issy-les-Moulineaux","nl":"Issy-les-Moulineaux","sv":"Issy-les-Moulineaux","ru":"Исси-ле-Мулино","uk":"Іссі-ле-Муліно","ja":"イシー＝レ＝ムリノー","ko":"이시레몰리노","kk":"Исси-ле-Мулино","fa":"ایسی-له-مولینو","zh":"伊西萊穆利諾"},"country":"FR","lat":48.82104,"lon":2.27718,"pop":61447,"search_terms":["ایسی-له-مولینو","伊西萊穆利諾","issy-les-moulineaux","이시레몰리노","исси-ле-мулино","イシー＝レ＝ムリノー","іссі-ле-муліно"]},{"id":5099724,"name":"Irvington","names":{"en":"Irvington"},"country":"US","lat":40.73232,"lon":-74.23487,"pop":61323,"search_terms":["irvington"]},{"id":1861280,"name":"Itoman","names":{"en":"Itoman","ja":"糸満"},"country":"JP","lat":26.12647,"lon":127.66918,"pop":61007,"search_terms":["itoman","いとまん","糸満"]},{"id":3397936,"name":"Itapecuru Mirim","names":{"en":"Itapecuru Mirim"},"country":"BR","lat":-3.3925,"lon":-44.35861,"pop":60440,"search_terms":["itapecuru mirim"]},{"id":1269784,"name":"Ilkal","names":{"en":"Ilkal"},"country":"IN","lat":15.95923,"lon":76.11351,"pop":60242,"search_terms":["ilkal"]},{"id":3461550,"name":"Ibitinga","names":{"en":"Ibitinga"},"country":"BR","lat":-21.75778,"lon":-48.82889,"pop":60033,"search_terms":["ibitinga"]},{"id":1710441,"name":"Itogon","names":{"en":"Itogon"},"country":"PH","lat":16.36389,"lon":120.67694,"pop":59736,"search_terms":["itogon"]},{"id":3460826,"name":"Itamaraju","names":{"en":"Itamaraju"},"country":"BR","lat":-17.03917,"lon":-39.53111,"pop":59605,"search_terms":["itamaraju"]},{"id":1269655,"name":"Itanagar","names":{"en":"Itanagar","de":"Itanagar","bn":"ইটানগর","hi":"ईटानगर","ja":"イタナガル","nl":"Itanagar","ro":"Itanagar","sv":"Itanagar","ta":"இட்டாநகர்","ru":"Итанагар"},"country":"IN","lat":27.08694,"lon":93.60987,"pop":59490,"search_terms":["ईटानगर","イタナガル","ইটানগর","итанагар","இட்டாநகர்","itanagar","イーターナガル"]},{"id":3461017,"name":"Irati","names":{"en":"Irati"},"country":"BR","lat":-25.46722,"lon":-50.65111,"pop":59250,"search_terms":["irati"]},{"id":5596475,"name":"Idaho Falls","names":{"en":"Idaho Falls","ru":"Айдахо-Фолс","ar":"أيداهو فولز","ja":"アイダホフォールズ","kk":"Айдахо-Фолс","ka":"აიდაჰო-ფოლსი","fa":"آیداهو فالز، آیداهو","zh":"爱达荷福尔斯","uk":"Айдаго-Фоллс","ur":"ایڈاہو فالز، ایڈاہو"},"country":"US","lat":43.46658,"lon":-112.03414,"pop":59184,"search_terms":["აიდაჰო-ფოლსი","айдаго-фоллс","爱达荷福尔斯","أيداهو فولز","ایڈاہو فالز، ایڈاہو","idaho falls","アイダホフォールズ","آیداهو فالز، آیداهو","айдахо-фолс"]},{"id":3461519,"name":"Icara","names":{"en":"Icara","ru":"Исара"},"country":"BR","lat":-28.71333,"lon":-49.3,"pop":59035,"search_terms":["icara","исара"]},{"id":2129909,"name":"Ishikari","names":{"en":"Ishikari","ru":"Исикари","ar":"إشيكاري","az":"İşikari","fa":"ایشیکاری، هوکایدو","ja":"石狩市","ko":"이시카리 시","tg":"Ишикари","uk":"Ісікарі","zh":"石狩市"},"country":"JP","lat":43.23972,"lon":141.35389,"pop":58755,"search_terms":["исикари","ishikari","이시카리 시","石狩","i̇şikari","ісікарі","ایشیکاری، هوکایدو","إشيكاري","石狩市","ишикари"]},{"id":1861677,"name":"Imaricho-ko","names":{"en":"Imaricho-ko","ru":"Имари","ja":"伊万里町甲"},"country":"JP","lat":33.27362,"lon":129.87877,"pop":57940,"search_terms":["伊万里町甲","имари","imaricho-ko"]},{"id":3012621,"name":"Ivry-sur-Seine","names":{"en":"Ivry-sur-Seine","pl":"Ivry-sur-Seine","de":"Ivry-sur-Seine","fr":"Ivry-sur-Seine","it":"Ivry-sur-Seine","ja":"イヴリー＝シュル＝セーヌ","nl":"Ivry-sur-Seine","sv":"Ivry-sur-Seine","es":"Ivry sobre Sena","ru":"Иври-сюр-Сен","kk":"Иври-сюр-Сен","ar":"إيفري سور سين","fa":"ایوری-سور-سن","uk":"Іврі-сюр-Сен","zh":"塞纳河畔伊夫里","ko":"이브리쉬르센"},"country":"FR","lat":48.81568,"lon":2.38487,"pop":57897,"search_terms":["ایوری-سور-سن","이브리쉬르센","іврі-сюр-сен","イヴリー＝シュル＝セーヌ","ivry sobre sena","塞纳河畔伊夫里","إيفري سور سين","иври-сюр-сен","ivry-sur-seine"]},{"id":2189529,"name":"Invercargill","names":{"en":"Invercargill","es":"Invercargill","pl":"Invercargill","fr":"Invercargill","de":"Invercargill","nl":"Invercargill","pt":"Invercargill","ru":"Инверкаргилл","sv":"Invercargill","ar":"إنفركارجل","ka":"ინვერკარგილი","th":"อินเวอร์คาร์กิลล์","fa":"اینورکارگیل","uk":"Інверкаргілл","ja":"インバーカーギル","ko":"인버카길","zh":"因弗卡吉尔","ur":"انورکارگل"},"country":"NZ","lat":-46.4,"lon":168.35,"pop":57600,"search_terms":["อินเวอร์คาร์กิลล์","因弗卡吉尔","インバーカーギル","인버카길","انورکارگل","инверкаргилл","إنفركارجل","ინვერკარგილი","اینورکارگیل","інверкаргілл","invercargill"]},{"id":3461124,"name":"Ipira","names":{"en":"Ipira"},"country":"BR","lat":-12.15833,"lon":-39.73722,"pop":56876,"search_terms":["ipira"]},{"id":4897543,"name":"Irving Park","names":{"en":"Irving Park"},"country":"US","lat":41.95336,"lon":-87.73645,"pop":56520,"search_terms":["irving park"]},{"id":1710932,"name":"Impasugong","names":{"en":"Impasugong"},"country":"PH","lat":8.30972,"lon":125.00194,"pop":55901,"search_terms":["impasugong"]},{"id":1269665,"name":"Islampur","names":{"en":"Islampur"},"country":"IN","lat":26.26541,"lon":88.18982,"pop":55691,"search_terms":["islampur"]},{"id":1269819,"name":"Idappadi","names":{"en":"Idappadi"},"country":"IN","lat":11.58624,"lon":77.83891,"pop":54823,"search_terms":["idappadi"]},{"id":1861244,"name":"Iwade","names":{"en":"Iwade","ja":"岩出"},"country":"JP","lat":34.25,"lon":135.31667,"pop":53967,"search_terms":["iwade","岩出"]},{"id":2112624,"name":"Inada","names":{"en":"Inada"},"country":"JP","lat":36.43333,"lon":140.51667,"pop":53502,"search_terms":["inada"]},{"id":3938415,"name":"Ilo","names":{"en":"Ilo","ru":"Ило","ka":"ილო","uk":"Іло","zh":"伊洛"},"country":"PE","lat":-17.63185,"lon":-71.34108,"pop":53476,"search_terms":["ილო","伊洛","ило","іло","ilo"]},{"id":3460954,"name":"Itabirito","names":{"en":"Itabirito"},"country":"BR","lat":-20.25333,"lon":-43.80139,"pop":53365,"search_terms":["itabirito"]},{"id":8477754,"name":"Imara Daima Estate","names":{"en":"Imara Daima Estate"},"country":"KE","lat":-1.32323,"lon":36.88021,"pop":52837,"search_terms":["imara daima estate"]},{"id":3461370,"name":"Imbituba","names":{"en":"Imbituba"},"country":"BR","lat":-28.24,"lon":-48.67028,"pop":52579,"search_terms":["imbituba"]},{"id":1063858,"name":"Ivato","names":{"en":"Ivato"},"country":"MG","lat":-18.8,"lon":47.48333,"pop":52376,"search_terms":["ivato"]},{"id":3461194,"name":"Inhumas","names":{"en":"Inhumas"},"country":"BR","lat":-16.35778,"lon":-49.49611,"pop":52204,"search_terms":["inhumas"]},{"id":1861108,"name":"Izumi","names":{"en":"Izumi","ru":"Изуми","ja":"出水"},"country":"JP","lat":32.08333,"lon":130.36667,"pop":51994,"search_terms":["出水","изуми","izumi"]},{"id":2338401,"name":"Ijebu-Jesa","names":{"en":"Ijebu-Jesa"},"country":"NG","lat":7.68287,"lon":4.81769,"pop":51730,"search_terms":["ijebu-jesa"]},{"id":5122331,"name":"Irondequoit","names":{"en":"Irondequoit","ar":"إرونديكوويت"},"country":"US","lat":43.2134,"lon":-77.57972,"pop":51692,"search_terms":["إرونديكوويت","irondequoit"]},{"id":3461588,"name":"Ibipora","names":{"en":"Ibipora"},"country":"BR","lat":-23.26917,"lon":-51.04806,"pop":51603,"search_terms":["ibipora"]},{"id":555111,"name":"Ivanteyevka","names":{"en":"Ivanteyevka","ru":"Ивантеевка","de":"Iwantejewka"},"country":"RU","lat":55.97111,"lon":37.92083,"pop":51085,"search_terms":["ивантеевка","iwantejewka","ivanteyevka"]},{"id":2896817,"name":"Ibbenbueren","names":{"en":"Ibbenbueren","de":"Ibbenbüren","fa":"ایننبورنن","ar":"إيبنبورن","kk":"Иббенбюрен","ru":"Иббенбюрен","zh":"伊本比伦","uk":"Іббенбюрен"},"country":"DE","lat":52.27964,"lon":7.71457,"pop":50577,"search_terms":["ایننبورنن","іббенбюрен","伊本比伦","иббенбюрен","ibbenbueren","إيبنبورن","ibbenbüren"]},{"id":3397851,"name":"Itupiranga","names":{"en":"Itupiranga"},"country":"BR","lat":-5.13472,"lon":-49.32667,"pop":49754,"search_terms":["itupiranga"]},{"id":2516479,"name":"Ibiza","names":{"en":"Ibiza Town","es":"Ibiza","de":"Ibiza-Stadt","pl":"Ibiza","fr":"Ibiza","cs":"Ibiza","it":"Ibiza","nl":"Ibiza-stad","pt":"Ibiza","ru":"Ибица"},"country":"ES","lat":38.90883,"lon":1.43296,"pop":49727,"search_terms":["ibiza","ibiza-stad","ibiza-stadt","ибица","ibiza town"]},{"id":261743,"name":"Irakleio","names":{"en":"Irakleio","el":"Ηράκλειο"},"country":"GR","lat":38.05282,"lon":23.76523,"pop":49642,"search_terms":["ηράκλειο","irakleio"]},{"id":32723,"name":"Istgah-e Rah Ahan-e Garmsar","names":{"en":"Istgah-e Rah Ahan-e Garmsar","fa":"يستگاهِ راهاهَنِ گَرمسار"},"country":"IR","lat":35.23455,"lon":52.30942,"pop":49491,"search_terms":["يستگاهِ راهاهَنِ گَرمسار","istgah-e rah ahan-e garmsar","يستگاهِ گَرمسار","ايستگاه راهاهن گَرمسار","ايستگاه گرمسار","يستگاهِ راه آهَن گَرمسار"]},{"id":2259655,"name":"Impfondo","names":{"en":"Impfondo","fr":"Impfondo","pt":"Impfondo","ru":"Импфондо"},"country":"CG","lat":1.61804,"lon":18.05981,"pop":48939,"search_terms":["impfondo","импфондо"]},{"id":6822191,"name":"Izunokuni","names":{"en":"Izunokuni","ja":"伊豆の国"},"country":"JP","lat":35.03907,"lon":138.95143,"pop":48579,"search_terms":["izunokuni","伊豆の国"]},{"id":6198535,"name":"Ido-dong","names":{"en":"Ido-dong"},"country":"KR","lat":33.49778,"lon":126.52722,"pop":48579,"search_terms":["ido-dong"]},{"id":1710908,"name":"Inabanga","names":{"en":"Inabanga"},"country":"PH","lat":10.0307,"lon":124.0671,"pop":48534,"search_terms":["inabanga"]},{"id":1861207,"name":"Iwakura","names":{"en":"Iwakura","ja":"岩倉"},"country":"JP","lat":35.28333,"lon":136.86667,"pop":48007,"search_terms":["岩倉","iwakura"]},{"id":1283329,"name":"Itahari","names":{"en":"Itahari"},"country":"NP","lat":26.66371,"lon":87.27403,"pop":47984,"search_terms":["itahari"]},{"id":243590,"name":"Iriba","names":{"en":"Iriba","ru":"Ириба","sw":"Iriba","it":"Iriba","fr":"Iriba","ar":"إريبا","ja":"イリバ","fa":"هریبا","pl":"Iriba","ur":"ہریبا","nl":"Iriba"},"country":"TD","lat":15.11667,"lon":22.25,"pop":47972,"search_terms":["iriba","ириба","إريبا","ہریبا","イリバ","هریبا"]},{"id":2646088,"name":"Inverness","names":{"en":"Inverness","pl":"Inverness","es":"Inverness","de":"Inverness","fr":"Inverness","ja":"インヴァネス","nl":"Inverness","pt":"Inverness","ru":"Инвернесс","sv":"Inverness","cs":"Inverness","fa":"اینورنس","ar":"إنفرنيس","el":"Ινβερνές","hy":"Ինվերնես","ko":"인버네스","th":"อินเวอร์เนสส์","uk":"Інвернесс","zh":"印威內斯","az":"İnverness","kk":"Инвернесс","ur":"اینورنس"},"country":"GB","lat":57.47908,"lon":-4.22398,"pop":47790,"search_terms":["인버네스","印威內斯","i̇nverness","إنفرنيس","ինվերնես","инвернесс","اینورنس","อินเวอร์เนสส์","ινβερνές","інвернесс","inverness","インヴァネス"]},{"id":1861416,"name":"Ishigaki","names":{"en":"Ishigaki","ja":"石垣","ru":"Ишигаки","ar":"إشيغاكا","fa":"ایشیگاکی، اوکیناوا","ko":"이시가키 시","tr":"İshigaki","uk":"Ішіґакі","zh":"石垣市"},"country":"JP","lat":24.34478,"lon":124.15717,"pop":47637,"search_terms":["i̇shigaki","ایشیگاکی، اوکیناوا","ishigaki","إشيغاكا","이시가키 시","ішіґакі","いしがき","ишигаки","石垣市","石垣","исигаки"]},{"id":334152,"name":"Injibara","names":{"en":"Injibara"},"country":"ET","lat":11.0,"lon":36.91667,"pop":47500,"search_terms":["injibara"]},{"id":2337759,"name":"Ilaro","names":{"en":"Ilaro"},"country":"NG","lat":6.88901,"lon":3.01416,"pop":46999,"search_terms":["ilaro"]},{"id":6822108,"name":"Inashiki","names":{"en":"Inashiki","ja":"稲敷市","ar":"إناشيكي","fa":"ایناشیکی، ایباراکی","ko":"이나시키 시","tg":"Инашики","uk":"Інасікі","ru":"Инасики","zh":"稻敷市"},"country":"JP","lat":35.95633,"lon":140.32356,"pop":46994,"search_terms":["稲敷市","إناشيكي","инашики","инасики","inashiki","이나시키 시","稻敷市","інасікі","ایناشیکی، ایباراکی","稲敷"]},{"id":3397941,"name":"Itapage","names":{"en":"Itapajé"},"country":"BR","lat":-3.68667,"lon":-39.58611,"pop":46426,"search_terms":["itapajé","itapage"]},{"id":707292,"name":"Izyum","names":{"en":"Izyum","ru":"Изюм","uk":"Izyum","de":"Isjum","ja":"イジューム","zh":"伊久姆","ka":"იზიუმი","hy":"Իզյում","el":"Ιζιούμ","fr":"Izioum","it":"Izjum","pl":"Izium"},"country":"UA","lat":49.20697,"lon":37.27679,"pop":45884,"search_terms":["izium","ізюм","იზიუმი","изюм","ιζιούμ","izjum","իզյում","イジューム","izioum","isjum","izyum","伊久姆"]},{"id":3461498,"name":"Igarape","names":{"en":"Igarape"},"country":"BR","lat":-20.07028,"lon":-44.30167,"pop":45847,"search_terms":["igarape"]},{"id":159242,"name":"Ikwiriri","names":{"en":"Ikwiriri"},"country":"TZ","lat":-7.95618,"lon":38.97164,"pop":45000,"search_terms":["ikwiriri"]},{"id":159386,"name":"Igunga","names":{"en":"Igunga"},"country":"TZ","lat":-4.28333,"lon":33.88333,"pop":45000,"search_terms":["igunga"]},{"id":6822173,"name":"Inabe","names":{"en":"Inabe","ja":"いなべ"},"country":"JP","lat":35.11344,"lon":136.57205,"pop":44973,"search_terms":["inabe","いなべ市","いなべ"]},{"id":3460963,"name":"Itaberai","names":{"en":"Itaberai","ru":"Итабераи"},"country":"BR","lat":-16.02028,"lon":-49.81028,"pop":44734,"search_terms":["итабераи","itaberai"]},{"id":3460620,"name":"Itarare","names":{"en":"Itarare","ru":"Итараре"},"country":"BR","lat":-24.1125,"lon":-49.33167,"pop":44438,"search_terms":["итараре","itarare"]},{"id":3012647,"name":"Istres","names":{"en":"Istres","de":"Istres","pl":"Istres","fr":"Istres","it":"Istres","ja":"イストル","nl":"Istres","sv":"Istres","ru":"Истра","fa":"ایستر","uk":"Істр","zh":"伊斯特爾","ko":"이스트르"},"country":"FR","lat":43.51345,"lon":4.98747,"pop":44373,"search_terms":["伊斯特爾","イストル","ایستر","истра","істр","이스트르","istres","истр"]},{"id":2112527,"name":"Iwanuma","names":{"en":"Iwanuma","ja":"岩沼"},"country":"JP","lat":38.10472,"lon":140.85944,"pop":44068,"search_terms":["岩沼","iwanuma"]},{"id":12156826,"name":"Islington-City Centre West","names":{"en":"Islington-City Centre West"},"country":"CA","lat":43.63347,"lon":-79.54332,"pop":43965,"search_terms":["islington-city centre west"]},{"id":448001,"name":"Ishaka","names":{"en":"Ishaka"},"country":"UG","lat":-0.54306,"lon":30.13694,"pop":43700,"search_terms":["ishaka"]},{"id":5983433,"name":"Innisfil","names":{"en":"Innisfil"},"country":"CA","lat":44.30011,"lon":-79.64964,"pop":43326,"search_terms":["innisfil"]},{"id":3397883,"name":"Itarema","names":{"en":"Itarema"},"country":"BR","lat":-2.92028,"lon":-39.915,"pop":42957,"search_terms":["itarema"]},{"id":3526657,"name":"Izucar de Matamoros","names":{"en":"Izucar de Matamoros","es":"Izúcar","ru":"Исукар-де-Матаморос"},"country":"MX","lat":18.60157,"lon":-98.46152,"pop":42936,"search_terms":["izucar","izucar de matamoros","izúcar","izúcar de matamoros","исукар-де-матаморос"]},{"id":1643089,"name":"Indralaya","names":{"en":"Indralaya","id":"Indralaya"},"country":"ID","lat":-3.25249,"lon":104.67555,"pop":42498,"search_terms":["indralaya"]},{"id":1861223,"name":"Iwai","names":{"en":"Iwai"},"country":"JP","lat":36.05,"lon":139.9,"pop":42497,"search_terms":["iwai"]},{"id":3175532,"name":"Imperia","names":{"en":"Imperia","es":"Imperia","pl":"Imperia","de":"Imperia","fr":"Imperia","it":"Imperia","ja":"インペリア","nl":"Imperia","pt":"Impéria","ro":"Imperia","ru":"Империя","sv":"Imperia"},"country":"IT","lat":43.88917,"lon":8.03933,"pop":42328,"search_terms":["impéria","империя","インペリア","imperia"]},{"id":1269818,"name":"Idar","names":{"en":"Idar","zh":"伊达尔"},"country":"IN","lat":23.84145,"lon":73.00068,"pop":42306,"search_terms":["伊达尔","idar"]},{"id":554894,"name":"Izberbash","names":{"en":"Izberbash","ru":"Избербаш"},"country":"RU","lat":42.56705,"lon":47.87546,"pop":42121,"search_terms":["избербаш","изберг","izberbash"]},{"id":196185,"name":"Iten","names":{"en":"Iten"},"country":"KE","lat":0.67028,"lon":35.50806,"pop":42000,"search_terms":["iten"]},{"id":1064275,"name":"Ihosy","names":{"en":"Ihosy"},"country":"MG","lat":-22.40293,"lon":46.12576,"pop":41892,"search_terms":["ihosy"]},{"id":1505526,"name":"Irbit","names":{"en":"Irbit","de":"Irbit","pl":"Irbit","nl":"Irbit","sv":"Irbit","fr":"Irbit","ru":"Ирбит","ar":"إيربيت","az":"İrbit","el":"Ιρμπίτ","fa":"ایربیت","tt":"Эрбет","uk":"Ірбіт","zh":"伊爾比特"},"country":"RU","lat":57.66863,"lon":63.07072,"pop":41647,"search_terms":["伊爾比特","إيربيت","ιρμπίτ","ایربیت","ирбит","irbit","ірбіт","i̇rbit","эрбет"]},{"id":1862034,"name":"Ibara","names":{"en":"Ibara","ar":"إبارا","fa":"ایبارا، اوکایاما","ja":"井原市","ko":"이바라 시","tg":"Ибара","uk":"Ібара","ru":"Ибара","zh":"井原市"},"country":"JP","lat":34.6,"lon":133.46667,"pop":41460,"search_terms":["ібара","ایبارا، اوکایاما","ибара","ibara","井原市","إبارا","井原","이바라 시"]},{"id":1142330,"name":"Istalif","names":{"en":"Istalif"},"country":"AF","lat":34.83268,"lon":69.07756,"pop":41413,"search_terms":["istalif"]},{"id":3398112,"name":"Ipu","names":{"en":"Ipu"},"country":"BR","lat":-4.32222,"lon":-40.71083,"pop":41081,"search_terms":["ipu"]},{"id":2646274,"name":"Ilkeston","names":{"en":"Ilkeston","fa":"ایلکستون"},"country":"GB","lat":52.97055,"lon":-1.30951,"pop":40953,"search_terms":["ilkeston","ایلکستون"]},{"id":1861285,"name":"Itoigawa","names":{"en":"Itoigawa","ar":"إتويغاوا","fa":"ایتویی‌گاوا، نیگاتا","ja":"糸魚川市","ko":"이토이가와 시","tg":"Итоигава","uk":"Ітоїґава","ru":"Итоигава","zh":"糸魚川市"},"country":"JP","lat":37.03333,"lon":137.85,"pop":40765,"search_terms":["إتويغاوا","ایتویی‌گاوا، نیگاتا","糸魚川市","糸魚川","итоигава","이토이가와 시","ітоїґава","itoigawa"]},{"id":3461129,"name":"Ipiau","names":{"en":"Ipiau","ru":"Ипиау"},"country":"BR","lat":-14.13449,"lon":-39.73948,"pop":40706,"search_terms":["ipiau","ипиау"]},{"id":10929640,"name":"Icchannur","names":{"en":"Icchannur"},"country":"IN","lat":11.36148,"lon":75.77819,"pop":40697,"search_terms":["icchannur"]},{"id":3460971,"name":"Itabaianinha","names":{"en":"Itabaianinha"},"country":"BR","lat":-11.27389,"lon":-37.79,"pop":40678,"search_terms":["itabaianinha"]},{"id":2550898,"name":"Imzouren","names":{"en":"Imzouren"},"country":"MA","lat":35.14637,"lon":-3.85063,"pop":40000,"search_terms":["imzouren"]},{"id":789996,"name":"Istok","names":{"en":"Istok"},"country":"XK","lat":42.78083,"lon":20.4875,"pop":40000,"search_terms":["istok"]},{"id":3460738,"name":"Itapemirim","names":{"en":"Itapemirim","hy":"Իտապեմիրին","ka":"იტაპემერინი","kk":"Итапемирин","ru":"Итапемирин","zh":"伊塔佩米林"},"country":"BR","lat":-21.01111,"lon":-40.83389,"pop":39832,"search_terms":["伊塔佩米林","itapemirim","իտապեմիրին","იტაპემერინი","итапемирин"]},{"id":3460671,"name":"Itapolis","names":{"en":"Itapolis"},"country":"BR","lat":-21.59556,"lon":-48.81278,"pop":39493,"search_terms":["itapolis"]},{"id":2112521,"name":"Iwase","names":{"en":"Iwase","ru":"Ивасэ","ja":"岩瀬町"},"country":"JP","lat":36.35,"lon":140.1,"pop":39122,"search_terms":["ивасэ","岩瀬町","iwase"]},{"id":554770,"name":"Izobil'nyy","names":{"en":"Izobil'nyy","ru":"Изобильный"},"country":"RU","lat":45.36653,"lon":41.7091,"pop":39022,"search_terms":["izobil'nyy","изобильный","izobilnyi"]},{"id":1862010,"name":"Ibusuki","names":{"en":"Ibusuki","ar":"إيبوسوكي","fa":"ایبوسوکی، کاگوشیما","ja":"指宿市","ko":"이부스키 시","tg":"Ибусуки","uk":"Ібусукі","ru":"Ибусуки","zh":"指宿市"},"country":"JP","lat":31.23333,"lon":130.65,"pop":39011,"search_terms":["إيبوسوكي","指宿市","ایبوسوکی، کاگوشیما","ибусуки","ібусукі","이부스키 시","指宿","ibusuki"]},{"id":3120431,"name":"Igualada","names":{"en":"Igualada","es":"Igualada","de":"Igualada","it":"Igualada","nl":"Igualada","pt":"Igualada","ru":"Игуалада"},"country":"ES","lat":41.58098,"lon":1.6172,"pop":38918,"search_terms":["igualada","игуалада"]},{"id":3585484,"name":"Ilopango","names":{"en":"Ilopango","ru":"Илопанго"},"country":"SV","lat":13.70167,"lon":-89.10944,"pop":38890,"search_terms":["илопанго","ilopango"]},{"id":1064234,"name":"Ikongo","names":{"en":"Ikongo","de":"Ikongo","sv":"Ikongo","pt":"Ikongo","sw":"Ikongo","it":"Ikongo","fr":"Ikongo","zh":"伊孔古","fa":"ایکونگو","pl":"Ikongo","nl":"Ikongo"},"country":"MG","lat":-21.88333,"lon":47.43333,"pop":38851,"search_terms":["ikongo","伊孔古","ایکونگو"]},{"id":11147723,"name":"Ingeniero Pablo Nogues","names":{"en":"Ingeniero Pablo Nogues","es":"Ingeniero Pablo Nogués"},"country":"AR","lat":-34.47775,"lon":-58.70652,"pop":38470,"search_terms":["ingeniero pablo nogues","ingeniero pablo nogués"]},{"id":3460513,"name":"Iturama","names":{"en":"Iturama","ru":"Итурама"},"country":"BR","lat":-19.72806,"lon":-50.19556,"pop":38295,"search_terms":["итурама","iturama"]},{"id":1269751,"name":"Indi","names":{"en":"Indi"},"country":"IN","lat":17.17735,"lon":75.9526,"pop":38217,"search_terms":["indi"]},{"id":3460511,"name":"Ituverava","names":{"en":"Ituverava"},"country":"BR","lat":-20.33944,"lon":-47.78056,"pop":37571,"search_terms":["ituverava"]},{"id":3461147,"name":"Ipanema","names":{"en":"Ipanema","pt":"Ipanema","fa":"ایپانما","ka":"იპანემა","kk":"Ипанема","ko":"이파네마","ru":"Ипанема","zh":"伊帕内玛"},"country":"BR","lat":-22.98436,"lon":-43.20285,"pop":37392,"search_terms":["ایپانما","ипанема","이파네마","ipanema","იპანემა","伊帕内玛"]},{"id":4472687,"name":"Indian Trail","names":{"en":"Indian Trail"},"country":"US","lat":35.07681,"lon":-80.66924,"pop":37073,"search_terms":["indian trail"]},{"id":3398077,"name":"Ipueiras","names":{"en":"Ipueiras"},"country":"BR","lat":-4.54167,"lon":-40.71889,"pop":36798,"search_terms":["ipueiras"]},{"id":3386889,"name":"Itambe","names":{"en":"Itambe"},"country":"BR","lat":-7.41028,"lon":-35.11278,"pop":36626,"search_terms":["itambe"]},{"id":1269827,"name":"Ichchapuram","names":{"en":"Ichchapuram"},"country":"IN","lat":19.11393,"lon":84.68721,"pop":36493,"search_terms":["ichchapuram"]},{"id":3461134,"name":"Ipero","names":{"en":"Ipero"},"country":"BR","lat":-23.35028,"lon":-47.68861,"pop":36459,"search_terms":["ipero"]},{"id":2338855,"name":"Igangan","names":{"en":"Igangan"},"country":"NG","lat":7.6807,"lon":3.18413,"pop":36447,"search_terms":["igangan"]},{"id":2336985,"name":"Itu","names":{"en":"Itu"},"country":"NG","lat":5.20131,"lon":7.98373,"pop":36358,"search_terms":["itu"]},{"id":287814,"name":"Izki","names":{"en":"Izki","ar":"إزكي"},"country":"OM","lat":22.93333,"lon":57.76667,"pop":36203,"search_terms":["izki","إزكي"]},{"id":5798487,"name":"Issaquah","names":{"en":"Issaquah","ar":"إساكوه","fa":"ایسکوا، واشینگتن","ja":"イサクア","ko":"이사콰","zh":"伊瑟阔"},"country":"US","lat":47.5301,"lon":-122.03262,"pop":36081,"search_terms":["إساكوه","issaquah","이사콰","イサクア","伊瑟阔","ایسکوا، واشینگتن"]},{"id":3398350,"name":"Igarape-Acu","names":{"en":"Igarape-Acu"},"country":"BR","lat":-1.12889,"lon":-47.62,"pop":35797,"search_terms":["igarape-acu"]},{"id":3460629,"name":"Itaqui","names":{"en":"Itaqui","es":"Itaqui","fr":"Itaqui","id":"Itaqui","it":"Itaqui","nl":"Itaqui","pt":"Itaqui","ro":"Itaqui","sv":"Itaqui","ru":"Итака"},"country":"BR","lat":-29.12528,"lon":-56.55306,"pop":35768,"search_terms":["itaqui","итака"]},{"id":3461090,"name":"Ipora","names":{"en":"Ipora","ru":"Ипора"},"country":"BR","lat":-16.44194,"lon":-51.11778,"pop":35684,"search_terms":["ipora","ипора"]},{"id":1269666,"name":"Islampur","names":{"en":"Islampur"},"country":"IN","lat":25.14075,"lon":85.20587,"pop":35641,"search_terms":["islampur"]},{"id":3461425,"name":"Ilhabela","names":{"en":"Ilhabela"},"country":"BR","lat":-23.77806,"lon":-45.35806,"pop":35591,"search_terms":["ilhabela"]},{"id":6822180,"name":"Isumi","names":{"en":"Isumi","ja":"いすみ","ar":"إسومي","fa":"ایسومی، چیبا","ko":"이스미 시","th":"อิซุมิ","uk":"Ісумі","ru":"Исуми","zh":"夷隅市","hy":"Իսումի","ur":"اسومی، چیبا"},"country":"JP","lat":35.23005,"lon":140.40492,"pop":35544,"search_terms":["夷隅市","isumi","اسومی، چیبا","이스미 시","いすみ","อิซุมิ","ایسومی، چیبا","իսումի","исуми","إسومي","ісумі","いすみ市"]},{"id":1269810,"name":"Igatpuri","names":{"en":"Igatpuri","bn":"ইগাটপুরি","fa":"ایگاتپوری","hi":"इगतपुरी","mr":"इगतपुरी","ur":"ایگت پوری","zh":"伊加特普里"},"country":"IN","lat":19.69522,"lon":73.5626,"pop":35461,"search_terms":["इगतपुरी","igatpuri","ইগাটপুরি","ایگاتپوری","ایگت پوری","伊加特普里"]},{"id":1926006,"name":"Iyo","names":{"en":"Iyo","ru":"Ие","ar":"إيو","fa":"ایو، اهیمه","ja":"伊予市","ko":"이요 시","tg":"Иё","uk":"Ійо","ur":"ایو، اہیمے","zh":"伊予市"},"country":"JP","lat":33.75139,"lon":132.70139,"pop":35133,"search_terms":["伊予市","إيو","ие","иё","이요 시","伊予","ійо","iyo","ایو، اهیمه","ایو، اہیمے"]},{"id":2795100,"name":"Ieper","names":{"en":"Ieper","pl":"Ypres","de":"Ypern","es":"Ypres","fr":"Ypres","nl":"Ieper","sv":"Ypern","it":"Ypres","ru":"Ипр","cs":"Ypry","el":"Υπρ","fa":"ایپر","ja":"イーペル","ko":"이퍼르","ky":"Ипр","uk":"Іпр","ur":"یپریس","zh":"伊珀尔"},"country":"BE","lat":50.85114,"lon":2.88569,"pop":35089,"search_terms":["یپریس","іпр","ypern","ieper","ایپر","ypres","伊珀尔","ypry","υπρ","이퍼르","イーペル","ипр"]},{"id":5031412,"name":"Inver Grove Heights","names":{"en":"Inver Grove Heights","ar":"إنفر غروف هايتس","fa":"اینور گروو هیتس، مینه‌سوتا","kk":"Инвэр Гроув Хэйтс","uk":"Інвер-Ґров-Гайтс","ur":"اینور گروو ہائٹس، مینیسوٹا","ru":"Инвер-Гров-Хайтс","tt":"Инвер-Гров-Гайтс","de":"Inver Grove Heights","pt":"Inver Grove Heights","fr":"Inver Grove Heights","sv":"Inver Grove Heights","uz":"Inver Grove Heights","it":"Inver Grove Heights","es":"Inver Grove Heights","ky":"Инвэр Гроув Хэйтс","zh":"因弗格羅夫高地","vi":"Inver Grove Heights","ja":"インバー・グローブ・ハイツ","pl":"Inver Grove Heights","nl":"Inver Grove Heights","tr":"Inver Grove Heights"},"country":"US","lat":44.84802,"lon":-93.04272,"pop":34857,"search_terms":["інвер-ґров-гайтс","inver grove","インバー・グローブ・ハイツ","inver grove heights","اینور گروو هیتس، مینه‌سوتا","因弗格羅夫高地","инвер-гров-хайтс","инвэр гроув хэйтс","إنفر غروف هايتس","اینور گروو ہائٹس، مینیسوٹا","инвер-гров-гайтс"]},{"id":3526708,"name":"Ixmiquilpan","names":{"en":"Ixmiquilpan"},"country":"MX","lat":20.47841,"lon":-99.21697,"pop":34814,"search_terms":["ixmiquilpan"]},{"id":3460665,"name":"Itaporanga d'Ajuda","names":{"en":"Itaporanga d'Ajuda"},"country":"BR","lat":-10.99806,"lon":-37.31056,"pop":34411,"search_terms":["itaporanga d'ajuda"]},{"id":7911405,"name":"Isingiro","names":{"en":"Isingiro"},"country":"UG","lat":-0.86864,"lon":30.83019,"pop":34300,"search_terms":["isingiro"]},{"id":147982,"name":"Imishli","names":{"en":"Imishli","ru":"Имишли"},"country":"AZ","lat":39.87095,"lon":48.05995,"pop":34178,"search_terms":["имишли","imishli"]},{"id":2646032,"name":"Irvine","names":{"en":"Irvine","uk":"Ірвін","ru":"Эрвин","ja":"アーバイン","az":"Örvin","fa":"اروین","zh":"歐文"},"country":"GB","lat":55.6194,"lon":-4.65508,"pop":34130,"search_terms":["örvin","اروین","irvine","アーバイン","歐文","эрвин","ірвін"]},{"id":2753355,"name":"IJsselstein","names":{"en":"IJsselstein","ru":"Иссельстейн"},"country":"NL","lat":52.02,"lon":5.04306,"pop":33886,"search_terms":["иссельстейн","ijsselstein"]},{"id":3460548,"name":"Itiuba","names":{"en":"Itiuba"},"country":"BR","lat":-10.69167,"lon":-39.85361,"pop":33872,"search_terms":["itiuba"]},{"id":11499877,"name":"Iramallur","names":{"en":"Iramallur"},"country":"IN","lat":10.0619,"lon":76.57168,"pop":33829,"search_terms":["iramallur"]},{"id":3461224,"name":"Inhambupe","names":{"en":"Inhambupe"},"country":"BR","lat":-11.78444,"lon":-38.35306,"pop":33790,"search_terms":["inhambupe"]},{"id":3397983,"name":"Itaiba","names":{"en":"Itaiba"},"country":"BR","lat":-8.9475,"lon":-37.42278,"pop":33691,"search_terms":["itaiba"]},{"id":1861816,"name":"Ikaruga","names":{"en":"Ikaruga","ja":"鵤"},"country":"JP","lat":34.83475,"lon":134.57803,"pop":33477,"search_terms":["鵤","ikaruga"]},{"id":555746,"name":"Istra","names":{"en":"Istra","ru":"Истра","ko":"이스트라","zh":"伊斯特拉"},"country":"RU","lat":55.91979,"lon":36.86876,"pop":33390,"search_terms":["伊斯特拉","istra","이스트라","истра"]},{"id":11532691,"name":"Idangansalai","names":{"en":"Idangansalai"},"country":"IN","lat":11.62721,"lon":77.98898,"pop":33245,"search_terms":["idangansalai"]},{"id":2895569,"name":"Itzehoe","names":{"en":"Itzehoe","kk":"Итцехо","fa":"اتسهوهه","ru":"Итцехо","zh":"伊策霍埃","ar":"إتسهويه"},"country":"DE","lat":53.92099,"lon":9.51529,"pop":33047,"search_terms":["itzehoe","اتسهوهه","إتسهويه","伊策霍埃","итцехо"]},{"id":3460825,"name":"Itamarandiba","names":{"en":"Itamarandiba"},"country":"BR","lat":-17.85722,"lon":-42.85889,"pop":32948,"search_terms":["itamarandiba"]},{"id":3461481,"name":"Igrejinha","names":{"en":"Igrejinha","ru":"Игрежинья","kk":"Игрежинья","zh":"伊格雷日尼亚"},"country":"BR","lat":-29.57444,"lon":-50.79028,"pop":32808,"search_terms":["伊格雷日尼亚","игрежинья","igrejinha"]},{"id":3460495,"name":"Ivaipora","names":{"en":"Ivaipora"},"country":"BR","lat":-24.24778,"lon":-51.68472,"pop":32720,"search_terms":["ivaipora"]},{"id":3460602,"name":"Itatiaia","names":{"en":"Itatiaia"},"country":"BR","lat":-22.49611,"lon":-44.56333,"pop":32694,"search_terms":["itatiaia"]},{"id":3097902,"name":"Ilawa","names":{"en":"Ilawa","de":"Deutsch Eylau","pl":"Iława","fr":"Iława","cs":"Iława","ja":"イワヴァ","nl":"Iława","ro":"Iława","es":"Iława","uk":"Ілава","ru":"Илава","zh":"伊瓦瓦"},"country":"PL","lat":53.59601,"lon":19.56849,"pop":32557,"search_terms":["deutsch eylau","ilawa","илава","ілава","iława","伊瓦瓦","イワヴァ"]},{"id":6930641,"name":"In Salah","names":{"en":"In Salah","ar":"عين صالح","ja":"インサラー","ko":"인살라","uk":"Айн-Салах","pl":"Ajn Salih","ru":"Айн-Салах","zh":"因萨拉赫","fa":"عین صالح"},"country":"DZ","lat":27.19678,"lon":2.47913,"pop":32518,"search_terms":["인살라","インサラー","因萨拉赫","in salah","إن صالح","عين صالح","عین صالح","ajn salih","айн-салах"]},{"id":3938396,"name":"Imperial","names":{"en":"Imperial"},"country":"PE","lat":-13.05927,"lon":-76.35269,"pop":32344,"search_terms":["imperial"]},{"id":3461625,"name":"Ibate","names":{"en":"Ibate"},"country":"BR","lat":-21.95472,"lon":-47.99667,"pop":32178,"search_terms":["ibate"]},{"id":1505579,"name":"Inta","names":{"en":"Inta","pl":"Inta","fr":"Inta","ko":"인타","nl":"Inta","ru":"Инта","es":"Intá","ar":"إنتا","az":"İnta","fa":"اینتا","tg":"Инта","zh":"因塔","tt":"Инта","uk":"Інта"},"country":"RU","lat":66.03169,"lon":60.16594,"pop":32080,"search_terms":["инта","인타","إنتا","اینتا","intá","інта","inta","i̇nta","因塔"]},{"id":1063930,"name":"Itampolo","names":{"en":"Itampolo","it":"Itampolo","fa":"ایتامپولو","fr":"Itampolo","nl":"Itampolo","zh":"伊坦普盧"},"country":"MG","lat":-24.68333,"lon":43.95,"pop":32000,"search_terms":["ایتامپولو","itampolo","伊坦普盧"]},{"id":2753376,"name":"IJmuiden","names":{"en":"IJmuiden","de":"Ĳmuiden","sv":"Ĳmuiden","ru":"Эймёйден"},"country":"NL","lat":52.4603,"lon":4.61048,"pop":31925,"search_terms":["ĳmuiden","эймёйден","ijmuiden"]},{"id":311453,"name":"Imamoglu","names":{"en":"Imamoglu"},"country":"TR","lat":37.26506,"lon":35.65717,"pop":31916,"search_terms":["imamoglu"]},{"id":916668,"name":"Isoka","names":{"en":"Isoka"},"country":"ZM","lat":-10.16062,"lon":32.63353,"pop":31739,"search_terms":["isoka"]},{"id":3460707,"name":"Itapicuru","names":{"en":"Itapicuru"},"country":"BR","lat":-11.31667,"lon":-38.23333,"pop":31679,"search_terms":["itapicuru"]},{"id":2896753,"name":"Idar-Oberstein","names":{"en":"Idar-Oberstein","ru":"Идар-Оберштайн","fa":"ایدار-اوبراشتاین","kk":"Идар-Оберштайн","zh":"伊达尔-奥伯施泰因","ja":"イダー＝オーバーシュタイン","ar":"إيدار-أوبرشتاين","ka":"იდარ-ობერშტაინი"},"country":"DE","lat":49.71443,"lon":7.30776,"pop":31610,"search_terms":["イダー＝オーバーシュタイン","იდარ-ობერშტაინი","idar-oberstein","伊达尔-奥伯施泰因","إيدار-أوبرشتاين","идар-оберштайн","ایدار-اوبراشتاین"]},{"id":3460734,"name":"Itaperucu","names":{"en":"Itaperucu"},"country":"BR","lat":-25.22,"lon":-49.34778,"pop":31217,"search_terms":["itaperucu"]},{"id":334043,"name":"Iteya","names":{"en":"Iteya"},"country":"ET","lat":8.13333,"lon":39.23333,"pop":31100,"search_terms":["iteya"]},{"id":8576507,"name":"Ikegami","names":{"en":"Ikegami","ja":"池上"},"country":"JP","lat":35.57667,"lon":139.70517,"pop":30959,"search_terms":["池上","ikegami"]},{"id":3398014,"name":"Irituia","names":{"en":"Irituia"},"country":"BR","lat":-1.77111,"lon":-47.43806,"pop":30955,"search_terms":["irituia"]},{"id":5122432,"name":"Ithaca","names":{"en":"Ithaca","ru":"Итак","bn":"ইথাকা","ko":"이사카","uk":"Ітака","fa":"ایتاکا، نیویورک","ar":"إثاكا","ja":"イサカ","zh":"伊萨卡","tg":"Итако","ur":"اتھاکا، نیو یارک"},"country":"US","lat":42.44063,"lon":-76.49661,"pop":30788,"search_terms":["اتھاکا، نیو یارک","ithaca","이사카","إثاكا","イサカ","ایتاکا، نیویورک","ইথাকা","итако","итака","ітака","итак","伊萨卡"]},{"id":3460741,"name":"Itapoa","names":{"en":"Itapoa"},"country":"BR","lat":-26.11694,"lon":-48.61611,"pop":30750,"search_terms":["itapoa"]},{"id":6822192,"name":"Izu","names":{"en":"Izu","ja":"伊豆","ar":"إزو","fa":"ایزو، شیزوئوکا","ko":"이즈 시","tg":"Изу","tl":"Isu","uk":"Ідзу","ru":"Идзу","zh":"伊豆市"},"country":"JP","lat":34.97159,"lon":138.94643,"pop":30678,"search_terms":["이즈 시","伊豆市","伊豆","ідзу","إزو","идзу","ایزو، شیزوئوکا","изу","izu","isu"]},{"id":11462193,"name":"Irimbiliyam","names":{"en":"Irimbiliyam"},"country":"IN","lat":10.86242,"lon":76.09218,"pop":30635,"search_terms":["irimbiliyam"]},{"id":3398105,"name":"Ipubi","names":{"en":"Ipubi"},"country":"BR","lat":-7.65194,"lon":-40.14889,"pop":30603,"search_terms":["ipubi"]},{"id":11612692,"name":"Ichikikushikino","names":{"en":"Ichikikushikino","ja":"いちき串木野"},"country":"JP","lat":31.72934,"lon":130.29305,"pop":30551,"search_terms":["ichikikushikino","いちき串木野"]},{"id":334137,"name":"Inseno","names":{"en":"Inseno"},"country":"ET","lat":8.06667,"lon":38.46667,"pop":30500,"search_terms":["inseno"]},{"id":7926667,"name":"Incirli","names":{"en":"Incirli"},"country":"TR","lat":39.98431,"lon":32.84317,"pop":30440,"search_terms":["incirli"]},{"id":2443304,"name":"Illela","names":{"en":"Illela"},"country":"NE","lat":14.4605,"lon":5.2437,"pop":30439,"search_terms":["illela"]},{"id":11612327,"name":"Iki","names":{"en":"Iki","ja":"壱岐"},"country":"JP","lat":33.78286,"lon":129.7209,"pop":30352,"search_terms":["iki","壱岐"]},{"id":1861410,"name":"Ishigami","names":{"en":"Ishigami"},"country":"JP","lat":36.25,"lon":139.15,"pop":30343,"search_terms":["ishigami"]},{"id":6317294,"name":"Ipixuna do Para","names":{"en":"Ipixuna do Para"},"country":"BR","lat":-2.55778,"lon":-47.495,"pop":30329,"search_terms":["ipixuna do para"]},{"id":13132797,"name":"Inami","names":{"en":"Inami","ja":"稲美町"},"country":"JP","lat":34.74807,"lon":134.91284,"pop":30268,"search_terms":["稲美町","inami"]},{"id":3461368,"name":"Imbituva","names":{"en":"Imbituva"},"country":"BR","lat":-25.23,"lon":-50.60444,"pop":29924,"search_terms":["imbituva"]},{"id":6698332,"name":"Infernetto","names":{"en":"Infernetto"},"country":"IT","lat":41.73456,"lon":12.36159,"pop":29838,"search_terms":["infernetto"]},{"id":1861454,"name":"Isawa","names":{"en":"Isawa","ja":"石和町"},"country":"JP","lat":35.65,"lon":138.63333,"pop":29616,"search_terms":["石和町","isawa"]},{"id":3461477,"name":"Iguaba Grande","names":{"en":"Iguaba Grande"},"country":"BR","lat":-22.83917,"lon":-42.22889,"pop":29577,"search_terms":["iguaba grande"]},{"id":10778122,"name":"Ibrahimpatnam","names":{"en":"Ibrahimpatnam"},"country":"IN","lat":16.58303,"lon":80.51432,"pop":29432,"search_terms":["ibrahimpatnam"]},{"id":2516443,"name":"Ingenio","names":{"en":"Ingenio","es":"Ingenio","fr":"Ingenio","de":"Ingenio","it":"Ingenio","nl":"Ingenio","pt":"Ingenio"},"country":"ES","lat":27.91855,"lon":-15.43433,"pop":29319,"search_terms":["ingenio"]},{"id":2516452,"name":"Inca","names":{"en":"Inca","es":"Inca","de":"Inca","it":"Inca","nl":"Inca","pt":"Inca","ru":"Инка"},"country":"ES","lat":39.7211,"lon":2.91093,"pop":29308,"search_terms":["инка","inca"]},