[{"id":745044,"name":"Istanbul","local":"Стамбул","country":"TR","lat":41.014,"lon":28.95,"pop":15701602,"tz":"Europe/Istanbul"},{"id":2339354,"name":"Ibadan","local":"Ибадан","country":"NG","lat":7.378,"lon":3.906,"pop":3649000,"tz":"Africa/Lagos"},{"id":1843564,"name":"Incheon","local":"Инчхон","country":"KR","lat":37.456,"lon":126.705,"pop":3039450,"tz":"Asia/Seoul"},{"id":311046,"name":"Izmir","local":"Измир","country":"TR","lat":38.413,"lon":27.138,"pop":2938292,"tz":"Europe/Istanbul"},{"id":1269743,"name":"Indore","local":"Индор","country":"IN","lat":22.718,"lon":75.833,"pop":1994397,"tz":"Asia/Kolkata"},{"id":3526683,"name":"Iztapalapa","local":"Истапалапа","country":"MX","lat":19.355,"lon":-99.062,"pop":1835486,"tz":"America/Mexico_City"},{"id":418863,"name":"Isfahan","local":"Исфахан","country":"IR","lat":32.652,"lon":51.675,"pop":1547164,"tz":"Asia/Tehran"},{"id":2337639,"name":"Ilorin","local":"Илорин","country":"NG","lat":8.497,"lon":4.542,"pop":1080000,"tz":"Africa/Lagos"},{"id":4259418,"name":"Indianapolis","local":"Индианаполис","country":"US","lat":39.768,"lon":-86.158,"pop":887642,"tz":"America/Indiana/Indianapolis"},{"id":74477,"name":"Ibb","local":"Ибб","country":"YE","lat":13.967,"lon":44.183,"pop":771514,"tz":"Asia/Aden"},{"id":1734634,"name":"Ipoh","local":"Ипо","country":"MY","lat":4.584,"lon":101.083,"pop":759952,"tz":"Asia/Kuala_Lumpur"},{"id":554840,"name":"Izhevsk","local":"Ижевск","country":"RU","lat":56.852,"lon":53.199,"pop":648213,"tz":"Europe/Samara"},{"id":2023469,"name":"Irkutsk","local":"Иркутск","country":"RU","lat":52.296,"lon":104.291,"pop":623869,"tz":"Asia/Irkutsk"},{"id":1176615,"name":"Islamabad","local":"Исламабад","country":"PK","lat":33.721,"lon":73.043,"pop":601600,"tz":"Asia/Karachi"},{"id":1861321,"name":"Itabashi","local":"Itabashi","country":"JP","lat":35.749,"lon":139.715,"pop":584483,"tz":"Asia/Tokyo"},{"id":10063567,"name":"Iskandar Puteri","local":"Iskandar Puteri","country":"MY","lat":1.393,"lon":103.623,"pop":575977,"tz":"Asia/Kuala_Lumpur"},{"id":248946,"name":"Irbid","local":"Ирбид","country":"JO","lat":32.556,"lon":35.85,"pop":569068,"tz":"Asia/Amman"},{"id":2338900,"name":"Ile-Ife","local":"Ile-Ife","country":"NG","lat":7.482,"lon":4.56,"pop":560000,"tz":"Africa/Lagos"},{"id":3680656,"name":"Ibague","local":"Ибаге","country":"CO","lat":4.436,"lon":-75.203,"pop":529635,"tz":"America/Bogota"},{"id":11837657,"name":"Ichikawa","local":"Ichikawa","country":"JP","lat":35.734,"lon":139.906,"pop":496676,"tz":"Asia/Tokyo"},{"id":1710914,"name":"Imus","local":"Имус","country":"PH","lat":14.43,"lon":120.937,"pop":481949,"tz":"Asia/Manila"},{"id":1711005,"name":"Iloilo","local":"Илоило","country":"PH","lat":10.697,"lon":122.564,"pop":473728,"tz":"Asia/Manila"},{"id":2338325,"name":"Ikare","local":"Ikare","country":"NG","lat":7.526,"lon":5.753,"pop":465000,"tz":"Africa/Lagos"},{"id":361055,"name":"Ismailia","local":"Исмаилия","country":"EG","lat":30.604,"lon":32.272,"pop":429465,"tz":"Africa/Cairo"},{"id":555312,"name":"Ivanovo","local":"Иваново","country":"RU","lat":57.0,"lon":40.973,"pop":406113,"tz":"Europe/Moscow"},{"id":3526700,"name":"Iztacalco","local":"Iztacalco","country":"MX","lat":19.395,"lon":-99.098,"pop":384326,"tz":"America/Mexico_City"},{"id":4004330,"name":"Irapuato","local":"Ирапуато","country":"MX","lat":20.677,"lon":-101.356,"pop":380941,"tz":"America/Mexico_City"},{"id":1861949,"name":"Ichinomiya","local":"Итиномия","country":"JP","lat":35.3,"lon":136.8,"pop":380073,"tz":"Asia/Tokyo"},{"id":675810,"name":"Iasi","local":"Яссы","country":"RO","lat":47.167,"lon":27.6,"pop":378954,"tz":"Europe/Bucharest"},{"id":3696183,"name":"Iquitos","local":"Икитос","country":"PE","lat":-3.748,"lon":-73.253,"pop":377609,"tz":"America/Lima"},{"id":10627325,"name":"Ingombota","local":"Інгомбота","country":"AO","lat":-8.818,"lon":13.229,"pop":370000,"tz":"Africa/Luanda"},{"id":3460644,"name":"Itaquaquecetuba","local":"Itaquaquecetuba","country":"BR","lat":-23.486,"lon":-46.348,"pop":369275,"tz":"America/Sao_Paulo"},{"id":2337181,"name":"Iseyin","local":"Iseyin","country":"NG","lat":7.97,"lon":3.596,"pop":365300,"tz":"Africa/Lagos"},{"id":2338400,"name":"Ijebu Ode","local":"Ijebu Ode","country":"NG","lat":6.819,"lon":3.917,"pop":360000,"tz":"Africa/Lagos"},{"id":2112539,"name":"Iwaki","local":"Иваки","country":"JP","lat":37.05,"lon":140.883,"pop":357309,"tz":"Asia/Tokyo"},{"id":1711084,"name":"Iligan","local":"Iligan","country":"PH","lat":8.229,"lon":124.243,"pop":342618,"tz":"Asia/Manila"},{"id":2337704,"name":"Ilesa","local":"Ilesa","country":"NG","lat":7.628,"lon":4.742,"pop":325000,"tz":"Africa/Lagos"},{"id":3526682,"name":"Ixtapaluca","local":"Ixtapaluca","country":"MX","lat":19.316,"lon":-98.883,"pop":322271,"tz":"America/Mexico_City"},{"id":2646003,"name":"Islington","local":"Ислингтон","country":"GB","lat":51.536,"lon":-0.103,"pop":319143,"tz":"Europe/London"},{"id":2338313,"name":"Ikeja","local":"Ikeja","country":"NG","lat":6.597,"lon":3.342,"pop":313196,"tz":"Africa/Lagos"},{"id":1711082,"name":"Iligan City","local":"Iligan City","country":"PH","lat":8.25,"lon":124.4,"pop":312323,"tz":"Asia/Manila"},{"id":1843491,"name":"Iksan","local":"Иксан","country":"KR","lat":35.944,"lon":126.954,"pop":307000,"tz":"Asia/Seoul"},{"id":1862033,"name":"Ibaraki","local":"Ибараки","country":"JP","lat":34.816,"lon":135.568,"pop":287730,"tz":"Asia/Tokyo"},{"id":1269834,"name":"Ichalkaranji","local":"Ицалкаранџи","country":"IN","lat":16.691,"lon":74.461,"pop":287353,"tz":"Asia/Kolkata"},{"id":2112664,"name":"Ichihara","local":"Итихара","country":"JP","lat":35.517,"lon":140.083,"pop":283531,"tz":"Asia/Tokyo"},{"id":3938527,"name":"Ica","local":"Ика","country":"PE","lat":-14.075,"lon":-75.734,"pop":282407,"tz":"America/Lima"},{"id":3680450,"name":"Itaguei","local":"Итагуи","country":"CO","lat":6.185,"lon":-75.599,"pop":281853,"tz":"America/Bogota"},{"id":1269771,"name":"Imphal","local":"Импхал","country":"IN","lat":24.808,"lon":93.944,"pop":277196,"tz":"Asia/Kolkata"},{"id":1514896,"name":"Isfara","local":"Исфара","country":"TJ","lat":40.126,"lon":70.625,"pop":274000,"tz":"Asia/Dushanbe"},{"id":1220253,"name":"Istaravshan","local":"Истаравшан","country":"TJ","lat":39.914,"lon":69.003,"pop":273500,"tz":"Asia/Dushanbe"},{"id":5359777,"name":"Irvine","local":"Ирвин","country":"US","lat":33.669,"lon":-117.823,"pop":256927,"tz":"America/Los_Angeles"},{"id":3461311,"name":"Indaiatuba","local":"Индаятуба","country":"BR","lat":-23.088,"lon":-47.212,"pop":256223,"tz":"America/Sao_Paulo"},{"id":215771,"name":"Isiro","local":"Исиро","country":"CD","lat":2.774,"lon":27.616,"pop":255409,"tz":"Africa/Lubumbashi"},{"id":2338106,"name":"Ikot Ekpene","local":"Ikot Ekpene","country":"NG","lat":5.182,"lon":7.715,"pop":254806,"tz":"Africa/Lagos"},{"id":311111,"name":"Iskenderun","local":"Искендерун","country":"TR","lat":36.587,"lon":36.173,"pop":251682,"tz":"Europe/Istanbul"},{"id":2336905,"name":"Iwo","local":"Иво","country":"NG","lat":7.635,"lon":4.182,"pop":250443,"tz":"Africa/Lagos"},{"id":1321937,"name":"Insein","local":"Insein","country":"MM","lat":16.889,"lon":96.103,"pop":247675,"tz":"Asia/Yangon"},{"id":3460718,"name":"Itapevi","local":"Itapevi","country":"BR","lat":-23.549,"lon":-46.934,"pop":240961,"tz":"America/Sao_Paulo"},{"id":3460950,"name":"Itaborai","local":"Итабораи","country":"BR","lat":-22.744,"lon":-42.859,"pop":240040,"tz":"America/Sao_Paulo"},{"id":707471,"name":"Ivano-Frankivsk","local":"Ивано-Франковск","country":"UA","lat":48.923,"lon":24.712,"pop":238196,"tz":"Europe/Kyiv"},{"id":4700168,"name":"Irving","local":"Ирвинг","country":"US","lat":32.814,"lon":-96.949,"pop":236607,"tz":"America/Chicago"},{"id":3461144,"name":"Ipatinga","local":"Ипатинга","country":"BR","lat":-19.468,"lon":-42.537,"pop":228746,"tz":"America/Sao_Paulo"},{"id":2338273,"name":"Ikire","local":"Ikire","country":"NG","lat":7.37,"lon":4.186,"pop":222160,"tz":"Africa/Lagos"},{"id":3655673,"name":"Ibarra","local":"Ибарра","country":"EC","lat":0.349,"lon":-78.125,"pop":221149,"tz":"America/Guayaquil"},{"id":3398269,"name":"Imperatriz","local":"Императрис","country":"BR","lat":-5.526,"lon":-47.492,"pop":218106,"tz":"America/Fortaleza"},{"id":1861436,"name":"Isesaki","local":"Исэсаки","country":"JP","lat":36.317,"lon":139.2,"pop":211850,"tz":"Asia/Tokyo"},{"id":3460634,"name":"Itaquera","local":"Itaquera","country":"BR","lat":-23.532,"lon":-46.444,"pop":210960,"tz":"America/Sao_Paulo"},{"id":159492,"name":"Ifakara","local":"Ifakara","country":"TZ","lat":-8.133,"lon":36.683,"pop":205843,"tz":"Africa/Dar_es_Salaam"},{"id":3460949,"name":"Itabuna","local":"Итабуна","country":"BR","lat":-14.786,"lon":-39.28,"pop":205660,"tz":"America/Bahia"},{"id":6317317,"name":"Itaim Paulista","local":"Itaim Paulista","country":"BR","lat":-23.503,"lon":-46.386,"pop":205295,"tz":"America/Sao_Paulo"},{"id":159071,"name":"Iringa","local":"Иринга","country":"TZ","lat":-7.767,"lon":35.7,"pop":202490,"tz":"Africa/Dar_es_Salaam"},{"id":3887127,"name":"Iquique","local":"Икике","country":"CL","lat":-20.213,"lon":-70.15,"pop":199587,"tz":"America/Santiago"},{"id":1861310,"name":"Itami","local":"Итами","country":"JP","lat":34.784,"lon":135.401,"pop":198138,"tz":"Asia/Tokyo"},{"id":745028,"name":"Izmit","local":"Измит","country":"TR","lat":40.765,"lon":29.929,"pop":196571,"tz":"Europe/Istanbul"},{"id":1843702,"name":"Icheon-si","local":"Icheon-si","country":"KR","lat":37.279,"lon":127.442,"pop":196230,"tz":"Asia/Seoul"},{"id":2337207,"name":"Ise-Ekiti","local":"Ise-Ekiti","country":"NG","lat":7.465,"lon":5.423,"pop":190063,"tz":"Africa/Lagos"},{"id":1861107,"name":"Izumi","local":"Izumi","country":"JP","lat":34.483,"lon":135.433,"pop":184615,"tz":"Asia/Tokyo"},{"id":11204237,"name":"Ivory Park","local":"Ivory Park","country":"ZA","lat":-25.996,"lon":28.197,"pop":184383,"tz":"Africa/Johannesburg"},{"id":2337765,"name":"Ila Orangun","local":"Ila Orangun","country":"NG","lat":8.017,"lon":4.904,"pop":179192,"tz":"Africa/Lagos"},{"id":2646057,"name":"Ipswich","local":"Ипсуич","country":"GB","lat":52.059,"lon":1.155,"pop":178835,"tz":"Europe/London"},{"id":355628,"name":"Idku","local":"Идку","country":"EG","lat":31.307,"lon":30.298,"pop":177152,"tz":"Africa/Cairo"},{"id":1861084,"name":"Izumo","local":"Идзумо","country":"JP","lat":35.367,"lon":132.767,"pop":172775,"tz":"Asia/Tokyo"},{"id":311073,"name":"Isparta","local":"Испарта","country":"TR","lat":37.764,"lon":30.552,"pop":172334,"tz":"Europe/Istanbul"},{"id":1926134,"name":"Imabari","local":"Imabari","country":"JP","lat":34.07,"lon":133.0,"pop":170986,"tz":"Asia/Tokyo"},{"id":3461563,"name":"Ibirite","local":"Ибирите","country":"BR","lat":-20.022,"lon":-44.059,"pop":170537,"tz":"America/Sao_Paulo"},{"id":3433360,"name":"Ituzaingo","local":"Ituzaingó","country":"AR","lat":-27.585,"lon":-56.687,"pop":168419,"tz":"America/Argentina/Cordoba"},{"id":2646277,"name":"Ilford","local":"Илфорд","country":"GB","lat":51.558,"lon":0.073,"pop":168168,"tz":"Europe/London"},{"id":2338385,"name":"Ijero-Ekiti","local":"Ijero-Ekiti","country":"NG","lat":7.815,"lon":5.067,"pop":167632,"tz":"Africa/Lagos"},{"id":1861171,"name":"Iwata","local":"Ивата","country":"JP","lat":34.7,"lon":137.85,"pop":166672,"tz":"Asia/Tokyo"},{"id":2337490,"name":"Inisa","local":"Inisa","country":"NG","lat":7.849,"lon":4.33,"pop":164161,"tz":"Africa/Lagos"},{"id":1711146,"name":"Ilagan","local":"Илаган","country":"PH","lat":17.149,"lon":121.889,"pop":164020,"tz":"Asia/Manila"},{"id":287830,"name":"'Ibri","local":"‘Ibrī","country":"OM","lat":23.226,"lon":56.516,"pop":163473,"tz":"Asia/Muscat"},{"id":3460748,"name":"Itapecerica da Serra","local":"Итапесерика-да-Серра","country":"BR","lat":-23.717,"lon":-46.849,"pop":158522,"tz":"America/Sao_Paulo"},{"id":3460728,"name":"Itapetininga","local":"Итапетининга","country":"BR","lat":-23.592,"lon":-48.053,"pop":157790,"tz":"America/Sao_Paulo"},{"id":3460845,"name":"Itajai","local":"Итажаи","country":"BR","lat":-26.908,"lon":-48.662,"pop":155716,"tz":"America/Sao_Paulo"},{"id":3461408,"name":"Ilheus","local":"Ильеус","country":"BR","lat":-14.799,"lon":-39.032,"pop":155499,"tz":"America/Bahia"},{"id":11962378,"name":"Iguatemi","local":"Iguatemi","country":"BR","lat":-23.613,"lon":-46.427,"pop":149700,"tz":"America/Sao_Paulo"},{"id":6822163,"name":"Iruma","local":"Ирума","country":"JP","lat":35.818,"lon":139.368,"pop":147166,"tz":"Asia/Tokyo"},{"id":2545957,"name":"Inezgane","local":"Inezgane","country":"MA","lat":30.355,"lon":-9.536,"pop":142320,"tz":"Africa/Casablanca"},{"id":130802,"name":"Ilam","local":"Илам","country":"IR","lat":33.637,"lon":46.423,"pop":140940,"tz":"Asia/Tehran"},{"id":2112576,"name":"Ishinomaki","local":"Исиномаки","country":"JP","lat":38.417,"lon":141.3,"pop":140151,"tz":"Asia/Tokyo"},{"id":2337313,"name":"Irewe","local":"Irewe","country":"NG","lat":6.417,"lon":3.141,"pop":139494,"tz":"Africa/Lagos"},{"id":3460535,"name":"Itu","local":"Иту","country":"BR","lat":-23.264,"lon":-47.299,"pop":137586,"tz":"America/Sao_Paulo"},{"id":261745,"name":"Irakleion","local":"Ираклион","country":"GR","lat":35.328,"lon":25.143,"pop":137154,"tz":"Europe/Athens"},{"id":2338711,"name":"Igboho","local":"Igboho","country":"NG","lat":8.838,"lon":3.756,"pop":136764,"tz":"Africa/Lagos"},{"id":1861464,"name":"Isahaya","local":"Исахая","country":"JP","lat":32.841,"lon":130.043,"pop":135546,"tz":"Asia/Tokyo"},{"id":1861602,"name":"Inazawa","local":"Инадзава","country":"JP","lat":35.25,"lon":136.783,"pop":134751,"tz":"Asia/Tokyo"},{"id":2338269,"name":"Ikirun","local":"Ikirun","country":"NG","lat":7.913,"lon":4.667,"pop":134240,"tz":"Africa/Lagos"},{"id":745169,"name":"Inegol","local":"İnegol","country":"TR","lat":40.078,"lon":29.513,"pop":133959,"tz":"Europe/Istanbul"},{"id":2775220,"name":"Innsbruck","local":"Инсбрук","country":"AT","lat":47.263,"lon":11.395,"pop":132493,"tz":"Europe/Vienna"},{"id":1160939,"name":"Iranshahr","local":"Iranshahr","country":"IR","lat":27.202,"lon":60.685,"pop":131232,"tz":"Asia/Tehran"},{"id":3397909,"name":"Itapipoca","local":"Итапипока","country":"BR","lat":-3.494,"lon":-39.579,"pop":131123,"tz":"America/Fortaleza"},{"id":1861212,"name":"Iwakuni","local":"Ивакуни","country":"JP","lat":34.163,"lon":132.22,"pop":129125,"tz":"Asia/Tokyo"},{"id":169389,"name":"Idlib","local":"Идлиб","country":"SY","lat":35.931,"lon":36.634,"pop":128840,"tz":"Asia/Damascus"},{"id":555129,"name":"Ivanovskoye","local":"Ивановское","country":"RU","lat":55.767,"lon":37.833,"pop":128000,"tz":"Europe/Moscow"},{"id":1861835,"name":"Iizuka","local":"Иидзука","country":"JP","lat":33.637,"lon":130.687,"pop":126364,"tz":"Asia/Tokyo"},{"id":3460899,"name":"Itaguai","local":"Итагуаи","country":"BR","lat":-22.852,"lon":-43.775,"pop":123980,"tz":"America/Sao_Paulo"},{"id":1861450,"name":"Ise","local":"Исэ","country":"JP","lat":34.483,"lon":136.7,"pop":123533,"tz":"Asia/Tokyo"},{"id":3397967,"name":"Itaituba","local":"Итајтуба","country":"BR","lat":-4.276,"lon":-55.984,"pop":123314,"tz":"America/Santarem"},{"id":1643078,"name":"Indramayu","local":"Indramayu","country":"ID","lat":-6.326,"lon":108.32,"pop":123263,"tz":"Asia/Jakarta"},{"id":3460598,"name":"Itatiba","local":"Itatiba","country":"BR","lat":-23.006,"lon":-46.839,"pop":122581,"tz":"America/Sao_Paulo"},{"id":3398352,"name":"Igarassu","local":"Игарасу","country":"BR","lat":-7.834,"lon":-34.906,"pop":122312,"tz":"America/Recife"},{"id":1861749,"name":"Ikoma","local":"Икома","country":"JP","lat":34.683,"lon":135.7,"pop":120741,"tz":"Asia/Tokyo"},{"id":2895992,"name":"Ingolstadt","local":"Ингольштадт","country":"DE","lat":48.765,"lon":11.424,"pop":120658,"tz":"Europe/Berlin"},{"id":8469668,"name":"International City","local":"International City","country":"AE","lat":25.164,"lon":55.41,"pop":120000,"tz":"Asia/Dubai"},{"id":130697,"name":"Izeh","local":"Īz̄eh","country":"IR","lat":31.83,"lon":49.868,"pop":119399,"tz":"Asia/Tehran"},{"id":3526798,"name":"Iguala de la Independencia","local":"Игуала-де-ла-Индепенденсия","country":"MX","lat":18.345,"lon":-99.541,"pop":118468,"tz":"America/Mexico_City"},{"id":2337659,"name":"Ilobu","local":"Ilobu","country":"NG","lat":7.839,"lon":4.487,"pop":118089,"tz":"Africa/Lagos"},{"id":233299,"name":"Ibanda","local":"Ibanda","country":"UG","lat":-0.134,"lon":30.496,"pop":117700,"tz":"Africa/Kampala"},{"id":4391812,"name":"Independence","local":"Индепенденс","country":"US","lat":39.091,"lon":-94.416,"pop":117255,"tz":"America/Chicago"},{"id":215976,"name":"Ilebo","local":"Илебо","country":"CD","lat":-4.331,"lon":20.586,"pop":117245,"tz":"Africa/Lubumbashi"},{"id":3461109,"name":"Ipiranga","local":"Ipiranga","country":"BR","lat":-23.6,"lon":-46.616,"pop":116271,"tz":"America/Sao_Paulo"},{"id":2315419,"name":"Inkisi","local":"Inkisi","country":"CD","lat":-5.131,"lon":15.054,"pop":115317,"tz":"Africa/Kinshasa"},{"id":1710544,"name":"Iriga City","local":"Iriga City","country":"PH","lat":13.432,"lon":123.412,"pop":115306,"tz":"Asia/Manila"},{"id":2112656,"name":"Ichinoseki","local":"Итиносеки","country":"JP","lat":38.917,"lon":141.133,"pop":114476,"tz":"Asia/Tokyo"},{"id":3460960,"name":"Itabira","local":"Итабира","country":"BR","lat":-19.619,"lon":-43.227,"pop":113343,"tz":"America/Sao_Paulo"},{"id":3397893,"name":"Itacoatiara","local":"Itacoatiara","country":"BR","lat":-3.143,"lon":-58.444,"pop":112520,"tz":"America/Manaus"},{"id":5359488,"name":"Inglewood","local":"Инглвуд","country":"US","lat":33.962,"lon":-118.353,"pop":111666,"tz":"America/Los_Angeles"},{"id":2338403,"name":"Ijebu-Igbo","local":"Ijebu-Igbo","country":"NG","lat":6.972,"lon":3.999,"pop":109261,"tz":"Africa/Lagos"},{"id":1861164,"name":"Iwatsuki","local":"Iwatsuki","country":"JP","lat":35.965,"lon":139.696,"pop":108833,"tz":"Asia/Tokyo"},{"id":3460733,"name":"Itaperuna","local":"Итаперуна","country":"BR","lat":-21.205,"lon":-41.888,"pop":107246,"tz":"America/Sao_Paulo"},{"id":3398115,"name":"Ipojuca","local":"Ипожука","country":"BR","lat":-8.399,"lon":-35.064,"pop":105638,"tz":"America/Recife"},{"id":6822179,"name":"Inzai","local":"Индзай","country":"JP","lat":35.835,"lon":140.164,"pop":105463,"tz":"Asia/Tokyo"},{"id":1861795,"name":"Ikeda","local":"Икеда","country":"JP","lat":34.822,"lon":135.43,"pop":104993,"tz":"Asia/Tokyo"},{"id":554787,"name":"Izmaylovo","local":"Измайлово","country":"RU","lat":55.787,"lon":37.802,"pop":104000,"tz":"Europe/Moscow"},{"id":3460974,"name":"Itabaiana","local":"Itabaiana","country":"BR","lat":-10.685,"lon":-37.425,"pop":103440,"tz":"America/Maceio"},{"id":1861449,"name":"Isehara","local":"Isehara","country":"JP","lat":35.399,"lon":139.31,"pop":103401,"tz":"Asia/Tokyo"},{"id":3460791,"name":"Itanhaem","local":"Итаньяэн","country":"BR","lat":-24.183,"lon":-46.789,"pop":103102,"tz":"America/Sao_Paulo"},{"id":2338287,"name":"Ikere-Ekiti","local":"Ikere-Ekiti","country":"NG","lat":7.497,"lon":5.23,"pop":103054,"tz":"Africa/Lagos"},{"id":3460523,"name":"Ituiutaba","local":"Итиютаба","country":"BR","lat":-18.974,"lon":-49.462,"pop":102217,"tz":"America/Sao_Paulo"},{"id":311665,"name":"Igdir","local":"Игдир","country":"TR","lat":39.924,"lon":44.045,"pop":101700,"tz":"Europe/Istanbul"},{"id":1861864,"name":"Iida","local":"Иида","country":"JP","lat":35.52,"lon":137.821,"pop":101536,"tz":"Asia/Tokyo"},{"id":1710470,"name":"Isulan","local":"Isulan","country":"PH","lat":6.629,"lon":124.605,"pop":101455,"tz":"Asia/Manila"},{"id":10173001,"name":"Itaim Bibi","local":"Itaim Bibi","country":"BR","lat":-23.586,"lon":-46.682,"pop":101452,"tz":"America/Sao_Paulo"},{"id":1769014,"name":"Ijok","local":"Ijok","country":"MY","lat":3.317,"lon":101.4,"pop":100899,"tz":"Asia/Kuala_Lumpur"},{"id":1269653,"name":"Itarsi","local":"Itārsi","country":"IN","lat":22.615,"lon":77.762,"pop":100574,"tz":"Asia/Kolkata"},{"id":1861091,"name":"Izumisano","local":"Идзумисано","country":"JP","lat":34.417,"lon":135.317,"pop":100131,"tz":"Asia/Tokyo"},{"id":334227,"name":"Inda Silase","local":"Inda Silasē","country":"ET","lat":14.103,"lon":38.283,"pop":100100,"tz":"Africa/Addis_Ababa"},{"id":11612341,"name":"Itoshima","local":"Itoshima","country":"JP","lat":33.542,"lon":130.184,"pop":98877,"tz":"Asia/Tokyo"},{"id":3398331,"name":"Iguatu","local":"Iguatu","country":"BR","lat":-6.359,"lon":-39.299,"pop":98064,"tz":"America/Fortaleza"},{"id":2895669,"name":"Iserlohn","local":"Изерлон","country":"DE","lat":51.375,"lon":7.703,"pop":97910,"tz":"Europe/Berlin"},{"id":3460584,"name":"Itauna","local":"Итауна","country":"BR","lat":-20.075,"lon":-44.576,"pop":97669,"tz":"America/Sao_Paulo"},{"id":1045114,"name":"Inhambane","local":"Иньямбане","country":"MZ","lat":-23.865,"lon":35.383,"pop":95388,"tz":"Africa/Maputo"},{"id":11612578,"name":"Inagi","local":"Inagi","country":"JP","lat":35.633,"lon":139.5,"pop":93151,"tz":"Asia/Tokyo"},{"id":3460834,"name":"Itajuba","local":"Итажуба","country":"BR","lat":-22.426,"lon":-45.453,"pop":93073,"tz":"America/Sao_Paulo"},{"id":2338669,"name":"Igbo-Ora","local":"Igbo-Ora","country":"NG","lat":7.434,"lon":3.288,"pop":92719,"tz":"Africa/Lagos"},{"id":6822125,"name":"Imizu","local":"Imizu","country":"JP","lat":36.768,"lon":137.126,"pop":90742,"tz":"Asia/Tokyo"},{"id":2337148,"name":"Isieke","local":"Isieke","country":"NG","lat":6.382,"lon":8.037,"pop":89990,"tz":"Africa/Lagos"},{"id":3460723,"name":"Itapeva","local":"Itapeva","country":"BR","lat":-23.982,"lon":-48.876,"pop":89728,"tz":"America/Sao_Paulo"},{"id":11468270,"name":"Iga","local":"Iga","country":"JP","lat":34.758,"lon":136.135,"pop":88895,"tz":"Asia/Tokyo"},{"id":2338876,"name":"Ifo","local":"Ifo","country":"NG","lat":6.815,"lon":3.195,"pop":88272,"tz":"Africa/Lagos"},{"id":2315579,"name":"Idiofa","local":"Idiofa","country":"CD","lat":-4.966,"lon":19.592,"pop":87882,"tz":"Africa/Kinshasa"},{"id":5359446,"name":"Indio","local":"Индио","country":"US","lat":33.721,"lon":-116.217,"pop":87533,"tz":"America/Los_Angeles"},{"id":2338630,"name":"Igede-Ekiti","local":"Igede-Ekiti","country":"NG","lat":7.668,"lon":5.126,"pop":87282,"tz":"Africa/Lagos"},{"id":2795011,"name":"Ixelles","local":"Иксель","country":"BE","lat":50.833,"lon":4.367,"pop":86671,"tz":"Europe/Brussels"},{"id":2339150,"name":"Idanre","local":"Idanre","country":"NG","lat":7.113,"lon":5.116,"pop":86468,"tz":"Africa/Lagos"},{"id":355648,"name":"Ibshaway","local":"Ibshawāy","country":"EG","lat":29.359,"lon":30.681,"pop":86186,"tz":"Africa/Cairo"},{"id":2129870,"name":"Iwamizawa","local":"Ивамидзава","country":"JP","lat":43.2,"lon":141.76,"pop":85107,"tz":"Asia/Tokyo"},{"id":256601,"name":"Ilion","local":"Ílion","country":"GR","lat":38.033,"lon":23.7,"pop":84793,"tz":"Europe/Athens"},{"id":3461444,"name":"Ijui","local":"Ижуи","country":"BR","lat":-28.388,"lon":-53.915,"pop":84780,"tz":"America/Sao_Paulo"},{"id":11461652,"name":"Idaiyarpalaiyam","local":"Idaiyarpālaiyam","country":"IN","lat":11.039,"lon":76.924,"pop":83908,"tz":"Asia/Kolkata"},{"id":2338497,"name":"Ihiala","local":"Ihiala","country":"NG","lat":5.855,"lon":6.859,"pop":83265,"tz":"Africa/Lagos"},{"id":2337352,"name":"Ipoti","local":"Ipoti","country":"NG","lat":7.874,"lon":5.077,"pop":82113,"tz":"Africa/Lagos"},{"id":1185207,"name":"Ishwardi","local":"Ishwardi","country":"BD","lat":24.129,"lon":89.066,"pop":81995,"tz":"Asia/Dhaka"},{"id":3460522,"name":"Itumbiara","local":"Итумбиара","country":"BR","lat":-18.419,"lon":-49.215,"pop":79582,"tz":"America/Sao_Paulo"},{"id":2338242,"name":"Ikom","local":"Ikom","country":"NG","lat":5.967,"lon":8.706,"pop":79103,"tz":"Africa/Lagos"},{"id":196231,"name":"Isiolo","local":"Исиоло","country":"KE","lat":0.355,"lon":37.582,"pop":78650,"tz":"Africa/Nairobi"},{"id":8310138,"name":"Ilioupoli","local":"Ilioúpoli","country":"GR","lat":37.931,"lon":23.768,"pop":78153,"tz":"Europe/Athens"},{"id":3680539,"name":"Ipiales","local":"Ипьялес","country":"CO","lat":0.825,"lon":-77.64,"pop":77729,"tz":"America/Bogota"},{"id":355417,"name":"Itay al Barud","local":"Ītāy al Bārūd","country":"EG","lat":30.887,"lon":30.667,"pop":77606,"tz":"Africa/Cairo"},{"id":3097872,"name":"Inowroclaw","local":"Иновроцлав","country":"PL","lat":52.799,"lon":18.264,"pop":77597,"tz":"Europe/Warsaw"},{"id":3460740,"name":"Itapema","local":"Итапема","country":"BR","lat":-27.09,"lon":-48.611,"pop":75940,"tz":"America/Sao_Paulo"},{"id":3461528,"name":"Ibiuna","local":"Ibiúna","country":"BR","lat":-23.656,"lon":-47.222,"pop":75605,"tz":"America/Sao_Paulo"},{"id":2338640,"name":"Igbo-Ukwu","local":"Игбо-Укву","country":"NG","lat":6.018,"lon":7.02,"pop":75224,"tz":"Africa/Lagos"},{"id":3461013,"name":"Irece","local":"Irecê","country":"BR","lat":-11.304,"lon":-41.856,"pop":74507,"tz":"America/Bahia"},{"id":1861095,"name":"Izumiotsu","local":"Идзумотсу","country":"JP","lat":34.5,"lon":135.4,"pop":74412,"tz":"Asia/Tokyo"},{"id":355420,"name":"Itsa","local":"Iţsā","country":"EG","lat":29.238,"lon":30.789,"pop":74357,"tz":"Africa/Cairo"},{"id":4862034,"name":"Iowa City","local":"Айова-Сити","country":"US","lat":41.661,"lon":-91.53,"pop":74220,"tz":"America/Chicago"},{"id":2338810,"name":"Igbara-Odo","local":"Igbara-Odo","country":"NG","lat":7.503,"lon":5.063,"pop":74121,"tz":"Africa/Lagos"},{"id":1064121,"name":"Imerintsiatosika","local":"Imerintsiatosika","country":"MG","lat":-18.983,"lon":47.317,"pop":74085,"tz":"Indian/Antananarivo"},{"id":1861528,"name":"Inuyama","local":"Инуяма","country":"JP","lat":35.38,"lon":136.943,"pop":73995,"tz":"Asia/Tokyo"},{"id":2546917,"name":"Ifrane","local":"Ифран","country":"MA","lat":33.527,"lon":-5.11,"pop":73782,"tz":"Africa/Casablanca"},{"id":2112571,"name":"Ishioka","local":"Исиока","country":"JP","lat":36.183,"lon":140.267,"pop":73061,"tz":"Asia/Tokyo"},{"id":3460699,"name":"Itapira","local":"Итапира","country":"BR","lat":-22.436,"lon":-46.822,"pop":72022,"tz":"America/Sao_Paulo"},{"id":3461316,"name":"Indaial","local":"Indaial","country":"BR","lat":-26.898,"lon":-49.232,"pop":71549,"tz":"America/Sao_Paulo"},{"id":3199145,"name":"Ilidza","local":"Илиджа","country":"BA","lat":43.831,"lon":18.307,"pop":71277,"tz":"Europe/Sarajevo"},{"id":555980,"name":"Ishimbay","local":"Ишимбай","country":"RU","lat":53.448,"lon":56.039,"pop":70421,"tz":"Asia/Yekaterinburg"},{"id":7997918,"name":"Inaruwa","local":"Inaruwa","country":"NP","lat":26.607,"lon":87.148,"pop":70093,"tz":"Asia/Kathmandu"},{"id":1710770,"name":"Indang","local":"Indang","country":"PH","lat":14.195,"lon":120.877,"pop":70092,"tz":"Asia/Manila"},{"id":3175537,"name":"Imola","local":"Имола","country":"IT","lat":44.359,"lon":11.713,"pop":69953,"tz":"Europe/Rome"},{"id":707308,"name":"Izmail","local":"Измаил","country":"UA","lat":45.351,"lon":28.838,"pop":69932,"tz":"Europe/Kyiv"},{"id":2315417,"name":"Inongo","local":"Inongo","country":"CD","lat":-1.927,"lon":18.288,"pop":68852,"tz":"Africa/Kinshasa"},{"id":1861290,"name":"Ito","local":"Ито","country":"JP","lat":34.967,"lon":139.083,"pop":68773,"tz":"Asia/Tokyo"},{"id":2339156,"name":"Idah","local":"Idah","country":"NG","lat":7.113,"lon":6.739,"pop":68703,"tz":"Africa/Lagos"},{"id":2287790,"name":"Issia","local":"Issia","country":"CI","lat":6.492,"lon":-6.586,"pop":68263,"tz":"Africa/Abidjan"},{"id":1861641,"name":"Ina","local":"Ина","country":"JP","lat":35.828,"lon":137.954,"pop":68177,"tz":"Asia/Tokyo"},{"id":1505453,"name":"Ishim","local":"Ишим","country":"RU","lat":56.113,"lon":69.487,"pop":67762,"tz":"Asia/Yekaterinburg"},{"id":3979673,"name":"Ixtapa-Zihuatanejo","local":"Сиуатанехо","country":"MX","lat":17.643,"lon":-101.552,"pop":67408,"tz":"America/Mexico_City"},{"id":3736808,"name":"Iranduba","local":"Iranduba","country":"BR","lat":-3.285,"lon":-60.186,"pop":67114,"tz":"America/Manaus"},{"id":172082,"name":"I`zaz","local":"Азаз","country":"SY","lat":36.587,"lon":37.046,"pop":66138,"tz":"Asia/Damascus"},{"id":3460730,"name":"Itapetinga","local":"Itapetinga","country":"BR","lat":-15.249,"lon":-40.248,"pop":65897,"tz":"America/Bahia"},{"id":261779,"name":"Ioannina","local":"Јанина","country":"GR","lat":39.663,"lon":20.852,"pop":65574,"tz":"Europe/Athens"},{"id":233275,"name":"Iganga","local":"Иганга","country":"UG","lat":0.609,"lon":33.469,"pop":65500,"tz":"Africa/Kampala"},{"id":12432866,"name":"Itapoa","local":"Itapoã","country":"BR","lat":-15.749,"lon":-47.769,"pop":65408,"tz":"America/Sao_Paulo"},{"id":707565,"name":"Irpin","local":"Ирпень","country":"UA","lat":50.522,"lon":30.251,"pop":65167,"tz":"Europe/Kyiv"},{"id":3460966,"name":"Itaberaba","local":"Itaberaba","country":"BR","lat":-12.527,"lon":-40.307,"pop":65073,"tz":"America/Bahia"},{"id":3437918,"name":"Itaugua","local":"Итаугуа","country":"PY","lat":-25.393,"lon":-57.354,"pop":64997,"tz":"America/Asuncion"},{"id":3398343,"name":"Igarape Miri","local":"Igarapé Miri","country":"BR","lat":-1.975,"lon":-48.96,"pop":64831,"tz":"America/Belem"},{"id":3397969,"name":"Itaitinga","local":"Itaitinga","country":"BR","lat":-3.969,"lon":-38.528,"pop":64650,"tz":"America/Fortaleza"},{"id":1861699,"name":"Imaichi","local":"Imaichi","country":"JP","lat":36.717,"lon":139.683,"pop":64323,"tz":"Asia/Tokyo"},{"id":355596,"name":"Ihnasiyah","local":"Ihnāsīyah","country":"EG","lat":29.093,"lon":31.02,"pop":64058,"tz":"Africa/Cairo"},{"id":3398379,"name":"Ico","local":"Icó","country":"BR","lat":-6.401,"lon":-38.862,"pop":62642,"tz":"America/Fortaleza"},{"id":707601,"name":"Inhulets","local":"Інгулець","country":"UA","lat":47.73,"lon":33.252,"pop":62173,"tz":"Europe/Kyiv"},{"id":3120304,"name":"Irun","local":"Ирун","country":"ES","lat":43.339,"lon":-1.789,"pop":61983,"tz":"Europe/Madrid"},{"id":1505429,"name":"Iskitim","local":"Искитим","country":"RU","lat":54.643,"lon":83.304,"pop":61827,"tz":"Asia/Novosibirsk"},{"id":3012649,"name":"Issy-les-Moulineaux","local":"Исси-ле-Мулино","country":"FR","lat":48.821,"lon":2.277,"pop":61447,"tz":"Europe/Paris"},{"id":5099724,"name":"Irvington","local":"Irvington","country":"US","lat":40.732,"lon":-74.235,"pop":61323,"tz":"America/New_York"},{"id":1861280,"name":"Itoman","local":"Itoman","country":"JP","lat":26.126,"lon":127.669,"pop":61007,"tz":"Asia/Tokyo"},{"id":3397936,"name":"Itapecuru Mirim","local":"Itapecuru Mirim","country":"BR","lat":-3.393,"lon":-44.359,"pop":60440,"tz":"America/Fortaleza"},{"id":1269784,"name":"Ilkal","local":"Ilkal","country":"IN","lat":15.959,"lon":76.114,"pop":60242,"tz":"Asia/Kolkata"},{"id":3461550,"name":"Ibitinga","local":"Ibitinga","country":"BR","lat":-21.758,"lon":-48.829,"pop":60033,"tz":"America/Sao_Paulo"},{"id":1710441,"name":"Itogon","local":"Itogon","country":"PH","lat":16.364,"lon":120.677,"pop":59736,"tz":"Asia/Manila"},{"id":3460826,"name":"Itamaraju","local":"Itamaraju","country":"BR","lat":-17.039,"lon":-39.531,"pop":59605,"tz":"America/Bahia"},{"id":1269655,"name":"Itanagar","local":"Итанагар","country":"IN","lat":27.087,"lon":93.61,"pop":59490,"tz":"Asia/Kolkata"},{"id":3461017,"name":"Irati","local":"Irati","country":"BR","lat":-25.467,"lon":-50.651,"pop":59250,"tz":"America/Sao_Paulo"},{"id":5596475,"name":"Idaho Falls","local":"Айдахо-Фолс","country":"US","lat":43.467,"lon":-112.034,"pop":59184,"tz":"America/Boise"},{"id":3461519,"name":"Icara","local":"Исара","country":"BR","lat":-28.713,"lon":-49.3,"pop":59035,"tz":"America/Sao_Paulo"},{"id":2129909,"name":"Ishikari","local":"Исикари","country":"JP","lat":43.24,"lon":141.354,"pop":58755,"tz":"Asia/Tokyo"},{"id":1861677,"name":"Imaricho-ko","local":"Имари","country":"JP","lat":33.274,"lon":129.879,"pop":57940,"tz":"Asia/Tokyo"},{"id":3012621,"name":"Ivry-sur-Seine","local":"Иври-сюр-Сен","country":"FR","lat":48.816,"lon":2.385,"pop":57897,"tz":"Europe/Paris"},{"id":2189529,"name":"Invercargill","local":"Инверкаргилл","country":"NZ","lat":-46.4,"lon":168.35,"pop":57600,"tz":"Pacific/Auckland"},{"id":3461124,"name":"Ipira","local":"Ipirá","country":"BR","lat":-12.158,"lon":-39.737,"pop":56876,"tz":"America/Bahia"},{"id":4897543,"name":"Irving Park","local":"Irving Park","country":"US","lat":41.953,"lon":-87.736,"pop":56520,"tz":"America/Chicago"},{"id":1710932,"name":"Impasugong","local":"Impasugong","country":"PH","lat":8.31,"lon":125.002,"pop":55901,"tz":"Asia/Manila"},{"id":1269665,"name":"Islampur","local":"Islāmpur","country":"IN","lat":26.265,"lon":88.19,"pop":55691,"tz":"Asia/Kolkata"},{"id":1269819,"name":"Idappadi","local":"Idappadi","country":"IN","lat":11.586,"lon":77.839,"pop":54823,"tz":"Asia/Kolkata"},{"id":1861244,"name":"Iwade","local":"Iwade","country":"JP","lat":34.25,"lon":135.317,"pop":53967,"tz":"Asia/Tokyo"},{"id":2112624,"name":"Inada","local":"Inada","country":"JP","lat":36.433,"lon":140.517,"pop":53502,"tz":"Asia/Tokyo"},{"id":3938415,"name":"Ilo","local":"Ило","country":"PE","lat":-17.632,"lon":-71.341,"pop":53476,"tz":"America/Lima"},{"id":3460954,"name":"Itabirito","local":"Itabirito","country":"BR","lat":-20.253,"lon":-43.801,"pop":53365,"tz":"America/Sao_Paulo"},{"id":361119,"name":"'Izbat 'Ali as Sayyid","local":"‘Izbat ‘Alī as Sayyid","country":"EG","lat":31.157,"lon":30.148,"pop":53079,"tz":"Africa/Cairo"},{"id":8477754,"name":"Imara Daima Estate","local":"Imara Daima Estate","country":"KE","lat":-1.323,"lon":36.88,"pop":52837,"tz":"Africa/Nairobi"},{"id":3461370,"name":"Imbituba","local":"Imbituba","country":"BR","lat":-28.24,"lon":-48.67,"pop":52579,"tz":"America/Sao_Paulo"},{"id":1063858,"name":"Ivato","local":"Ivato","country":"MG","lat":-18.8,"lon":47.483,"pop":52376,"tz":"Indian/Antananarivo"},{"id":3461194,"name":"Inhumas","local":"Inhumas","country":"BR","lat":-16.358,"lon":-49.496,"pop":52204,"tz":"America/Sao_Paulo"},{"id":1861108,"name":"Izumi","local":"Изуми","country":"JP","lat":32.083,"lon":130.367,"pop":51994,"tz":"Asia/Tokyo"},{"id":2338401,"name":"Ijebu-Jesa","local":"Ijebu-Jesa","country":"NG","lat":7.683,"lon":4.818,"pop":51730,"tz":"Africa/Lagos"},{"id":5122331,"name":"Irondequoit","local":"Ирондиквојт","country":"US","lat":43.213,"lon":-77.58,"pop":51692,"tz":"America/New_York"},{"id":3461588,"name":"Ibipora","local":"Ibiporã","country":"BR","lat":-23.269,"lon":-51.048,"pop":51603,"tz":"America/Sao_Paulo"},{"id":555111,"name":"Ivanteyevka","local":"Ивантеевка","country":"RU","lat":55.971,"lon":37.921,"pop":51085,"tz":"Europe/Moscow"},{"id":2896817,"name":"Ibbenbueren","local":"Иббенбюрен","country":"DE","lat":52.28,"lon":7.715,"pop":50577,"tz":"Europe/Berlin"},{"id":3397851,"name":"Itupiranga","local":"Itupiranga","country":"BR","lat":-5.135,"lon":-49.327,"pop":49754,"tz":"America/Belem"},{"id":2516479,"name":"Ibiza","local":"Ибица","country":"ES","lat":38.909,"lon":1.433,"pop":49727,"tz":"Europe/Madrid"},{"id":261743,"name":"Irakleio","local":"Irákleio","country":"GR","lat":38.053,"lon":23.765,"pop":49642,"tz":"Europe/Athens"},{"id":32723,"name":"Istgah-e Rah Ahan-e Garmsar","local":"Īstgāh-e Rāh Āhan-e Garmsār","country":"IR","lat":35.235,"lon":52.309,"pop":49491,"tz":"Asia/Tehran"},{"id":2259655,"name":"Impfondo","local":"Импфондо","country":"CG","lat":1.618,"lon":18.06,"pop":48939,"tz":"Africa/Brazzaville"},{"id":6822191,"name":"Izunokuni","local":"Izunokuni","country":"JP","lat":35.039,"lon":138.951,"pop":48579,"tz":"Asia/Tokyo"},{"id":6198535,"name":"Ido-dong","local":"Ido-dong","country":"KR","lat":33.498,"lon":126.527,"pop":48579,"tz":"Asia/Seoul"},{"id":1710908,"name":"Inabanga","local":"Inabanga","country":"PH","lat":10.031,"lon":124.067,"pop":48534,"tz":"Asia/Manila"},{"id":1861207,"name":"Iwakura","local":"Iwakura","country":"JP","lat":35.283,"lon":136.867,"pop":48007,"tz":"Asia/Tokyo"},{"id":1283329,"name":"Itahari","local":"Īṭahari̇̄","country":"NP","lat":26.664,"lon":87.274,"pop":47984,"tz":"Asia/Kathmandu"},{"id":243590,"name":"Iriba","local":"Ириба","country":"TD","lat":15.117,"lon":22.25,"pop":47972,"tz":"Africa/Ndjamena"},{"id":2646088,"name":"Inverness","local":"Инвернесс","country":"GB","lat":57.479,"lon":-4.224,"pop":47790,"tz":"Europe/London"},{"id":1861416,"name":"Ishigaki","local":"Ишигаки","country":"JP","lat":24.345,"lon":124.157,"pop":47637,"tz":"Asia/Tokyo"},{"id":334152,"name":"Injibara","local":"Injibara","country":"ET","lat":11.0,"lon":36.917,"pop":47500,"tz":"Africa/Addis_Ababa"},{"id":2337759,"name":"Ilaro","local":"Ilaro","country":"NG","lat":6.889,"lon":3.014,"pop":46999,"tz":"Africa/Lagos"},{"id":6822108,"name":"Inashiki","local":"Инасики","country":"JP","lat":35.956,"lon":140.324,"pop":46994,"tz":"Asia/Tokyo"},{"id":3397941,"name":"Itapage","local":"Itapagé","country":"BR","lat":-3.687,"lon":-39.586,"pop":46426,"tz":"America/Fortaleza"},{"id":707292,"name":"Izium","local":"Изюм","country":"UA","lat":49.207,"lon":37.277,"pop":45884,"tz":"Europe/Kyiv"},{"id":3461498,"name":"Igarape","local":"Igarapé","country":"BR","lat":-20.07,"lon":-44.302,"pop":45847,"tz":"America/Sao_Paulo"},{"id":159242,"name":"Ikwiriri","local":"Ikwiriri","country":"TZ","lat":-7.956,"lon":38.972,"pop":45000,"tz":"Africa/Dar_es_Salaam"},{"id":159386,"name":"Igunga","local":"Igunga","country":"TZ","lat":-4.283,"lon":33.883,"pop":45000,"tz":"Africa/Dar_es_Salaam"},{"id":6822173,"name":"Inabe","local":"Inabe","country":"JP","lat":35.113,"lon":136.572,"pop":44973,"tz":"Asia/Tokyo"},{"id":3460963,"name":"Itaberai","local":"Итабераи","country":"BR","lat":-16.02,"lon":-49.81,"pop":44734,"tz":"America/Sao_Paulo"},{"id":3460620,"name":"Itarare","local":"Итараре","country":"BR","lat":-24.113,"lon":-49.332,"pop":44438,"tz":"America/Sao_Paulo"},{"id":3012647,"name":"Istres","local":"Истра","country":"FR","lat":43.513,"lon":4.987,"pop":44373,"tz":"Europe/Paris"},{"id":2112527,"name":"Iwanuma","local":"Iwanuma","country":"JP","lat":38.105,"lon":140.859,"pop":44068,"tz":"Asia/Tokyo"},{"id":12156826,"name":"Islington-City Centre West","local":"Islington-City Centre West","country":"CA","lat":43.633,"lon":-79.543,"pop":43965,"tz":"America/Toronto"},{"id":448001,"name":"Ishaka","local":"Ishaka","country":"UG","lat":-0.543,"lon":30.137,"pop":43700,"tz":"Africa/Kampala"},{"id":5983433,"name":"Innisfil","local":"Innisfil","country":"CA","lat":44.3,"lon":-79.65,"pop":43326,"tz":"America/Toronto"},{"id":3397883,"name":"Itarema","local":"Itarema","country":"BR","lat":-2.92,"lon":-39.915,"pop":42957,"tz":"America/Fortaleza"},{"id":3526657,"name":"Izucar de Matamoros","local":"Исукар-де-Матаморос","country":"MX","lat":18.602,"lon":-98.462,"pop":42936,"tz":"America/Mexico_City"},{"id":1643089,"name":"Indralaya","local":"Indralaya","country":"ID","lat":-3.252,"lon":104.676,"pop":42498,"tz":"Asia/Jakarta"},{"id":1861223,"name":"Iwai","local":"Iwai","country":"JP","lat":36.05,"lon":139.9,"pop":42497,"tz":"Asia/Tokyo"},{"id":169372,"name":"`Irbin","local":"‘Irbīn","country":"SY","lat":33.537,"lon":36.366,"pop":42474,"tz":"Asia/Damascus"},{"id":3175532,"name":"Imperia","local":"Империя","country":"IT","lat":43.889,"lon":8.039,"pop":42328,"tz":"Europe/Rome"},{"id":1269818,"name":"Idar","local":"Idar","country":"IN","lat":23.841,"lon":73.001,"pop":42306,"tz":"Asia/Kolkata"},{"id":105586,"name":"'Irqah","local":"‘Irqah","country":"SA","lat":24.68,"lon":46.611,"pop":42179,"tz":"Asia/Riyadh"},{"id":554894,"name":"Izberbash","local":"Избербаш","country":"RU","lat":42.567,"lon":47.875,"pop":42121,"tz":"Europe/Moscow"},{"id":196185,"name":"Iten","local":"Iten","country":"KE","lat":0.67,"lon":35.508,"pop":42000,"tz":"Africa/Nairobi"},{"id":1064275,"name":"Ihosy","local":"Ihosy","country":"MG","lat":-22.403,"lon":46.126,"pop":41892,"tz":"Indian/Antananarivo"},{"id":1505526,"name":"Irbit","local":"Ирбит","country":"RU","lat":57.669,"lon":63.071,"pop":41647,"tz":"Asia/Yekaterinburg"},{"id":1862034,"name":"Ibara","local":"Ибара","country":"JP","lat":34.6,"lon":133.467,"pop":41460,"tz":"Asia/Tokyo"},{"id":1142330,"name":"Istalif","local":"Istālif","country":"AF","lat":34.833,"lon":69.078,"pop":41413,"tz":"Asia/Kabul"},{"id":3398112,"name":"Ipu","local":"Ipu","country":"BR","lat":-4.322,"lon":-40.711,"pop":41081,"tz":"America/Fortaleza"},{"id":1861285,"name":"Itoigawa","local":"Итоигава","country":"JP","lat":37.033,"lon":137.85,"pop":40765,"tz":"Asia/Tokyo"},{"id":3461129,"name":"Ipiau","local":"Ипиау","country":"BR","lat":-14.134,"lon":-39.739,"pop":40706,"tz":"America/Bahia"},{"id":10929640,"name":"Icchannur","local":"Icchannūr","country":"IN","lat":11.361,"lon":75.778,"pop":40697,"tz":"Asia/Kolkata"},{"id":3460971,"name":"Itabaianinha","local":"Itabaianinha","country":"BR","lat":-11.274,"lon":-37.79,"pop":40678,"tz":"America/Maceio"},{"id":2550898,"name":"Imzouren","local":"Imzouren","country":"MA","lat":35.146,"lon":-3.851,"pop":40000,"tz":"Africa/Casablanca"},{"id":789996,"name":"Istok","local":"Исток","country":"XK","lat":42.781,"lon":20.488,"pop":40000,"tz":"Europe/Belgrade"},{"id":3460738,"name":"Itapemirim","local":"Итапемирин","country":"BR","lat":-21.011,"lon":-40.834,"pop":39832,"tz":"America/Sao_Paulo"},{"id":3460671,"name":"Itapolis","local":"Itápolis","country":"BR","lat":-21.596,"lon":-48.813,"pop":39493,"tz":"America/Sao_Paulo"},{"id":2112521,"name":"Iwase","local":"Ивасэ","country":"JP","lat":36.35,"lon":140.1,"pop":39122,"tz":"Asia/Tokyo"},{"id":554770,"name":"Izobil'nyy","local":"Изобильный","country":"RU","lat":45.367,"lon":41.709,"pop":39022,"tz":"Europe/Moscow"},{"id":1862010,"name":"Ibusuki","local":"Ибусуки","country":"JP","lat":31.233,"lon":130.65,"pop":39011,"tz":"Asia/Tokyo"},{"id":3120431,"name":"Igualada","local":"Игуалада","country":"ES","lat":41.581,"lon":1.617,"pop":38918,"tz":"Europe/Madrid"},{"id":3585484,"name":"Ilopango","local":"Илопанго","country":"SV","lat":13.702,"lon":-89.109,"pop":38890,"tz":"America/El_Salvador"},{"id":1064234,"name":"Ikongo","local":"Ikongo","country":"MG","lat":-21.883,"lon":47.433,"pop":38851,"tz":"Indian/Antananarivo"},{"id":2646274,"name":"Ilkeston","local":"Ilkeston","country":"GB","lat":52.971,"lon":-1.31,"pop":38587,"tz":"Europe/London"},{"id":11147723,"name":"Ingeniero Pablo Nogues","local":"Ingeniero Pablo Nogués","country":"AR","lat":-34.478,"lon":-58.707,"pop":38470,"tz":"America/Argentina/Buenos_Aires"},{"id":3460513,"name":"Iturama","local":"Итурама","country":"BR","lat":-19.728,"lon":-50.196,"pop":38295,"tz":"America/Sao_Paulo"},{"id":1269751,"name":"Indi","local":"Indi","country":"IN","lat":17.177,"lon":75.953,"pop":38217,"tz":"Asia/Kolkata"},{"id":355392,"name":"`Izbat al Burj","local":"‘Izbat al Burj","country":"EG","lat":31.508,"lon":31.841,"pop":37953,"tz":"Africa/Cairo"},{"id":3460511,"name":"Ituverava","local":"Ituverava","country":"BR","lat":-20.339,"lon":-47.781,"pop":37571,"tz":"America/Sao_Paulo"},{"id":3461147,"name":"Ipanema","local":"Ипанема","country":"BR","lat":-22.984,"lon":-43.203,"pop":37392,"tz":"America/Sao_Paulo"},{"id":4472687,"name":"Indian Trail","local":"Indian Trail","country":"US","lat":35.077,"lon":-80.669,"pop":37073,"tz":"America/New_York"},{"id":3398077,"name":"Ipueiras","local":"Ipueiras","country":"BR","lat":-4.542,"lon":-40.719,"pop":36798,"tz":"America/Fortaleza"},{"id":3386889,"name":"Itambe","local":"Itambé","country":"BR","lat":-7.41,"lon":-35.113,"pop":36626,"tz":"America/Recife"},{"id":1269827,"name":"Ichchapuram","local":"Ichchāpuram","country":"IN","lat":19.114,"lon":84.687,"pop":36493,"tz":"Asia/Kolkata"},{"id":3461134,"name":"Ipero","local":"Iperó","country":"BR","lat":-23.35,"lon":-47.689,"pop":36459,"tz":"America/Sao_Paulo"},{"id":2338855,"name":"Igangan","local":"Igangan","country":"NG","lat":7.681,"lon":3.184,"pop":36447,"tz":"Africa/Lagos"},{"id":2336985,"name":"Itu","local":"Itu","country":"NG","lat":5.201,"lon":7.984,"pop":36358,"tz":"Africa/Lagos"},{"id":287814,"name":"Izki","local":"Izkī","country":"OM","lat":22.933,"lon":57.767,"pop":36203,"tz":"Asia/Muscat"},{"id":5798487,"name":"Issaquah","local":"Исаква","country":"US","lat":47.53,"lon":-122.033,"pop":36081,"tz":"America/Los_Angeles"},{"id":3398350,"name":"Igarape-Acu","local":"Igarapé-Açu","country":"BR","lat":-1.129,"lon":-47.62,"pop":35797,"tz":"America/Belem"},{"id":3460629,"name":"Itaqui","local":"Итака","country":"BR","lat":-29.125,"lon":-56.553,"pop":35768,"tz":"America/Sao_Paulo"},{"id":3461090,"name":"Ipora","local":"Ипора","country":"BR","lat":-16.442,"lon":-51.118,"pop":35684,"tz":"America/Sao_Paulo"},{"id":1269666,"name":"Islampur","local":"Islāmpur","country":"IN","lat":25.141,"lon":85.206,"pop":35641,"tz":"Asia/Kolkata"},{"id":3461425,"name":"Ilhabela","local":"Ilhabela","country":"BR","lat":-23.778,"lon":-45.358,"pop":35591,"tz":"America/Sao_Paulo"},{"id":6822180,"name":"Isumi","local":"Исуми","country":"JP","lat":35.23,"lon":140.405,"pop":35544,"tz":"Asia/Tokyo"},{"id":1269810,"name":"Igatpuri","local":"Igatpuri","country":"IN","lat":19.695,"lon":73.563,"pop":35461,"tz":"Asia/Kolkata"},{"id":1926006,"name":"Iyo","local":"Ие","country":"JP","lat":33.751,"lon":132.701,"pop":35133,"tz":"Asia/Tokyo"},{"id":2795100,"name":"Ieper","local":"Ипр","country":"BE","lat":50.851,"lon":2.886,"pop":35089,"tz":"Europe/Brussels"},{"id":5031412,"name":"Inver Grove Heights","local":"Инвер-Гров-Хайтс","country":"US","lat":44.848,"lon":-93.043,"pop":34857,"tz":"America/Chicago"},{"id":3526708,"name":"Ixmiquilpan","local":"Ixmiquilpan","country":"MX","lat":20.478,"lon":-99.217,"pop":34814,"tz":"America/Mexico_City"},{"id":3460665,"name":"Itaporanga d'Ajuda","local":"Itaporanga d'Ajuda","country":"BR","lat":-10.998,"lon":-37.311,"pop":34411,"tz":"America/Maceio"},{"id":7911405,"name":"Isingiro","local":"Isingiro","country":"UG","lat":-0.869,"lon":30.83,"pop":34300,"tz":"Africa/Kampala"},{"id":147982,"name":"Imishli","local":"Имишли","country":"AZ","lat":39.871,"lon":48.06,"pop":34178,"tz":"Asia/Baku"},{"id":2646032,"name":"Irvine","local":"Эрвин","country":"GB","lat":55.619,"lon":-4.655,"pop":34130,"tz":"Europe/London"},{"id":2753355,"name":"IJsselstein","local":"Иссельстейн","country":"NL","lat":52.02,"lon":5.043,"pop":33886,"tz":"Europe/Amsterdam"},{"id":3460548,"name":"Itiuba","local":"Itiúba","country":"BR","lat":-10.692,"lon":-39.854,"pop":33872,"tz":"America/Bahia"},{"id":11499877,"name":"Iramallur","local":"Iramallūr","country":"IN","lat":10.062,"lon":76.572,"pop":33829,"tz":"Asia/Kolkata"},{"id":3461224,"name":"Inhambupe","local":"Inhambupe","country":"BR","lat":-11.784,"lon":-38.353,"pop":33790,"tz":"America/Bahia"},{"id":3397983,"name":"Itaiba","local":"Itaíba","country":"BR","lat":-8.947,"lon":-37.423,"pop":33691,"tz":"America/Recife"},{"id":1861816,"name":"Ikaruga","local":"Ikaruga","country":"JP","lat":34.835,"lon":134.578,"pop":33477,"tz":"Asia/Tokyo"},{"id":555746,"name":"Istra","local":"Истра","country":"RU","lat":55.92,"lon":36.869,"pop":33390,"tz":"Europe/Moscow"},{"id":11532691,"name":"Idangansalai","local":"Idangansālai","country":"IN","lat":11.627,"lon":77.989,"pop":33245,"tz":"Asia/Kolkata"},{"id":2895569,"name":"Itzehoe","local":"Итцехо","country":"DE","lat":53.921,"lon":9.515,"pop":33047,"tz":"Europe/Berlin"},{"id":3460825,"name":"Itamarandiba","local":"Itamarandiba","country":"BR","lat":-17.857,"lon":-42.859,"pop":32948,"tz":"America/Sao_Paulo"},{"id":3461481,"name":"Igrejinha","local":"Игрежинья","country":"BR","lat":-29.574,"lon":-50.79,"pop":32808,"tz":"America/Sao_Paulo"},{"id":3460495,"name":"Ivaipora","local":"Ivaiporã","country":"BR","lat":-24.248,"lon":-51.685,"pop":32720,"tz":"America/Sao_Paulo"},{"id":3460602,"name":"Itatiaia","local":"Itatiaia","country":"BR","lat":-22.496,"lon":-44.563,"pop":32694,"tz":"America/Sao_Paulo"},{"id":3097902,"name":"Ilawa","local":"Илава","country":"PL","lat":53.596,"lon":19.568,"pop":32557,"tz":"Europe/Warsaw"},{"id":6930641,"name":"In Salah","local":"Айн-Салах","country":"DZ","lat":27.197,"lon":2.479,"pop":32518,"tz":"Africa/Algiers"},{"id":3938396,"name":"Imperial","local":"Imperial","country":"PE","lat":-13.059,"lon":-76.353,"pop":32344,"tz":"America/Lima"},{"id":3461625,"name":"Ibate","local":"Ibaté","country":"BR","lat":-21.955,"lon":-47.997,"pop":32178,"tz":"America/Sao_Paulo"},{"id":1063930,"name":"Itampolo","local":"Itampolo","country":"MG","lat":-24.683,"lon":43.95,"pop":32000,"tz":"Indian/Antananarivo"},{"id":2753376,"name":"IJmuiden","local":"Эймёйден","country":"NL","lat":52.46,"lon":4.61,"pop":31925,"tz":"Europe/Amsterdam"},{"id":311453,"name":"Imamoglu","local":"İmamoğlu","country":"TR","lat":37.265,"lon":35.657,"pop":31916,"tz":"Europe/Istanbul"},{"id":916668,"name":"Isoka","local":"Isoka","country":"ZM","lat":-10.161,"lon":32.634,"pop":31739,"tz":"Africa/Lusaka"},{"id":3460707,"name":"Itapicuru","local":"Itapicuru","country":"BR","lat":-11.317,"lon":-38.233,"pop":31679,"tz":"America/Bahia"},{"id":2896753,"name":"Idar-Oberstein","local":"Идар-Оберштайн","country":"DE","lat":49.714,"lon":7.308,"pop":31610,"tz":"Europe/Berlin"},{"id":3460734,"name":"Itaperucu","local":"Itaperuçu","country":"BR","lat":-25.22,"lon":-49.348,"pop":31217,"tz":"America/Sao_Paulo"},{"id":334043,"name":"Iteya","local":"Īteya","country":"ET","lat":8.133,"lon":39.233,"pop":31100,"tz":"Africa/Addis_Ababa"},{"id":8576507,"name":"Ikegami","local":"Ikegami","country":"JP","lat":35.577,"lon":139.705,"pop":30959,"tz":"Asia/Tokyo"},{"id":3398014,"name":"Irituia","local":"Irituia","country":"BR","lat":-1.771,"lon":-47.438,"pop":30955,"tz":"America/Belem"},{"id":5122432,"name":"Ithaca","local":"Итак","country":"US","lat":42.441,"lon":-76.497,"pop":30788,"tz":"America/New_York"},{"id":3460741,"name":"Itapoa","local":"Itapoá","country":"BR","lat":-26.117,"lon":-48.616,"pop":30750,"tz":"America/Sao_Paulo"},{"id":6822192,"name":"Izu","local":"Идзу","country":"JP","lat":34.972,"lon":138.946,"pop":30678,"tz":"Asia/Tokyo"},{"id":11462193,"name":"Irimbiliyam","local":"Irimbiliyam","country":"IN","lat":10.862,"lon":76.092,"pop":30635,"tz":"Asia/Kolkata"},{"id":3398105,"name":"Ipubi","local":"Ipubi","country":"BR","lat":-7.652,"lon":-40.149,"pop":30603,"tz":"America/Recife"},{"id":11612692,"name":"Ichikikushikino","local":"Ichikikushikino","country":"JP","lat":31.729,"lon":130.293,"pop":30551,"tz":"Asia/Tokyo"},{"id":334137,"name":"Inseno","local":"Insēno","country":"ET","lat":8.067,"lon":38.467,"pop":30500,"tz":"Africa/Addis_Ababa"},{"id":7926667,"name":"Incirli","local":"İncirli","country":"TR","lat":39.984,"lon":32.843,"pop":30440,"tz":"Europe/Istanbul"},{"id":2443304,"name":"Illela","local":"Illéla","country":"NE","lat":14.46,"lon":5.244,"pop":30439,"tz":"Africa/Niamey"},{"id":11612327,"name":"Iki","local":"Iki","country":"JP","lat":33.783,"lon":129.721,"pop":30352,"tz":"Asia/Tokyo"},{"id":1861410,"name":"Ishigami","local":"Ishigami","country":"JP","lat":36.25,"lon":139.15,"pop":30343,"tz":"Asia/Tokyo"},{"id":6317294,"name":"Ipixuna do Para","local":"Ipixuna do Pará","country":"BR","lat":-2.558,"lon":-47.495,"pop":30329,"tz":"America/Belem"},{"id":13132797,"name":"Inami","local":"Inami","country":"JP","lat":34.748,"lon":134.913,"pop":30268,"tz":"Asia/Tokyo"},{"id":3461368,"name":"Imbituva","local":"Imbituva","country":"BR","lat":-25.23,"lon":-50.604,"pop":29924,"tz":"America/Sao_Paulo"},{"id":6698332,"name":"Infernetto","local":"Infernetto","country":"IT","lat":41.735,"lon":12.362,"pop":29838,"tz":"Europe/Rome"},{"id":1861454,"name":"Isawa","local":"Isawa","country":"JP","lat":35.65,"lon":138.633,"pop":29616,"tz":"Asia/Tokyo"},{"id":3461477,"name":"Iguaba Grande","local":"Iguaba Grande","country":"BR","lat":-22.839,"lon":-42.229,"pop":29577,"tz":"America/Sao_Paulo"},{"id":10778122,"name":"Ibrahimpatnam","local":"Ibrāhīmpatnam","country":"IN","lat":16.583,"lon":80.514,"pop":29432,"tz":"Asia/Kolkata"},{"id":2516443,"name":"Ingenio","local":"Ingenio","country":"ES","lat":27.919,"lon":-15.434,"pop":29319,"tz":"Atlantic/Canary"},{"id":2516452,"name":"Inca","local":"Инка","country":"ES","lat":39.721,"lon":2.911,"pop":29308,"tz":"Europe/Madrid"},{"id":1269693,"name":"Irinjalakuda","local":"Irinjālakuda","country":"IN","lat":10.342,"lon":76.211,"pop":29208,"tz":"Asia/Kolkata"},{"id":159179,"name":"Ilula","local":"Ilula","country":"TZ","lat":-7.677,"lon":36.037,"pop":29193,"tz":"Africa/Dar_es_Salaam"},{"id":1269670,"name":"Islamnagar","local":"Islāmnagar","country":"IN","lat":28.329,"lon":78.725,"pop":29144,"tz":"Asia/Kolkata"},{"id":3461465,"name":"Iguape","local":"Игуапи","country":"BR","lat":-24.708,"lon":-47.555,"pop":29115,"tz":"America/Sao_Paulo"},{"id":169375,"name":"Inkhil","local":"Inkhil","country":"SY","lat":33.018,"lon":36.128,"pop":29076,"tz":"Asia/Damascus"},{"id":556230,"name":"Ipatovo","local":"Ипатово","country":"RU","lat":45.718,"lon":42.906,"pop":29073,"tz":"Europe/Moscow"},{"id":4004293,"name":"Ixtapa","local":"Ixtapa","country":"MX","lat":20.716,"lon":-105.205,"pop":29036,"tz":"America/Mexico_City"},{"id":3461628,"name":"Ibaiti","local":"Ibaiti","country":"BR","lat":-23.849,"lon":-50.188,"pop":28830,"tz":"America/Sao_Paulo"},{"id":556320,"name":"Inozemtsevo","local":"Иноземцево","country":"RU","lat":44.093,"lon":43.091,"pop":28779,"tz":"Europe/Moscow"},{"id":586318,"name":"Ismayilli","local":"Исмаиллы","country":"AZ","lat":40.785,"lon":48.151,"pop":28776,"tz":"Asia/Baku"},{"id":3398401,"name":"Ibimirim","local":"Ibimirim","country":"BR","lat":-8.541,"lon":-37.69,"pop":28760,"tz":"America/Recife"},{"id":3460505,"name":"Iuna","local":"Iúna","country":"BR","lat":-20.346,"lon":-41.536,"pop":28590,"tz":"America/Sao_Paulo"},{"id":6315399,"name":"Isakogorka","local":"Исакогорка","country":"RU","lat":64.446,"lon":40.653,"pop":28571,"tz":"Europe/Moscow"},{"id":790015,"name":"Ingija","local":"Инджия","country":"RS","lat":45.048,"lon":20.082,"pop":28450,"tz":"Europe/Belgrade"},{"id":238566,"name":"Ippy","local":"Ippy","country":"CF","lat":6.268,"lon":21.225,"pop":28319,"tz":"Africa/Bangui"},{"id":6317308,"name":"Itabela","local":"Itabela","country":"BR","lat":-16.575,"lon":-39.553,"pop":28165,"tz":"America/Bahia"},{"id":3461022,"name":"Irara","local":"Irará","country":"BR","lat":-12.05,"lon":-38.767,"pop":28043,"tz":"America/Bahia"},{"id":3397904,"name":"Itapissuma","local":"Itapissuma","country":"BR","lat":-7.776,"lon":-34.892,"pop":27749,"tz":"America/Recife"},{"id":3460940,"name":"Itacare","local":"Itacaré","country":"BR","lat":-14.279,"lon":-38.996,"pop":27704,"tz":"America/Bahia"},{"id":1513900,"name":"Iskandar","local":"Искандар","country":"UZ","lat":41.554,"lon":69.701,"pop":27636,"tz":"Asia/Tashkent"},{"id":2112555,"name":"Itako","local":"Итако","country":"JP","lat":35.933,"lon":140.55,"pop":27604,"tz":"Asia/Tokyo"},{"id":3398264,"name":"Inaja","local":"Inajá","country":"BR","lat":-8.902,"lon":-37.824,"pop":27488,"tz":"America/Recife"},{"id":311553,"name":"Ilgin","local":"Ilgın","country":"TR","lat":38.279,"lon":31.914,"pop":27423,"tz":"Europe/Istanbul"},{"id":5359054,"name":"Imperial Beach","local":"Импириъл Бийч","country":"US","lat":32.584,"lon":-117.113,"pop":27408,"tz":"America/Los_Angeles"},{"id":2413393,"name":"Ibo Town","local":"Ibo Town","country":"GM","lat":13.435,"lon":-16.676,"pop":27353,"tz":"Africa/Banjul"},{"id":3012834,"name":"Illkirch-Graffenstaden","local":"Илькирш-Граффенштаден","country":"FR","lat":48.529,"lon":7.715,"pop":27261,"tz":"Europe/Paris"},{"id":2896514,"name":"Ilmenau","local":"Ильменау","country":"DE","lat":50.683,"lon":10.919,"pop":27055,"tz":"Europe/Berlin"},{"id":334495,"name":"Ibnat","local":"Ibnat","country":"ET","lat":12.133,"lon":38.05,"pop":27000,"tz":"Africa/Addis_Ababa"},{"id":1711437,"name":"Iba","local":"Ибра","country":"PH","lat":15.328,"lon":119.978,"pop":26935,"tz":"Asia/Manila"},{"id":6317277,"name":"Imbe","local":"Imbé","country":"BR","lat":-29.975,"lon":-50.128,"pop":26824,"tz":"America/Sao_Paulo"},{"id":4295776,"name":"Independence","local":"Индепенденс","country":"US","lat":38.943,"lon":-84.544,"pop":26819,"tz":"America/New_York"},{"id":1269761,"name":"Indapur","local":"Indāpur","country":"IN","lat":18.3,"lon":73.25,"pop":26752,"tz":"Asia/Kolkata"},{"id":3623394,"name":"Ipis","local":"Ipís","country":"CR","lat":9.965,"lon":-84.018,"pop":26669,"tz":"America/Costa_Rica"},{"id":3460514,"name":"Ituporanga","local":"Ituporanga","country":"BR","lat":-27.414,"lon":-49.602,"pop":26525,"tz":"America/Sao_Paulo"},{"id":2795009,"name":"Izegem","local":"Изегем","country":"BE","lat":50.914,"lon":3.214,"pop":26382,"tz":"Europe/Brussels"},{"id":2043677,"name":"Iwon-up","local":"Iwŏn-ŭp","country":"KP","lat":40.323,"lon":128.655,"pop":26364,"tz":"Asia/Pyongyang"},{"id":3461525,"name":"Ibotirama","local":"Ibotirama","country":"BR","lat":-12.185,"lon":-43.221,"pop":26309,"tz":"America/Bahia"},{"id":3825011,"name":"Isla","local":"Isla","country":"MX","lat":18.028,"lon":-95.529,"pop":26287,"tz":"America/Mexico_City"},{"id":6949461,"name":"Indre By","local":"Indre By","country":"DK","lat":55.678,"lon":12.573,"pop":26223,"tz":"Europe/Copenhagen"},{"id":3461499,"name":"Igarapava","local":"Igarapava","country":"BR","lat":-20.038,"lon":-47.747,"pop":26212,"tz":"America/Sao_Paulo"},{"id":1528283,"name":"Iradan","local":"Ирадан","country":"KG","lat":40.267,"lon":72.1,"pop":26200,"tz":"Asia/Bishkek"},{"id":3526696,"name":"Ixtaczoquitlan","local":"Ixtaczoquitlán","country":"MX","lat":18.854,"lon":-97.062,"pop":26187,"tz":"America/Mexico_City"},{"id":1861586,"name":"Innoshima","local":"Innoshima","country":"JP","lat":34.283,"lon":133.183,"pop":26141,"tz":"Asia/Tokyo"},{"id":3460648,"name":"Itapuranga","local":"Itapuranga","country":"BR","lat":-15.562,"lon":-49.949,"pop":26113,"tz":"America/Sao_Paulo"},{"id":1221614,"name":"Ishqoshim","local":"Ишкашим","country":"TJ","lat":36.725,"lon":71.613,"pop":26000,"tz":"Asia/Dushanbe"},{"id":1269694,"name":"Iringal","local":"Iringal","country":"IN","lat":11.559,"lon":75.617,"pop":25894,"tz":"Asia/Kolkata"},{"id":13494063,"name":"Inner Huai Khwang","local":"Inner Huai Khwang","country":"TH","lat":13.782,"lon":100.584,"pop":25879,"tz":"Asia/Bangkok"},{"id":1843585,"name":"Imsil","local":"Imsil","country":"KR","lat":35.613,"lon":127.279,"pop":25693,"tz":"Asia/Seoul"},{"id":1269690,"name":"Irugur","local":"Irugūr","country":"IN","lat":11.018,"lon":77.063,"pop":25691,"tz":"Asia/Kolkata"},{"id":3461411,"name":"Ilha Solteira","local":"Илья-Солтейра","country":"BR","lat":-20.433,"lon":-51.343,"pop":25549,"tz":"America/Sao_Paulo"},{"id":3461151,"name":"Ipameri","local":"Ipameri","country":"BR","lat":-17.722,"lon":-48.16,"pop":25548,"tz":"America/Sao_Paulo"},{"id":3397963,"name":"Ilha de Itamaraca","local":"Ilha de Itamaracá","country":"BR","lat":-7.748,"lon":-34.826,"pop":25529,"tz":"America/Recife"},{"id":1269762,"name":"Indapur","local":"Indāpur","country":"IN","lat":18.115,"lon":75.029,"pop":25515,"tz":"Asia/Kolkata"},{"id":3663974,"name":"Ipixuna","local":"Ipixuna","country":"BR","lat":-7.051,"lon":-71.695,"pop":25458,"tz":"America/Eirunepe"},{"id":334478,"name":"Idaga Hamus","local":"Idaga Hamus","country":"ET","lat":14.187,"lon":39.564,"pop":25400,"tz":"Africa/Addis_Ababa"},{"id":3526674,"name":"Ixtepec","local":"Истепек","country":"MX","lat":16.561,"lon":-95.104,"pop":25381,"tz":"America/Mexico_City"},{"id":3461624,"name":"Ibatiba","local":"Ibatiba","country":"BR","lat":-20.234,"lon":-41.511,"pop":25380,"tz":"America/Sao_Paulo"},{"id":3461572,"name":"Ibirapitanga","local":"Ibirapitanga","country":"BR","lat":-14.164,"lon":-39.374,"pop":25344,"tz":"America/Bahia"},{"id":287832,"name":"Ibra'","local":"Ибра","country":"OM","lat":22.691,"lon":58.533,"pop":25265,"tz":"Asia/Muscat"},{"id":9291689,"name":"Itogawa","local":"Itogawa","country":"JP","lat":34.026,"lon":135.253,"pop":25258,"tz":"Asia/Tokyo"},{"id":1861825,"name":"Ijuin","local":"Ijūin","country":"JP","lat":31.617,"lon":130.4,"pop":25217,"tz":"Asia/Tokyo"},{"id":3460887,"name":"Itai","local":"Itaí","country":"BR","lat":-23.418,"lon":-49.091,"pop":25180,"tz":"America/Sao_Paulo"},{"id":1861400,"name":"Ishii","local":"Исии","country":"JP","lat":34.068,"lon":134.442,"pop":25062,"tz":"Asia/Tokyo"},{"id":159380,"name":"Igurusi","local":"Igurusi","country":"TZ","lat":-8.85,"lon":33.85,"pop":25000,"tz":"Africa/Dar_es_Salaam"},{"id":2896020,"name":"Ingelheim am Rhein","local":"Ингельхайм-ам-Райн","country":"DE","lat":49.971,"lon":8.059,"pop":24998,"tz":"Europe/Berlin"},{"id":1861261,"name":"Itsukaichi","local":"Itsukaichi","country":"JP","lat":35.725,"lon":139.218,"pop":24954,"tz":"Asia/Tokyo"},{"id":1861406,"name":"Ishige","local":"Ishige","country":"JP","lat":36.117,"lon":139.967,"pop":24948,"tz":"Asia/Tokyo"},{"id":8050879,"name":"Iturrama","local":"Iturrama","country":"ES","lat":42.808,"lon":-1.658,"pop":24846,"tz":"Europe/Madrid"},{"id":3398381,"name":"Icatu","local":"Icatu","country":"BR","lat":-2.776,"lon":-44.066,"pop":24794,"tz":"America/Fortaleza"},{"id":1269796,"name":"Ilaiyankudi","local":"Ilaiyankudi","country":"IN","lat":9.625,"lon":78.624,"pop":24767,"tz":"Asia/Kolkata"},{"id":2338772,"name":"Igbeti","local":"Igbeti","country":"NG","lat":8.749,"lon":4.131,"pop":24690,"tz":"Africa/Lagos"},{"id":4832554,"name":"Inkster","local":"Інкстер","country":"US","lat":42.294,"lon":-83.31,"pop":24672,"tz":"America/Detroit"},{"id":3461638,"name":"Iacu","local":"Iaçu","country":"BR","lat":-12.767,"lon":-40.212,"pop":24607,"tz":"America/Bahia"},{"id":3792389,"name":"Isnos","local":"Isnos","country":"CO","lat":1.936,"lon":-76.241,"pop":24593,"tz":"America/Bogota"},{"id":656688,"name":"Imatra","local":"Иматра","country":"FI","lat":61.172,"lon":28.752,"pop":24581,"tz":"Europe/Helsinki"},{"id":11611944,"name":"Isa","local":"Isa","country":"JP","lat":32.067,"lon":130.612,"pop":24453,"tz":"Asia/Tokyo"},{"id":3398355,"name":"Igaci","local":"Igaci","country":"BR","lat":-9.537,"lon":-36.634,"pop":24452,"tz":"America/Maceio"},{"id":3460813,"name":"Itambe","local":"Itambé","country":"BR","lat":-15.245,"lon":-40.624,"pop":24394,"tz":"America/Bahia"},{"id":4159553,"name":"Immokalee","local":"Иммокали","country":"US","lat":26.419,"lon":-81.417,"pop":24154,"tz":"America/New_York"},{"id":3460669,"name":"Itapora","local":"Itaporã","country":"BR","lat":-22.079,"lon":-54.789,"pop":24137,"tz":"America/Campo_Grande"},{"id":2516480,"name":"Ibi","local":"Иби","country":"ES","lat":38.625,"lon":-0.572,"pop":24113,"tz":"Europe/Madrid"},{"id":3398255,"name":"Independencia","local":"Independência","country":"BR","lat":-5.396,"lon":-40.309,"pop":24024,"tz":"America/Fortaleza"},{"id":2516474,"name":"Icod de los Vinos","local":"Икод-де-лос-Винос","country":"ES","lat":28.372,"lon":-16.712,"pop":24024,"tz":"Atlantic/Canary"},{"id":158904,"name":"Itigi","local":"Itigi","country":"TZ","lat":-5.7,"lon":34.483,"pop":24000,"tz":"Africa/Dar_es_Salaam"},{"id":1861383,"name":"Ishiki","local":"Ishiki","country":"JP","lat":34.8,"lon":137.017,"pop":23966,"tz":"Asia/Tokyo"},{"id":3398408,"name":"Ibiapina","local":"Ibiapina","country":"BR","lat":-3.923,"lon":-40.889,"pop":23965,"tz":"America/Fortaleza"},{"id":3397898,"name":"Itaporanga","local":"Itaporanga","country":"BR","lat":-7.304,"lon":-38.15,"pop":23940,"tz":"America/Fortaleza"},{"id":3398028,"name":"Iraucuba","local":"Irauçuba","country":"BR","lat":-3.746,"lon":-39.783,"pop":23915,"tz":"America/Fortaleza"},{"id":994432,"name":"Itsoseng","local":"Itsoseng","country":"ZA","lat":-26.082,"lon":25.881,"pop":23913,"tz":"Africa/Johannesburg"},{"id":196251,"name":"Isebania","local":"Isebania","country":"KE","lat":-1.225,"lon":34.464,"pop":23891,"tz":"Africa/Nairobi"},{"id":3461023,"name":"Iraquara","local":"Иракара","country":"BR","lat":-12.249,"lon":-41.619,"pop":23879,"tz":"America/Bahia"},{"id":3680434,"name":"Ituango","local":"Ituango","country":"CO","lat":7.171,"lon":-75.764,"pop":23784,"tz":"America/Bogota"},{"id":3460774,"name":"Itaocara","local":"Itaocara","country":"BR","lat":-21.669,"lon":-42.076,"pop":23643,"tz":"America/Sao_Paulo"},{"id":1861799,"name":"Ikedacho","local":"Ikedachō","country":"JP","lat":34.028,"lon":133.806,"pop":23605,"tz":"Asia/Tokyo"},{"id":3175384,"name":"Ivrea","local":"Ивреа","country":"IT","lat":45.467,"lon":7.876,"pop":23599,"tz":"Europe/Rome"},{"id":4358864,"name":"Ilchester","local":"Ілчестер","country":"US","lat":39.251,"lon":-76.765,"pop":23476,"tz":"America/New_York"},{"id":1861772,"name":"Ikeno","local":"Ikeno","country":"JP","lat":35.433,"lon":136.583,"pop":23360,"tz":"Asia/Tokyo"},{"id":1064311,"name":"Iharana","local":"Iharan̈a","country":"MG","lat":-13.35,"lon":50.0,"pop":23349,"tz":"Indian/Antananarivo"},{"id":9212569,"name":"Injambakkam","local":"Injambakkam","country":"IN","lat":12.916,"lon":80.249,"pop":23346,"tz":"Asia/Kolkata"},{"id":4004267,"name":"Ixtlan del Rio","local":"Истлан-дель-Рио","country":"MX","lat":21.039,"lon":-104.371,"pop":23303,"tz":"America/Mazatlan"},{"id":3398003,"name":"Itabaiana","local":"Itabaiana","country":"BR","lat":-7.329,"lon":-35.333,"pop":23182,"tz":"America/Fortaleza"},{"id":11189027,"name":"Iroopara","local":"Iroopara","country":"IN","lat":8.607,"lon":76.915,"pop":23113,"tz":"Asia/Kolkata"},{"id":3461501,"name":"Igaracu do Tiete","local":"Igaraçu do Tietê","country":"BR","lat":-22.509,"lon":-48.558,"pop":23106,"tz":"America/Sao_Paulo"},{"id":5359864,"name":"Isla Vista","local":"Айла-Виста","country":"US","lat":34.413,"lon":-119.861,"pop":23096,"tz":"America/Los_Angeles"},{"id":1269757,"name":"Indargarh","local":"Indargarh","country":"IN","lat":25.911,"lon":78.562,"pop":23045,"tz":"Asia/Kolkata"},{"id":3460484,"name":"Ivoti","local":"Ivoti","country":"BR","lat":-29.591,"lon":-51.161,"pop":22983,"tz":"America/Sao_Paulo"},{"id":556951,"name":"Il'skiy","local":"Ильский","country":"RU","lat":44.842,"lon":38.567,"pop":22970,"tz":"Europe/Moscow"},{"id":311704,"name":"Idil","local":"Идиль","country":"TR","lat":37.335,"lon":41.889,"pop":22960,"tz":"Europe/Istanbul"},{"id":3887344,"name":"Illapel","local":"Ильяпель","country":"CL","lat":-31.633,"lon":-71.17,"pop":22816,"tz":"America/Santiago"},{"id":2896736,"name":"Idstein","local":"Идштайн","country":"DE","lat":50.218,"lon":8.267,"pop":22810,"tz":"Europe/Berlin"},{"id":159398,"name":"Igugunu","local":"Igugunu","country":"TZ","lat":-4.567,"lon":34.633,"pop":22810,"tz":"Africa/Dar_es_Salaam"},{"id":2339287,"name":"Ibi","local":"Ibi","country":"NG","lat":8.181,"lon":9.744,"pop":22757,"tz":"Africa/Lagos"},{"id":248923,"name":"`Izra","local":"‘Izrā","country":"JO","lat":31.159,"lon":35.693,"pop":22756,"tz":"Asia/Amman"},{"id":2546128,"name":"Imi-n-Tanout","local":"Imi-n-Tanout","country":"MA","lat":31.172,"lon":-8.847,"pop":22753,"tz":"Africa/Casablanca"},{"id":7261476,"name":"Inglewood-Finn Hill","local":"Инглевуд-Фин Хил","country":"US","lat":47.72,"lon":-122.232,"pop":22707,"tz":"America/Los_Angeles"},{"id":3461214,"name":"Inhapim","local":"Inhapim","country":"BR","lat":-19.549,"lon":-42.12,"pop":22692,"tz":"America/Sao_Paulo"},{"id":2524533,"name":"Iglesias","local":"Иглезиас","country":"IT","lat":39.309,"lon":8.537,"pop":22659,"tz":"Europe/Rome"},{"id":2895664,"name":"Isernhagen Farster Bauerschaft","local":"Isernhagen Farster Bauerschaft","country":"DE","lat":52.471,"lon":9.842,"pop":22601,"tz":"Europe/Berlin"},{"id":6317339,"name":"Itinga do Maranhao","local":"Itinga do Maranhão","country":"BR","lat":-4.45,"lon":-47.526,"pop":22513,"tz":"America/Fortaleza"},{"id":6695527,"name":"Itezhi-Tezhi","local":"Itezhi-Tezhi","country":"ZM","lat":-15.737,"lon":26.042,"pop":22449,"tz":"Africa/Lusaka"},{"id":1861393,"name":"Ishikawa","local":"Исикава","country":"JP","lat":26.423,"lon":127.821,"pop":22412,"tz":"Asia/Tokyo"},{"id":11549947,"name":"Imperial","local":"Imperial","country":"ES","lat":40.406,"lon":-3.718,"pop":22385,"tz":"Europe/Madrid"},{"id":627800,"name":"Ivatsevichi","local":"Ивацевичи","country":"BY","lat":52.708,"lon":25.335,"pop":22377,"tz":"Europe/Minsk"},{"id":1063835,"name":"Ivohibe","local":"Ivohibe","country":"MG","lat":-22.483,"lon":46.883,"pop":22290,"tz":"Indian/Antananarivo"},{"id":745026,"name":"Iznik","local":"Изник","country":"TR","lat":40.429,"lon":29.721,"pop":22230,"tz":"Europe/Istanbul"},{"id":3461620,"name":"Ibia","local":"Ibiá","country":"BR","lat":-19.478,"lon":-46.539,"pop":22229,"tz":"America/Sao_Paulo"},{"id":1861584,"name":"Ino","local":"Ино","country":"JP","lat":33.55,"lon":133.433,"pop":22155,"tz":"Asia/Tokyo"},{"id":3461484,"name":"Igreja Nova","local":"Igreja Nova","country":"BR","lat":-10.125,"lon":-36.662,"pop":22125,"tz":"America/Maceio"},{"id":698709,"name":"Ihren","local":"Ogren’","country":"UA","lat":48.476,"lon":35.158,"pop":22118,"tz":"Europe/Kyiv"},{"id":2596484,"name":"I-n-Tillit","local":"I-n-Tillit","country":"ML","lat":15.546,"lon":-0.461,"pop":22100,"tz":"Africa/Bamako"},{"id":3460869,"name":"Itaiopolis","local":"Itaiópolis","country":"BR","lat":-26.336,"lon":-49.906,"pop":22051,"tz":"America/Sao_Paulo"},{"id":557469,"name":"Igra","local":"Игра","country":"RU","lat":57.555,"lon":53.054,"pop":22033,"tz":"Europe/Samara"},{"id":3461055,"name":"Iracemapolis","local":"Iracemápolis","country":"BR","lat":-22.581,"lon":-47.519,"pop":21967,"tz":"America/Sao_Paulo"},{"id":3460530,"name":"Itubera","local":"Ituberá","country":"BR","lat":-13.735,"lon":-39.148,"pop":21902,"tz":"America/Bahia"},{"id":334124,"name":"Intich'o","local":"Intich’o","country":"ET","lat":14.279,"lon":39.15,"pop":21800,"tz":"Africa/Addis_Ababa"},{"id":3461606,"name":"Ibicarai","local":"Ibicaraí","country":"BR","lat":-14.865,"lon":-39.587,"pop":21665,"tz":"America/Bahia"},{"id":3461559,"name":"Ibiruba","local":"Ibirubá","country":"BR","lat":-28.628,"lon":-53.09,"pop":21583,"tz":"America/Sao_Paulo"},{"id":11549939,"name":"Ibiza","local":"Ibiza","country":"ES","lat":40.419,"lon":-3.674,"pop":21492,"tz":"Europe/Madrid"},{"id":3461469,"name":"Iguai","local":"Iguaí","country":"BR","lat":-14.756,"lon":-40.089,"pop":21491,"tz":"America/Bahia"},{"id":3398384,"name":"Icapui","local":"Icapuí","country":"BR","lat":-4.713,"lon":-37.355,"pop":21433,"tz":"America/Fortaleza"},{"id":334252,"name":"Indabaguna","local":"Indabaguna","country":"ET","lat":13.949,"lon":38.184,"pop":21400,"tz":"Africa/Addis_Ababa"},{"id":1710666,"name":"Inopacan","local":"Inopacan","country":"PH","lat":10.5,"lon":124.74,"pop":21389,"tz":"Asia/Manila"},{"id":2516431,"name":"Isla Cristina","local":"Исла-Кристина","country":"ES","lat":37.2,"lon":-7.317,"pop":21324,"tz":"Europe/Madrid"},{"id":3120410,"name":"Illescas","local":"Ильескас","country":"ES","lat":40.122,"lon":-3.847,"pop":21264,"tz":"Europe/Madrid"},{"id":159045,"name":"Isaka","local":"Исака","country":"TZ","lat":-3.9,"lon":32.933,"pop":21094,"tz":"Africa/Dar_es_Salaam"},{"id":3460773,"name":"Itapaci","local":"Itapaci","country":"BR","lat":-14.951,"lon":-49.549,"pop":21087,"tz":"America/Sao_Paulo"},{"id":3460752,"name":"Itapecerica","local":"Itapecerica","country":"BR","lat":-20.473,"lon":-45.126,"pop":21046,"tz":"America/Sao_Paulo"},{"id":3460817,"name":"Itambacuri","local":"Итамбакури","country":"BR","lat":-18.031,"lon":-41.685,"pop":21042,"tz":"America/Sao_Paulo"},{"id":10918009,"name":"Ichinoe","local":"Ichinoe","country":"JP","lat":35.691,"lon":139.883,"pop":20927,"tz":"Asia/Tokyo"},{"id":2546028,"name":"Imouzzer Kandar","local":"Imouzzer Kandar","country":"MA","lat":33.729,"lon":-5.011,"pop":20884,"tz":"Africa/Casablanca"},{"id":3461604,"name":"Ibicoara","local":"Ibicoara","country":"BR","lat":-13.413,"lon":-41.286,"pop":20785,"tz":"America/Bahia"},{"id":1710531,"name":"Irosin","local":"Irosin","country":"PH","lat":12.7,"lon":124.032,"pop":20716,"tz":"Asia/Manila"},{"id":3460516,"name":"Itupeva","local":"Itupeva","country":"BR","lat":-23.153,"lon":-47.058,"pop":20605,"tz":"America/Sao_Paulo"},{"id":2646004,"name":"Isleworth","local":"Isleworth","country":"GB","lat":51.475,"lon":-0.342,"pop":20500,"tz":"Europe/London"},{"id":12626176,"name":"Ile-des-Soeurs","local":"Ile-des-Soeurs","country":"CA","lat":45.46,"lon":-73.548,"pop":20461,"tz":"America/Toronto"},{"id":3397877,"name":"Itatira","local":"Itatira","country":"BR","lat":-4.529,"lon":-39.622,"pop":20424,"tz":"America/Fortaleza"},{"id":656820,"name":"Iisalmi","local":"Исалми","country":"FI","lat":63.559,"lon":27.191,"pop":20330,"tz":"Europe/Helsinki"},{"id":1091197,"name":"Iapala","local":"Iapala","country":"MZ","lat":-15.025,"lon":38.042,"pop":20146,"tz":"Africa/Maputo"},{"id":1861838,"name":"Iiyama","local":"Iiyama","country":"JP","lat":36.85,"lon":138.367,"pop":20118,"tz":"Asia/Tokyo"},{"id":1505438,"name":"Isil'kul'","local":"Исилькуль","country":"RU","lat":54.912,"lon":71.272,"pop":20050,"tz":"Asia/Omsk"},{"id":108655,"name":"'Inak","local":"‘Inak","country":"SA","lat":26.52,"lon":50.027,"pop":20038,"tz":"Asia/Riyadh"},{"id":233194,"name":"Iryango","local":"Iryango","country":"UG","lat":-0.967,"lon":30.6,"pop":20000,"tz":"Africa/Kampala"},{"id":7522199,"name":"Ikebukuro","local":"Ikebukuro","country":"JP","lat":35.737,"lon":139.707,"pop":19930,"tz":"Asia/Tokyo"},{"id":1322148,"name":"Ingabu","local":"Ingabu","country":"MM","lat":17.812,"lon":95.27,"pop":19876,"tz":"Asia/Yangon"},{"id":3461576,"name":"Ibirama","local":"Ibirama","country":"BR","lat":-27.057,"lon":-49.518,"pop":19862,"tz":"America/Sao_Paulo"},{"id":745076,"name":"Iskilip","local":"İskilip","country":"TR","lat":40.735,"lon":34.474,"pop":19829,"tz":"Europe/Istanbul"},{"id":3460764,"name":"Itaparica","local":"Itaparica","country":"BR","lat":-12.888,"lon":-38.679,"pop":19789,"tz":"America/Bahia"},{"id":556283,"name":"Inza","local":"Инза","country":"RU","lat":53.853,"lon":46.351,"pop":19737,"tz":"Europe/Ulyanovsk"},{"id":159267,"name":"Ikungi","local":"Ikungi","country":"TZ","lat":-5.133,"lon":34.767,"pop":19692,"tz":"Africa/Dar_es_Salaam"},{"id":1862026,"name":"Ibi","local":"Ibi","country":"JP","lat":35.483,"lon":136.567,"pop":19529,"tz":"Asia/Tokyo"},{"id":4159896,"name":"Ives Estates","local":"Айвис-Истейтс","country":"US","lat":25.962,"lon":-80.177,"pop":19525,"tz":"America/New_York"},{"id":3461148,"name":"Ipanema","local":"Ипанема","country":"BR","lat":-19.801,"lon":-41.713,"pop":19522,"tz":"America/Sao_Paulo"},{"id":616627,"name":"Ijevan","local":"Иджеван","country":"AM","lat":40.88,"lon":45.148,"pop":19500,"tz":"Asia/Yerevan"},{"id":2619377,"name":"Ishoj","local":"Ishøj","country":"DK","lat":55.615,"lon":12.352,"pop":19453,"tz":"Europe/Copenhagen"},{"id":2646042,"name":"Irlam","local":"Ирлэм","country":"GB","lat":53.443,"lon":-2.423,"pop":19442,"tz":"Europe/London"},{"id":6317333,"name":"Itaquirai","local":"Itaquiraí","country":"BR","lat":-23.474,"lon":-54.185,"pop":19423,"tz":"America/Campo_Grande"},{"id":1505260,"name":"Ivdel'","local":"Ивдель","country":"RU","lat":60.691,"lon":60.421,"pop":19379,"tz":"Asia/Yekaterinburg"},{"id":1861883,"name":"Igusa","local":"Igusa","country":"JP","lat":35.967,"lon":139.467,"pop":19378,"tz":"Asia/Tokyo"},{"id":3585473,"name":"Izalco","local":"Исалько","country":"SV","lat":13.745,"lon":-89.673,"pop":19197,"tz":"America/El_Salvador"},{"id":1710612,"name":"Ipil","local":"Ipil","country":"PH","lat":7.784,"lon":122.586,"pop":19195,"tz":"Asia/Manila"},{"id":6317328,"name":"Itaobim","local":"Itaobim","country":"BR","lat":-16.562,"lon":-41.503,"pop":19151,"tz":"America/Sao_Paulo"},{"id":3460594,"name":"Itatinga","local":"Itatinga","country":"BR","lat":-23.102,"lon":-48.616,"pop":19070,"tz":"America/Sao_Paulo"},{"id":9865313,"name":"Iijima","local":"Iijima","country":"JP","lat":36.09,"lon":136.36,"pop":18965,"tz":"Asia/Tokyo"},{"id":159218,"name":"Ilembula","local":"Ilembula","country":"TZ","lat":-8.9,"lon":34.583,"pop":18870,"tz":"Africa/Dar_es_Salaam"},{"id":2112583,"name":"Ishikawa","local":"Исикава","country":"JP","lat":37.15,"lon":140.45,"pop":18817,"tz":"Asia/Tokyo"},{"id":3461565,"name":"Ibirataia","local":"Ibirataia","country":"BR","lat":-14.067,"lon":-39.641,"pop":18792,"tz":"America/Bahia"},{"id":3460831,"name":"Itajuipe","local":"Itajuípe","country":"BR","lat":-14.678,"lon":-39.375,"pop":18781,"tz":"America/Bahia"},{"id":283621,"name":"Idhna","local":"Idhnā","country":"PS","lat":31.559,"lon":34.974,"pop":18727,"tz":"Asia/Hebron"},{"id":5099738,"name":"Iselin","local":"Айзелин","country":"US","lat":40.575,"lon":-74.322,"pop":18695,"tz":"America/New_York"},{"id":5122413,"name":"Islip","local":"Ајслип","country":"US","lat":40.73,"lon":-73.21,"pop":18689,"tz":"America/New_York"},{"id":311314,"name":"Incirliova","local":"Инджирлиова","country":"TR","lat":37.852,"lon":27.724,"pop":18572,"tz":"Europe/Istanbul"},{"id":3175458,"name":"Ischia","local":"Искья","country":"IT","lat":40.738,"lon":13.949,"pop":18564,"tz":"Europe/Rome"},{"id":8299620,"name":"Isle of Lewis","local":"Isle of Lewis","country":"GB","lat":58.219,"lon":-6.388,"pop":18500,"tz":"Europe/London"},{"id":2896538,"name":"Illingen","local":"Иллинген","country":"DE","lat":49.374,"lon":7.048,"pop":18488,"tz":"Europe/Berlin"},{"id":3437954,"name":"Ita","local":"Itá","country":"PY","lat":-25.501,"lon":-57.367,"pop":18459,"tz":"America/Asuncion"},{"id":3397897,"name":"Itapororoca","local":"Itapororoca","country":"BR","lat":-6.83,"lon":-35.247,"pop":18382,"tz":"America/Fortaleza"},{"id":13494694,"name":"Inam Maniyachi","local":"Inam Maniyachi","country":"IN","lat":9.171,"lon":77.851,"pop":18258,"tz":"Asia/Kolkata"},{"id":3175453,"name":"Ischia Porto","local":"Ischia Porto","country":"IT","lat":40.739,"lon":13.951,"pop":18192,"tz":"Europe/Rome"},{"id":2112570,"name":"Ishitsuka","local":"Ishitsuka","country":"JP","lat":36.483,"lon":140.383,"pop":18097,"tz":"Asia/Tokyo"},{"id":158825,"name":"Izazi","local":"Izazi","country":"TZ","lat":-7.2,"lon":35.733,"pop":18010,"tz":"Africa/Dar_es_Salaam"},{"id":7290697,"name":"Izluchinsk","local":"Излучинск","country":"RU","lat":60.979,"lon":76.924,"pop":18000,"tz":"Asia/Yekaterinburg"},{"id":3460967,"name":"Itabera","local":"Itaberá","country":"BR","lat":-23.862,"lon":-49.137,"pop":17983,"tz":"America/Sao_Paulo"},{"id":3460531,"name":"Ituacu","local":"Ituaçu","country":"BR","lat":-13.813,"lon":-41.297,"pop":17914,"tz":"America/Bahia"},{"id":3397903,"name":"Itapiuna","local":"Itapiúna","country":"BR","lat":-4.564,"lon":-38.922,"pop":17841,"tz":"America/Fortaleza"},{"id":3460785,"name":"Itanhem","local":"Itanhém","country":"BR","lat":-17.166,"lon":-40.33,"pop":17813,"tz":"America/Bahia"},{"id":159107,"name":"Ipinda","local":"Ipinda","country":"TZ","lat":-9.483,"lon":33.9,"pop":17775,"tz":"Africa/Dar_es_Salaam"},{"id":3398224,"name":"Inga","local":"Ingá","country":"BR","lat":-7.281,"lon":-35.604,"pop":17692,"tz":"America/Fortaleza"},{"id":2338660,"name":"Igbor","local":"Igbor","country":"NG","lat":7.451,"lon":8.608,"pop":17666,"tz":"Africa/Lagos"},{"id":3526681,"name":"Ixtapan de la Sal","local":"Ixtapan de la Sal","country":"MX","lat":18.844,"lon":-99.677,"pop":17640,"tz":"America/Mexico_City"},{"id":3398419,"name":"Iati","local":"Iati","country":"BR","lat":-9.046,"lon":-36.846,"pop":17605,"tz":"America/Recife"},{"id":1514829,"name":"Istiqlol","local":"Табошар","country":"TJ","lat":40.57,"lon":69.642,"pop":17600,"tz":"Asia/Dushanbe"},{"id":1528252,"name":"Ivanovka","local":"Ивановка","country":"KG","lat":42.888,"lon":75.085,"pop":17513,"tz":"Asia/Bishkek"},{"id":1283333,"name":"Ilam","local":"Ilām","country":"NP","lat":26.909,"lon":87.928,"pop":17491,"tz":"Asia/Kathmandu"},{"id":1269731,"name":"Indri","local":"Indri","country":"IN","lat":29.88,"lon":77.06,"pop":17487,"tz":"Asia/Kolkata"},{"id":2337680,"name":"Illela","local":"Illela","country":"NG","lat":13.731,"lon":5.298,"pop":17461,"tz":"Africa/Lagos"},{"id":1269752,"name":"Indergarh","local":"Indergarh","country":"IN","lat":26.935,"lon":79.671,"pop":17366,"tz":"Asia/Kolkata"},{"id":159186,"name":"Ilongero","local":"Ilongero","country":"TZ","lat":-4.667,"lon":34.867,"pop":17342,"tz":"Africa/Dar_es_Salaam"},{"id":4765553,"name":"Idylwood","local":"Айдилвуд","country":"US","lat":38.895,"lon":-77.212,"pop":17288,"tz":"America/New_York"},{"id":10866536,"name":"Igusa","local":"Igusa","country":"JP","lat":35.727,"lon":139.618,"pop":17284,"tz":"Asia/Tokyo"},{"id":2738707,"name":"Ilhavo","local":"Ílhavo","country":"PT","lat":40.602,"lon":-8.67,"pop":17236,"tz":"Europe/Lisbon"},{"id":10910231,"name":"Iriveri","local":"Irivēri","country":"IN","lat":11.856,"lon":75.474,"pop":17231,"tz":"Asia/Kolkata"},{"id":3460942,"name":"Itacarambi","local":"Itacarambi","country":"BR","lat":-15.102,"lon":-44.092,"pop":17208,"tz":"America/Sao_Paulo"},{"id":3461153,"name":"Ipaba","local":"Ipaba","country":"BR","lat":-19.414,"lon":-42.419,"pop":17136,"tz":"America/Sao_Paulo"},{"id":3398076,"name":"Ipueiras","local":"Ipueiras","country":"BR","lat":-7.033,"lon":-40.45,"pop":17111,"tz":"America/Fortaleza"},{"id":5359052,"name":"Imperial","local":"Імперіал","country":"US","lat":32.848,"lon":-115.569,"pop":17095,"tz":"America/Los_Angeles"},{"id":6317286,"name":"Indiara","local":"Indiara","country":"BR","lat":-17.138,"lon":-49.988,"pop":17061,"tz":"America/Sao_Paulo"},{"id":3460622,"name":"Itarantim","local":"Itarantim","country":"BR","lat":-15.66,"lon":-40.066,"pop":17052,"tz":"America/Bahia"},{"id":3461406,"name":"Ilhota","local":"Ilhota","country":"BR","lat":-26.9,"lon":-48.827,"pop":17046,"tz":"America/Sao_Paulo"},{"id":3460836,"name":"Itajobi","local":"Itajobi","country":"BR","lat":-21.318,"lon":-49.054,"pop":16989,"tz":"America/Sao_Paulo"},{"id":3461539,"name":"Ibitita","local":"Ibititá","country":"BR","lat":-11.547,"lon":-41.977,"pop":16969,"tz":"America/Bahia"},{"id":1861225,"name":"Iwai","local":"Iwai","country":"JP","lat":35.75,"lon":139.233,"pop":16958,"tz":"Asia/Tokyo"},{"id":3175445,"name":"Isernia","local":"Изерния","country":"IT","lat":41.596,"lon":14.234,"pop":16945,"tz":"Europe/Rome"},{"id":1861341,"name":"Isogo","local":"Isogo","country":"JP","lat":35.408,"lon":139.619,"pop":16706,"tz":"Asia/Tokyo"},{"id":1505933,"name":"Ilanskiy","local":"Иланский","country":"RU","lat":56.235,"lon":96.067,"pop":16668,"tz":"Asia/Krasnoyarsk"},{"id":1386329,"name":"Islamgarh","local":"Islamgarh","country":"PK","lat":33.19,"lon":73.838,"pop":16651,"tz":"Asia/Karachi"},{"id":3460698,"name":"Itapiranga","local":"Itapiranga","country":"BR","lat":-27.169,"lon":-53.712,"pop":16638,"tz":"America/Sao_Paulo"},{"id":3460542,"name":"Itororo","local":"Itororó","country":"BR","lat":-15.117,"lon":-40.07,"pop":16617,"tz":"America/Bahia"},{"id":1064366,"name":"Ifanadiana","local":"Ифанадиана","country":"MG","lat":-21.3,"lon":47.633,"pop":16607,"tz":"Indian/Antananarivo"},{"id":3461592,"name":"Ibipeba","local":"Ibipeba","country":"BR","lat":-11.641,"lon":-42.011,"pop":16603,"tz":"America/Bahia"},{"id":3397886,"name":"Itaquitinga","local":"Itaquitinga","country":"BR","lat":-7.668,"lon":-35.102,"pop":16554,"tz":"America/Recife"},{"id":3461289,"name":"Indiaroba","local":"Indiaroba","country":"BR","lat":-11.519,"lon":-37.512,"pop":16549,"tz":"America/Maceio"},{"id":2896546,"name":"Illertissen","local":"Иллертиссен","country":"DE","lat":48.223,"lon":10.103,"pop":16522,"tz":"Europe/Berlin"},{"id":2775260,"name":"Innere Stadt","local":"Innere Stadt","country":"AT","lat":48.209,"lon":16.371,"pop":16450,"tz":"Europe/Vienna"},{"id":833357,"name":"Ilinden","local":"Белимбегово","country":"MK","lat":41.993,"lon":21.581,"pop":16406,"tz":"Europe/Skopje"},{"id":9891071,"name":"Ishinari","local":"Ishinari","country":"JP","lat":33.362,"lon":130.405,"pop":16323,"tz":"Asia/Tokyo"},{"id":3526662,"name":"Izamal","local":"Izamal","country":"MX","lat":20.933,"lon":-89.019,"pop":16195,"tz":"America/Merida"},{"id":627811,"name":"Ivanovo","local":"Иваново","country":"BY","lat":52.147,"lon":25.532,"pop":16172,"tz":"Europe/Minsk"},{"id":707296,"name":"Iziaslav","local":"Изяслав","country":"UA","lat":50.12,"lon":26.825,"pop":16162,"tz":"Europe/Kyiv"},{"id":1590225,"name":"It Ong","local":"Ít Ong","country":"VN","lat":21.517,"lon":104.027,"pop":16153,"tz":"Asia/Bangkok"},{"id":3460553,"name":"Itirapina","local":"Itirapina","country":"BR","lat":-22.253,"lon":-47.823,"pop":16148,"tz":"America/Sao_Paulo"},{"id":3938451,"name":"Ilave","local":"Ilave","country":"PE","lat":-16.083,"lon":-69.667,"pop":16033,"tz":"America/Lima"},{"id":3012664,"name":"Issoire","local":"Иссуар","country":"FR","lat":45.544,"lon":3.249,"pop":15984,"tz":"Europe/Paris"},{"id":2337379,"name":"Iperu","local":"Iperu","country":"NG","lat":6.91,"lon":3.666,"pop":15935,"tz":"Africa/Lagos"},{"id":1710518,"name":"Isabela","local":"Изабела","country":"PH","lat":10.205,"lon":122.989,"pop":15897,"tz":"Asia/Manila"},{"id":10867078,"name":"Inokashira","local":"Inokashira","country":"JP","lat":35.693,"lon":139.583,"pop":15853,"tz":"Asia/Tokyo"},{"id":3461089,"name":"Ipora","local":"Iporã","country":"BR","lat":-24.003,"lon":-53.704,"pop":15746,"tz":"America/Sao_Paulo"},{"id":6317335,"name":"Itatim","local":"Itatim","country":"BR","lat":-12.712,"lon":-39.698,"pop":15737,"tz":"America/Bahia"},{"id":745039,"name":"Istinye","local":"İstinye","country":"TR","lat":41.11,"lon":29.051,"pop":15721,"tz":"Europe/Istanbul"},{"id":1064258,"name":"Ikalamavony","local":"Ikalamavony","country":"MG","lat":-21.15,"lon":46.583,"pop":15601,"tz":"Indian/Antananarivo"},{"id":2339293,"name":"Ibeto","local":"Ibeto","country":"NG","lat":10.485,"lon":5.145,"pop":15565,"tz":"Africa/Lagos"},{"id":3460615,"name":"Itariri","local":"Itariri","country":"BR","lat":-24.289,"lon":-47.174,"pop":15528,"tz":"America/Sao_Paulo"},{"id":3461503,"name":"Igapora","local":"Igaporã","country":"BR","lat":-13.773,"lon":-42.714,"pop":15527,"tz":"America/Bahia"},{"id":4861719,"name":"Indianola","local":"Индианола","country":"US","lat":41.358,"lon":-93.557,"pop":15467,"tz":"America/Chicago"},{"id":3012829,"name":"Illzach","local":"Ильзак","country":"FR","lat":47.774,"lon":7.352,"pop":15457,"tz":"Europe/Paris"},{"id":707679,"name":"Ilovays'k","local":"Иловайск","country":"UA","lat":47.925,"lon":38.202,"pop":15447,"tz":"Europe/Kyiv"},{"id":3398192,"name":"Inhapi","local":"Inhapi","country":"BR","lat":-9.221,"lon":-37.749,"pop":15417,"tz":"America/Maceio"},{"id":4159805,"name":"Iona","local":"Iona","country":"US","lat":26.52,"lon":-81.964,"pop":15369,"tz":"America/New_York"},{"id":3460837,"name":"Itagiba","local":"Itagibá","country":"BR","lat":-14.284,"lon":-39.843,"pop":15310,"tz":"America/Bahia"},{"id":3460788,"name":"Itanhandu","local":"Itanhandu","country":"BR","lat":-22.296,"lon":-44.935,"pop":15236,"tz":"America/Sao_Paulo"},{"id":1269824,"name":"Ichhawar","local":"Ichhāwar","country":"IN","lat":23.028,"lon":77.017,"pop":15221,"tz":"Asia/Kolkata"},{"id":1064131,"name":"Imerimandroso","local":"Имеримандрусу","country":"MG","lat":-17.433,"lon":48.583,"pop":15095,"tz":"Indian/Antananarivo"},{"id":2337235,"name":"Isanlu-Itedoijowa","local":"Isanlu-Itedoijowa","country":"NG","lat":8.273,"lon":5.835,"pop":15087,"tz":"Africa/Lagos"},{"id":10311513,"name":"Inokura","local":"Inokura","country":"JP","lat":33.801,"lon":130.684,"pop":15080,"tz":"Asia/Tokyo"},{"id":2493605,"name":"Ighram","local":"Ighram","country":"DZ","lat":36.463,"lon":4.505,"pop":15030,"tz":"Africa/Algiers"}]