[{"id":993800,"name":"Johannesburg","names":{"en":"Johannesburg","de":"Johannesburg","es":"Johannesburgo","ar":"جوهانسبرغ","fa":"ژوهانسبورگ","fr":"Johannesbourg","id":"Johannesburg","it":"Johannesburg","ja":"ヨハネスブルグ","ko":"요하네스버그","nl":"Johannesburg","pl":"Johannesburg","pt":"Joanesburgo","ro":"Johannesburg","sv":"Johannesburg","tr":"Johannesburg","ru":"Йоханнесбург","sw":"Johannesburg","vi":"Johannesburg","el":"Γιοχάνεσμπουργκ","ur":"جوہانسبرگ","hy":"Յոհաննեսբուրգ","mr":"जोहान्सबर्ग","hi":"जोहान्सबर्ग","ta":"ஜோகானஸ்பேர்க்","ka":"იოჰანესბურგი","uk":"Йоганнесбург","th":"โจฮันเนสเบิร์ก","az":"Yohannesburq","am":"ጆሃንስበርግ","ky":"Йоханнесбург","zh":"约翰内斯堡","tt":"Yohannesburg","kk":"Йоханнесбург","uz":"Yoxannesburg"},"country":"ZA","lat":-26.20227,"lon":28.04363,"pop":9418183,"search_terms":["johannesburg","ஜோகானஸ்பேர்க்","约翰内斯堡","yohannesburq","yoxannesburg","जोहान्सबर्ग","йоганнесбург","йоханнесбург","ヨハネスブルグ","johannesbourg","جوہانسبرگ","ژوهانسبورگ","იოჰანესბურგი","johannesburgo","joanesburgo","요하네스버그","جوهانسبرغ","โจฮันเนสเบิร์ก","yohannesburg","γιοχάνεσμπουργκ","յոհաննեսբուրգ","jo'anna","ጆሃንስበርግ"]},{"id":1642911,"name":"Jakarta","names":{"en":"Jakarta","id":"Jakarta","de":"Jakarta","es":"Yakarta","ar":"جاكارتا","bn":"জাকার্তা","fr":"Jakarta","hi":"जकार्ता","ja":"ジャカルタ","ko":"자카르타","ms":"Jakarta","nl":"Jakarta","pl":"Dżakarta","pt":"Jakarta","ru":"Джакарта","sv":"Jakarta","th":"จาการ์ตา","tr":"Jakarta","cs":"Jakarta","it":"Giacarta","el":"Τζακάρτα","am":"ጃካርታ","fa":"جاکارتا","sw":"Jakarta","vi":"Jakarta","az":"Cakarta","hy":"Ջակարտա","uk":"Джакарта","ta":"ஜகார்த்தா","te":"జకార్తా","mr":"जकार्ता","kk":"Джакарта","ku":"Cakarta","ka":"ჯაკარტა","ur":"جکارتہ","ps":"جکارتا","tl":"Yakarta","zh":"雅加达"},"country":"ID","lat":-6.21462,"lon":106.84513,"pop":8540121,"search_terms":["ջակարտա","ジャカルタ","جکارتا","ጃካርታ","자카르타","جاكارتا","জাকার্তা","జకార్తా","جکارتہ","雅加达","dżakarta","djakarta","yakarta","ஜகார்த்தா","جاکارتا","big durian","जकार्ता","τζακάρτα","จาการ์ตา","джакарта","ჯაკარტა","giacarta","jakarta","new york van java","cakarta"]},{"id":105343,"name":"Jeddah","names":{"en":"Jeddah","de":"Dschidda","ar":"جدة","fa":"جده","fr":"Djeddah","id":"Jeddah","nl":"Djedda","pl":"Dżudda","pt":"Jidá","ja":"ジッダ","it":"Jedda","tr":"Cidde","es":"Jeddah","ru":"Джидда","sv":"Jeddah","hi":"जेद्दाह","cs":"Džidda","ta":"ஜித்தா","el":"Τζέντα","ur":"جدہ","hy":"Ջիդդա","uk":"Джидда","kk":"Жидда","mr":"जेद्दाह","ko":"제다","ka":"ჯიდა","th":"ญิดดะฮ์","ps":"جده","tk":"Jidde","az":"Ciddə","zh":"吉达","bn":"জেদ্দা","ro":"Djedda","ky":"Жидда"},"country":"SA","lat":21.49012,"lon":39.18624,"pop":4697000,"search_terms":["dżudda","ஜித்தா","제다","yidda","지다","ジッダ","ჯიდა","cidde","yida","jedda","吉达","جده","जेद्दाह","جدہ","jidde","jidda","جدة","džidda","τζέντα","dschidda","jidá","جدّة","jeddah","djedda","жидда","ջիդդա","ciddə","জেদ্দা","ญิดดะฮ์","djeddah","джидда"]},{"id":1805753,"name":"Jinan","names":{"en":"Jinan","de":"Jinan","fr":"Jinan","id":"Jinan","ja":"済南市","nl":"Jinan","pl":"Jinan","pt":"Jinan","sv":"Jinan","zh":"济南","es":"Jinan","ko":"지난 시","vi":"Tế Nam","ru":"Цзинань","fa":"جینان","cs":"Ťi-nan","uk":"Цзінань","ar":"جينان","hi":"जीनान","th":"จี่หนาน","el":"Τζινάν","hy":"Ցզինան","ur":"جینان","uz":"Szinan"},"country":"CN","lat":36.66833,"lon":116.99722,"pop":4335989,"search_terms":["ťi-nan","济南","جینان","jinan","जीनान","済南","szinan","tế nam","τζινάν","جينان","지난 시","จี่หนาน","цзинань","ցզինան","цзінань","済南市"]},{"id":1269515,"name":"Jaipur","names":{"en":"Jaipur","de":"Jaipur","es":"Jaipur","fr":"Jaipur","hi":"जयपुर","ko":"자이푸르","mr":"जयपूर","nl":"Jaipur","pl":"Dźajpur","pt":"Jaipur","ro":"Jaipur","sv":"Jaipur","ta":"செய்ப்பூர்","ja":"ジャイプル","it":"Jaipur","id":"Jaipur","ru":"Джайпур","tr":"Jaipur","ur":"جے پور","bn":"জয়পুর","fa":"جایپور","uk":"Джайпур","ar":"جايبور","el":"Τζαϊπούρ","ka":"ჯაიპური","cs":"Džajpur","zh":"齋浦爾","ps":"جيپور","th":"ชัยปุระ","hy":"Ջայպուր","ky":"Жайпур","az":"Caypur"},"country":"IN","lat":26.91962,"lon":75.78781,"pop":3046163,"search_terms":["جايبور","τζαϊπούρ","ջայպուր","ชัยปุระ","ジャイプル","জয়পুর","جے پور","jaipur","齋浦爾","жайпур","जयपूर","جایپور","செய்ப்பூர்","ჯაიპური","जयपुर","자이푸르","جيپور","džajpur","caypur","джайпур","dźajpur"]},{"id":1797121,"name":"Jieyang","names":{"en":"Jieyang","de":"Jieyang","zh":"揭阳市","cs":"Ťie-jang","ja":"掲陽市","ko":"지에양 시","vi":"Yết Dương","ru":"Цзеян","fa":"جیه‌یانگ","ur":"جیئیانگ"},"country":"CN","lat":23.5418,"lon":116.36581,"pop":1899394,"search_terms":["yết dương","ťie-jang","揭阳市","掲陽市","جیه‌یانگ","جیئیانگ","цзеян","jieyang","지에양 시"]},{"id":2036502,"name":"Jilin","names":{"en":"Jilin","pl":"Jilin","de":"Jilin","fr":"Jilin","id":"Kota Jilin","it":"Jilin","ja":"吉林市","nl":"Jilin","zh":"吉林市","ko":"지린 시","pt":"Jilin","ru":"Цзилинь","es":"Ciudad de Jilin","vi":"Cát Lâm","cs":"Ťi-lin","fa":"جی‌لین","ky":"Гирин","ur":"جیلن شہر"},"country":"CN","lat":43.84652,"lon":126.5608,"pop":1895865,"search_terms":["cát lâm","гирин","ťi-lin","جی‌لین","지린 시","kota jilin","jilin","吉林","цзилинь","吉林市","جیلن شہر","ciudad de jilin"]},{"id":1806508,"name":"Jiading","names":{"en":"Jiading"},"country":"CN","lat":31.38575,"lon":121.24465,"pop":1886100,"search_terms":["jiading"]},{"id":1806299,"name":"Jiangmen","names":{"en":"Jiangmen","de":"Jiangmen","fr":"Jiangmen","zh":"江门市","ru":"Цзянмэнь","ko":"장먼 시","ja":"江門市","cs":"Ťiang-men","fa":"ژیانگمن","ur":"جیانگمین","uk":"Цзянмень","vi":"Giang Môn"},"country":"CN","lat":22.58333,"lon":113.08333,"pop":1795459,"search_terms":["江门市","цзянмэнь","장먼 시","jiangmen","цзянмень","ژیانگمن","цзянмынь","جیانگمین","kongmoon","giang môn","江門市","ťiang-men"]},{"id":1815251,"name":"Jiangyin","names":{"en":"Jiangyin","zh":"澄江"},"country":"CN","lat":31.91102,"lon":120.26302,"pop":1779515,"search_terms":["江阴市","澄江街道","jiangyin","澄江"]},{"id":1805528,"name":"Jinhua","names":{"en":"Jinhua","ru":"Цзиньхуа","zh":"金华","cs":"Ťin-chua","ja":"金華市","ko":"진화 시","vi":"Kim Hoa","ar":"جينهوا","fa":"جینهوا","ur":"جنہوا"},"country":"CN","lat":29.10678,"lon":119.64421,"pop":1463990,"search_terms":["jinhua","金華市","kim hoa","ťin-chua","جینهوا","金华","جينهوا","진화 시","金华市","цзиньхуа","جنہوا"]},{"id":1797658,"name":"Jinjiang","names":{"en":"Jinjiang","zh":"青阳","ja":"晋江市","ko":"진장 시","vi":"Tấn Giang","ru":"Цзиньцзян","fa":"جینجیانگ","ur":"جنجیانگ، فوجیان"},"country":"CN","lat":24.81978,"lon":118.57415,"pop":1416151,"search_terms":["цзиньцзян","晋江市","青阳镇","جینجیانگ","tấn giang","青阳","진장 시","jinjiang","جنجیانگ، فوجیان"]},{"id":1269300,"name":"Jamshedpur","names":{"en":"Jamshedpur","de":"Jamshedpur","hi":"जमशेदपुर","ja":"ジャムシェドプル","mr":"जमशेदपूर","nl":"Jamshedpur","pt":"Jamshedpur","ta":"ஜம்சேத்பூர்","ru":"Джамшедпур","ko":"잠셰드푸르","bn":"জামশেদপুর","uk":"Джамшедпур","ur":"جمشیدپور","te":"జంషెడ్‌పూర్","ka":"ჯამშედპური","fa":"جمشدپور","ar":"جمشيدبور","zh":"贾姆谢德布尔","ps":"جمشيد پور","th":"ชัมเศทปุระ","tr":"Cemşidpur","hy":"Ջամշեդպուր","id":"Jamshedpur","uz":"Jamshidpur","ms":"Jamshedpur","el":"Τζάμσεντπουρ","it":"Jamshedpur","es":"Jamshedpur","vi":"Jamshedpur","az":"Cəmşidpur","fr":"Jamshedpur","sv":"Jamshedpur","cs":"Džamšedpur","pl":"Jamshedpur"},"country":"IN","lat":22.80278,"lon":86.18545,"pop":1339438,"search_terms":["ジャムシェードプル","जमशेदपूर","جمشيدبور","ջամշեդպուր","جمشدپور","ჯამშედპური","জামশেদপুর","ชัมเศทปุระ","τζάμσεντπουρ","ジャムシェドプル","jamshidpur","ஜம்சேத்பூர்","cəmşidpur","잠셰드푸르","贾姆谢德布尔","जमशेदपुर","cemşidpur","جمشیدپور","جمشيد پور","джамшедпур","džamšedpur","jamshedpur","జంషెడ్‌పూర్"]},{"id":1642548,"name":"Jepara","names":{"en":"Jepara","id":"Jepara","ar":"جيبارا"},"country":"ID","lat":-6.5924,"lon":110.671,"pop":1257912,"search_terms":["jepara","جيبارا"]},{"id":1805518,"name":"Jining","names":{"en":"Jining","de":"Jining","ru":"Цзинин","cs":"Ťi-ning","ja":"済寧市","ko":"지닝 시","vi":"Tế Ninh","zh":"济宁","fa":"جینینگ","ur":"جنینگ","es":"Jining","fr":"Jining","uk":"Цзінін"},"country":"CN","lat":35.405,"lon":116.58139,"pop":1241012,"search_terms":["ťi-ning","済寧市","济宁市","济宁","jining","tế ninh","지닝 시","جنینگ","цзинин","جینینگ","цзінін"]},{"id":10942283,"name":"Jinzhong","names":{"en":"Jinzhong"},"country":"CN","lat":37.68403,"lon":112.75471,"pop":1226617,"search_terms":["jinzhong"]},{"id":1805953,"name":"Jiaxing","names":{"en":"Jiaxing","fr":"Jiaxing","de":"Jiaxing","ja":"嘉興市","ru":"Цзясин","zh":"嘉兴","cs":"Ťia-sing","ko":"자싱 시","vi":"Gia Hưng","fa":"جیشانگ","uk":"Цзясін","ur":"جیاشنگ"},"country":"CN","lat":30.7522,"lon":120.75,"pop":1180000,"search_terms":["gia hưng","цзясин","嘉兴","嘉興市","جیاشنگ","jiaxing","ťia-sing","цзясін","자싱 시","جیشانگ","嘉兴市"]},{"id":1805179,"name":"Jiujiang","names":{"en":"Jiujiang","tr":"Ciuciang","ja":"九江市","ko":"주장 시","cs":"Ťiou-ťiang","vi":"Cửu Giang","ru":"Цзюцзян","zh":"九江市"},"country":"CN","lat":29.70475,"lon":116.00206,"pop":1164268,"search_terms":["ťiou-ťiang","주장 시","цзюцзян","cửu giang","九江市","jiujiang","ciuciang"]},{"id":1269633,"name":"Jabalpur","names":{"en":"Jabalpur","de":"Jabalpur","hi":"जबलपुर","nl":"Jabalpur","pl":"Dżabalpur","pt":"Jabalpur","ro":"Jabalpur","sv":"Jabalpur","ja":"ジャバルプル","ur":"جبل پور","ru":"Джабалпур","ar":"جبلبور","bn":"জবলপুর","cs":"Džabalpur","fa":"جبال‌پور","ka":"ჯაბალპური","ko":"자발푸르","mr":"जबलपुर","ta":"ஜபல்பூர்","te":"జబల్పూర్","uk":"Джабалпур","zh":"贾巴尔普尔","hy":"Ջաբալպուր","ps":"جبل پور"},"country":"IN","lat":23.16697,"lon":79.95006,"pop":1081677,"search_terms":["ஜபல்பூர்","جبل پور","জবলপুর","jabalpur","джабалпур","džabalpur","جبال‌پور","జబల్పూర్","贾巴尔普尔","ջաբալպուր","जबलपुर","جبلبور","ジャバルプル","dżabalpur","ჯაბალპური","자발푸르"]},{"id":1268865,"name":"Jodhpur","names":{"en":"Jodhpur","pl":"Dźodhpur","de":"Jodhpur","fr":"Jodhpur","hi":"जोधपुर","pt":"Jodhpur","ro":"Jodhpur","sv":"Jodhpur","ja":"ジョドプル","ka":"ჯოდპური","nl":"Jodhpur","ru":"Джодхпур","fa":"جوداپور","uk":"Джодхпур","ko":"조드푸르","el":"Τζοντχπούρ","mr":"जोधपूर","ta":"சோத்பூர்","cs":"Džódpur","ar":"جودبور","zh":"焦特布尔","bn":"যোধপুর","ps":"جودپور","ur":"جودھ پور"},"country":"IN","lat":26.26841,"lon":73.00594,"pop":1056191,"search_terms":["조드푸르","जोधपुर","джодхпур","যোধপুর","جودبور","சோத்பூர்","جوداپور","ジョードプル","جودپور","ジョドプル","जोधपूर","džódpur","焦特布尔","τζοντχπούρ","ჯოდპური","jodhpur","جودھ پور","dźodhpur"]},{"id":1805540,"name":"Jingzhou","names":{"en":"Jingzhou","de":"Jingzhou","ja":"荊州市","zh":"荆州市","ru":"Цзинчжоу","cs":"Ťing-čou","ko":"징저우 시","vi":"Kinh Châu","fa":"جیانگژو","ur":"جنگژوو"},"country":"CN","lat":30.35028,"lon":112.19028,"pop":1052282,"search_terms":["цзинчжоу","징저우 시","جیانگژو","jingzhou","ťing-čou","荊州市","荆州市","kinh châu","جنگژوو"]},{"id":2335953,"name":"Jos","names":{"en":"Jos","ru":"Йос","ja":"ジョス","uk":"Джос","ko":"조스","pl":"Dżos","zh":"乔斯","ar":"جوس","ur":"جوس، نائجیریا"},"country":"NG","lat":9.92849,"lon":8.89212,"pop":1040000,"search_terms":["dżos","조스","جوس","ジョス","йос","乔斯","jos","جوس، نائجیریا","джос"]},{"id":4160021,"name":"Jacksonville","names":{"en":"Jacksonville","de":"Jacksonville","es":"Jacksonville","fr":"Jacksonville","it":"Jacksonville","ja":"ジャクソンビル","nl":"Jacksonville","pl":"Jacksonville","pt":"Jacksonville","sv":"Jacksonville","tr":"Jacksonville","id":"Jacksonville","ko":"잭슨빌","ru":"Джэксонвилл","vi":"Jacksonville","ka":"ჯექსონვილი","th":"แจ็กสันวิลล์","ar":"جاكسونفيل","uk":"Джексонвілл","ta":"ஜாக்சன்வில்","fa":"جکسون‌ویل","hy":"Ջեքսոնվիլ","mr":"जॅक्सनव्हिल","hi":"जैक्सनविल","el":"Τζάκσονβιλ","zh":"杰克逊维尔","ur":"جیکسن ویل","az":"Ceksonvill","bn":"জ্যাক্সনভিল","ky":"Жэксонвилл"},"country":"US","lat":30.33218,"lon":-81.65565,"pop":1009833,"search_terms":["জ্যাক্সনভিল","杰克逊维尔","잭슨빌","жэксонвилл","แจ็กสันวิลล์","جاكسونفيل","jacksonville","ceksonvill","джэксонвилл","ջեքսոնվիլ","джексонвілл","ジャクソンビル","جکسون‌ویل","ஜாக்சன்வில்","जैक्सनविल","जॅक्सनव्हिल","τζάκσονβιλ","جیکسن ویل","ჯექსონვილი"]},{"id":281184,"name":"Jerusalem","names":{"en":"Jerusalem","it":"Gerusalemme","ar":"القدس","hy":"Երուսաղեմ","ru":"Иерусалим","tr":"Kudüs","es":"Jerusalén","de":"Jerusalem","bn":"জেরুসালেম","cs":"Jeruzalém","el":"Ιερουσαλήμ","fa":"اورشلیم","fr":"Jérusalem","hi":"यरुशलम","id":"Yerusalem","ja":"エルサレム","ka":"იერუსალიმი","ko":"예루살렘","ms":"Baitulmuqaddis","nl":"Jeruzalem","pl":"Jerozolima","pt":"Jerusalém","ro":"Ierusalim","sv":"Jerusalem","th":"เยรูซาเลม","tl":"Jerusalem","uk":"Єрусалим","vi":"Jerusalem","zh":"耶路撒冷","am":"እየሩሳሌም","tg":"Уршалим","ur":"یروشلم","mr":"जेरुसलेम","ps":"بيت المقدس","sw":"Yerusalemu","ku":"Orşelîm","tt":"Иерусалим","tk":"Iýerusalim","ta":"எருசலேம்","te":"జెరూసలేం","so":"Qudus","uz":"Quddus","kk":"Иерусалим","az":"Qüds","ky":"Кудус"},"country":"IL","lat":31.76904,"lon":35.21633,"pop":971800,"search_terms":["يبوس","እየሩሳሌም","ierusalim","जेरुसलेम","జెరూసలేం","ساليم","kudüs","بيت المقدس","القدس الشريف","кудус","jerusalem","gerusalemme","иерусалим","إيلياء","orşelîm","أورسالم","エルサレム","იერუსალიმი","القُدْس","jerusalén","اورشلیم","jeruzalem","zion","القدس","jerozolima","herusalem","یروشلم","iýerusalim","quddus","எருசலேம்","أورشليم القدس","यरुशलम","qudus","예루살렘","jérusalem","уршалим","al-quds","ariel","ورشليم","ιερουσαλήμ","jerusalém","єрусалим","耶路撒冷","قُدس","أُورشَليم","yerusəlim","أولى القبلتين","البلا","yerusalem","baitulmuqaddis","مدينة القدس","لقدس","yerusalemu","qüds","القُدس","երուսաղեմ","بَیْت‌المُقدَّس","জেরুসালেম","jeruzalém","أورشليم","صهيون","เยรูซาเลม","اريئيل","مريّا","اورسلیمان"]},{"id":1805701,"name":"Jing'an","names":{"en":"Jing'an"},"country":"CN","lat":31.22,"lon":121.41583,"pop":936500,"search_terms":["jing'an"]},{"id":1268782,"name":"Jalandhar","names":{"en":"Jalandhar","ta":"ஜலந்தர்","mr":"जालंदर","ja":"ジャランダル","fa":"جلندر","bn":"জলন্ধর","hi":"जलंधर","ko":"잘란다르","pl":"Dźalandhar","ru":"Джаландхар","zh":"賈朗達爾","ka":"ჯალანდჰარი","ur":"جالندھر","ps":"جلندر","uk":"Джаландхар","pt":"Jalandhar","tt":"Җаландһар","de":"Jalandhar","hy":"Ձալանդհար","id":"Jalandhar","uz":"Jalandhar","ms":"Jalandhar","el":"Τζαλαντάρ","it":"Jalandhar","es":"Jalandhar","ar":"جالاندهار","vi":"Jalandhar","az":"Calandhar","ro":"Jalandhar","nl":"Jalandhar","fr":"Jalandhar","sv":"Jalandhar","cs":"Džalandhar","te":"జలంధర్","tg":"Ҷоландҳар","th":"ชลันธระ","tr":"Jalandhar"},"country":"IN","lat":31.32556,"lon":75.57917,"pop":868929,"search_terms":["जालंदर","ชลันธระ","җаландһар","賈朗達爾","ҷоландҳар","जलंधर","calandhar","ձալանդհար","джаландхар","جلندر","جالندھر","džalandhar","ஜலந்தர்","jalandhar","잘란다르","জলন্ধর","ジャランダル","dźalandhar","جالاندهار","ჯალანდჰარი","జలంధర్","τζαλαντάρ"]},{"id":1805987,"name":"Jiaozuo","names":{"en":"Jiaozuo","cs":"Ťiao-cuo","ja":"焦作市","ko":"자오쭤 시","vi":"Tiêu Tác","ru":"Цзяоцзо","zh":"焦作市","fa":"ژیاوزو","ur":"جیاوزوو"},"country":"CN","lat":35.23925,"lon":113.23914,"pop":865413,"search_terms":["자오쭤 시","цзяоцзо","ژیاوزو","焦作市","ťiao-cuo","tiêu tác","جیاوزوو","焦作","jiaozuo"]},{"id":1732752,"name":"Johor Bahru","names":{"en":"Johor Bahru","pl":"Johor Bahru","de":"Johor Bahru","fa":"جوهور بهرو","fr":"Johor Bahru","id":"Johor Bahru","ja":"ジョホールバル","ms":"Johor Bahru","ru":"Джохор-Бару","zh":"新山","sv":"Johor Baharu","vi":"Johor Bahru","ur":"جوھر بھرو","uk":"Джохор-Бару","ko":"조호르바루","ar":"جوهر بهرو","ta":"ஜொகூர் பாரு","mr":"जोहोर बारू","th":"ยะโฮร์บาห์รู"},"country":"MY","lat":1.4655,"lon":103.7578,"pop":858118,"search_terms":["جوهر بهرو","johor bahru","ยะโฮร์บาห์รู","ジョホールバル","johor baharu","джохор-бару","新山","ஜொகூர் பாரு","जोहोर बारू","جوھر بھرو","جوهور بهرو","조호르바루"]},{"id":13608000,"name":"Jinshan","names":{"en":"Jinshan","zh":"金山"},"country":"CN","lat":30.83556,"lon":121.29373,"pop":822776,"search_terms":["jinshan","金山区","金山"]},{"id":3397277,"name":"Joao Pessoa","names":{"en":"Joao Pessoa","de":"João Pessoa","es":"João Pessoa","fr":"João Pessoa","id":"João Pessoa","pt":"João Pessoa","ru":"Жуан-Песоа","sv":"João Pessoa","tr":"João Pessoa","tg":"Жуан-Песоа","pl":"João Pessoa","ar":"جواو بيسوا","ja":"ジョアンペソア","ka":"ჟუან-პესოა","kk":"Жуан-Песоа","ko":"주앙페소아","mr":"होआव पेसोआ","uk":"Жуан-Пессоа","zh":"若昂佩索阿","el":"Ζοάο Πεσόα","fa":"ژواو پسوا، پارائیبا","th":"โจเอาเปสโซอา","ur":"جواو پیسوا"},"country":"BR","lat":-7.115,"lon":-34.86306,"pop":817511,"search_terms":["جواو پیسوا","ჟუან-პესოა","ζοάο πεσόα","若昂佩索阿","ژواو پسوا، پارائیبا","жуан-пессоа","주앙페소아","โจเอาเปสโซอา","جواو بيسوا","ジョアンペソア","होआव पेसोआ","joão pessoa","жуан-песоа","joao pessoa"]},{"id":3397838,"name":"Jaboatao","names":{"en":"Jaboatao"},"country":"BR","lat":-8.18028,"lon":-35.00139,"pop":702621,"search_terms":["jaboatao"]},{"id":6317344,"name":"Jaboatao dos Guararapes","names":{"en":"Jaboatao dos Guararapes","ja":"ジャボアタン・ドス・グアララペス","kk":"Жабоатан-дус-Гуарарапис","ko":"자보아탕두스구아라라페스","uk":"Жабуатан-дус-Гуарарапіс","ru":"Жабоатан-дус-Гуарарапис","zh":"熱博阿陶"},"country":"BR","lat":-8.11278,"lon":-35.01472,"pop":644037,"search_terms":["熱博阿陶","jaboatao dos guararapes","자보아탕두스구아라라페스","жабоатан-дус-гуарарапис","жабуатан-дус-гуарарапіс","ジャボアタン・ドス・グアララペス"]},{"id":1805611,"name":"Jingmen","names":{"en":"Jingmen","de":"Jingmen","ru":"Цзинмэнь","cs":"Ťing-men","ja":"荊門市","ko":"징먼 시","ur":"جنگمین","vi":"Kinh Môn","zh":"荆门市"},"country":"CN","lat":31.03361,"lon":112.20472,"pop":632954,"search_terms":["荆门市","جنگمین","jingmen","цзинмэнь","ťing-men","荊門市","kinh môn","징먼 시"]},{"id":1845457,"name":"Jeonju","names":{"en":"Jeonju","pl":"Chŏnju","fr":"Jeonju","de":"Jeonju","ja":"全州市","ko":"전주시","pt":"Jeonju","ru":"Чонджу","sv":"Jeonju","zh":"全州市","ar":"جونجو","cs":"Čondžu","fa":"جئونجو","mr":"जॉन्जू","uk":"Чонджу","ur":"جئونجو","uz":"Chonju"},"country":"KR","lat":35.82194,"lon":127.14889,"pop":629618,"search_terms":["全州市","chonju","جونجو","जॉन्जू","전주시","jeonju","чонджу","جئونجو","chŏnju","čondžu"]},{"id":1806096,"name":"Jiaozhou","names":{"en":"Jiaozhou"},"country":"CN","lat":36.28389,"lon":120.00333,"pop":619266,"search_terms":["jiaozhou"]},{"id":1642858,"name":"Jambi City","names":{"en":"Jambi City","de":"Jambi","pl":"Jambi","fr":"Jambi","ar":"جامبي","id":"Jambi","ms":"Jambi","nl":"Jambi","pt":"Jambi","sv":"Jambi","ru":"Джамби"},"country":"ID","lat":-1.6,"lon":103.61667,"pop":606200,"search_terms":["jambi","جامبي","джамби","jambi city"]},{"id":2036427,"name":"Jinzhou","names":{"en":"Jinzhou","ru":"Цзиньчжоу","cs":"Ťin-čou","ja":"錦州市","ka":"ძინჯოუ","ko":"진저우 시","uk":"Цзіньчжоу","vi":"Cẩm Châu","zh":"锦州市","fa":"جینجو","ur":"جنژوو"},"country":"CN","lat":41.10778,"lon":121.14167,"pop":604269,"search_terms":["цзіньчжоу","جینجو","جنژوو","锦州市","ťin-čou","jinzhou","ძინჯოუ","진저우 시","錦州市","цзиньчжоу","cẩm châu"]},{"id":1269317,"name":"Jamnagar","names":{"en":"Jamnagar","ru":"Джамнагаром","de":"Jamnagar","hi":"जामनगर","ps":"جامنگر","pt":"Jamnagar","uk":"Джамнагар","id":"Jamnagar","ur":"جمنگر","uz":"Jamnagar","mr":"जामनगर","ms":"Jamnagar","el":"Τζαμναγκάρ","it":"Jamnagar","es":"Jamnagar","zh":"贾姆讷格尔","ar":"جام نجر","vi":"Jamnagar","ja":"ジャームナガル","az":"Camnaqar","fa":"جام‌نگر","ro":"Jamnagar","nl":"Jamnagar","fr":"Jamnagar","bn":"জামনগর","ka":"ჯამნაგარი","sv":"Jamnagar","ko":"잠나가르","ta":"ஜாம்நகர்","cs":"Džámnagar","te":"జామ్నగర్","th":"ชัมนคร","pl":"Jamnagar","tr":"Jamnagar"},"country":"IN","lat":22.47292,"lon":70.06673,"pop":600943,"search_terms":["ஜாம்நகர்","джамнагар","جمنگر","camnaqar","джамнагаром","ชัมนคร","džámnagar","ジャームナガル","τζαμναγκάρ","jamnagar","جامنگر","جام‌نگر","جام نجر","잠나가르","జామ్నగర్","জামনগর","ჯამნაგარი","जामनगर","贾姆讷格尔"]},{"id":1269321,"name":"Jammu","names":{"en":"Jammu","de":"Jammu","cs":"Džammú","fr":"Jammu","hi":"जम्मू","ja":"ジャンムー","ro":"Jammu","ur":"جموں","ru":"Джамму","ko":"잠무","ta":"சம்மு","zh":"贾姆穆"},"country":"IN","lat":32.73528,"lon":74.86167,"pop":576198,"search_terms":["贾姆穆","jammu","جموں","джамму","ジャンムー","जम्मू","džammú","சம்மு","잠무"]},{"id":3459505,"name":"Juiz de Fora","names":{"en":"Juiz de Fora","pl":"Juiz de Fora","pt":"Juiz de Fora","sv":"Juiz de Fora","es":"Juiz de Fora","de":"Juiz de Fora","ru":"Жуис-ди-Фора","uk":"Жуїз-ді-Фора","th":"ชวีซ์ดีฟอรา","ja":"ジュイス・デ・フォーラ","ko":"주이스지포라","kk":"Жуис-ди-Фора","zh":"茹伊斯迪福拉"},"country":"BR","lat":-21.76417,"lon":-43.35028,"pop":573285,"search_terms":["ジュイス・デ・フォーラ","жуїз-ді-фора","주이스지포라","ชวีซ์ดีฟอรา","juiz de fora","茹伊斯迪福拉","жуис-ди-фора"]},{"id":2036581,"name":"Jiamusi","names":{"en":"Jiamusi","fr":"Jiamusi","pl":"Jiamusi","de":"Jiamusi","ja":"ジャムス市","ko":"자무쓰 시","nl":"Jiamusi","pt":"Jiamusi","zh":"佳木斯市","id":"Jiamusi","ru":"Цзямусы","cs":"Ťia-mu-s’","vi":"Giai Mộc Tư","fa":"جیاموسی","ur":"جیاموسی"},"country":"CN","lat":46.79711,"lon":130.31118,"pop":549549,"search_terms":["자무쓰 시","jiamusi","佳木斯市","цзямусы","ジャムス","ジャムス市","ťia-mu-s’","giai mộc tư","جیاموسی","佳木斯"]},{"id":1806445,"name":"Ji'an","names":{"en":"Ji'an","ru":"Цзиань","zh":"吉安"},"country":"CN","lat":27.11716,"lon":114.97927,"pop":538699,"search_terms":["吉安市","цзиань","ji'an","吉安","ji’an"]},{"id":9931406,"name":"Jianshui","names":{"en":"Jianshui","zh":"碱水"},"country":"CN","lat":24.2774,"lon":101.224,"pop":490000,"search_terms":["jianshui","碱水"]},{"id":1846266,"name":"Jeju City","names":{"en":"Jeju City","pl":"Czedżu","fr":"Jeju","id":"Kota Jeju","ja":"済州市","pt":"Jeju","ru":"Чеджу","sv":"Jeju City","ko":"제주시","de":"Jeju","el":"Τζέτζου","es":"Jeju","it":"Jeju","fa":"چجو","ar":"جيجو"},"country":"KR","lat":33.50972,"lon":126.52194,"pop":488844,"search_terms":["jeju","czedżu","جيجو","제주","τζέτζου","済州市","제주시","чеджу","چجو","kota jeju","jeju city"]},{"id":333795,"name":"Jijiga","names":{"en":"Jijiga","ru":"Джиджига","fr":"Djidjiga","am":"ጅጅጋ","cs":"Džidžiga","ko":"지지가","pl":"Dżidżiga","pt":"Djidjiga","zh":"吉吉加","de":"Jijiga","so":"Jigjiga","ur":"جیجیگا"},"country":"ET","lat":9.35,"lon":42.8,"pop":483000,"search_terms":["jijiga","ጅጅጋ","dschidschiga","جیجیگا","dżidżiga","吉吉加","džidžiga","jigjiga","джиджига","지지가","djidjiga"]},{"id":1805741,"name":"Jincheng","names":{"en":"Jincheng","ko":"진청 시","vi":"Tấn Thành","ru":"Цзиньчэн","fa":"جینچن","ur":"جنچینگ"},"country":"CN","lat":35.50222,"lon":112.83278,"pop":476945,"search_terms":["цзиньчэн","jincheng","جنچینگ","tấn thành","진청 시","جینچن"]},{"id":1805680,"name":"Jingdezhen","names":{"en":"Jingdezhen","de":"Jingdezhen","pl":"Jingdezhen","ja":"景徳鎮","nl":"Jingdezhen","ru":"Цзиндэчжэнь"},"country":"CN","lat":29.2947,"lon":117.20789,"pop":473561,"search_terms":["цзиндэчжэнь","景徳鎮","jingdezhen"]},{"id":1809061,"name":"Jiaojiang","names":{"en":"Jiaojiang","zh":"椒江村"},"country":"CN","lat":28.69844,"lon":121.47331,"pop":470804,"search_terms":["椒江村","jiaojiang"]},{"id":3459712,"name":"Joinville","names":{"en":"Joinville","de":"Joinville","es":"Joinville","fr":"Joinville","pt":"Joinville","pl":"Joinville","sv":"Joinville","ja":"ジョインヴィレ","ko":"조인빌리","ru":"Жоинвили","zh":"若茵维莱"},"country":"BR","lat":-26.30444,"lon":-48.84556,"pop":461304,"search_terms":["жоинвили","ジョインヴィレ","조인빌리","若茵维莱","joinville"]},{"id":1269407,"name":"Jalgaon","names":{"en":"Jalgaon","ru":"Джалгаоне","bn":"জালগাঁও","fa":"جالگاون","hi":"जलगाँव","mr":"जळगाव","ps":"جالگاو","ta":"ஜள்காவ்","ur":"جلگاؤں","zh":"加爾岡"},"country":"IN","lat":21.00292,"lon":75.56602,"pop":460228,"search_terms":["加爾岡","джалгаоне","جالگاون","جالگاو","джалгаон","ஜள்காவ்","جلگاؤں","जलगाँव","जळगाव","jalgaon","জালগাঁও"]},{"id":373303,"name":"Juba","names":{"en":"Juba","ru":"Джуба","fr":"Djouba","de":"Juba","ko":"주바","ar":"جوبا","fa":"جوبا","ur":"جوبا"},"country":"SS","lat":4.85165,"lon":31.58247,"pop":450000,"search_terms":["djouba","джуба","주바","dschuba","juba","جوبا"]},{"id":3459462,"name":"Jundiai","names":{"en":"Jundiai","pt":"Jundiaí","ar":"جوندياي","kk":"Жундиаи","uk":"Жундіаї","ru":"Жундиаи","zh":"容迪亞伊","th":"จันดี้ไอ"},"country":"BR","lat":-23.18639,"lon":-46.88417,"pop":443221,"search_terms":["jundiaí","จันดี้ไอ","жундиаи","jundiai","جوندياي","容迪亞伊","жундіаї"]},{"id":1279945,"name":"Jiuquan","names":{"en":"Jiuquan","ru":"Сучжоу","zh":"酒泉市","ja":"酒泉市","ko":"주취안 시","vi":"Tửu Tuyền","cs":"Ťiou-čchüan","ur":"جیوچوان","uk":"Ґаньсю"},"country":"CN","lat":39.74318,"lon":98.51736,"pop":428346,"search_terms":["tửu tuyền","ґаньсю","jiuquan","ťiou-čchüan","цзюцюань","酒泉市","сучжоу","주취안 시","جیوچوان"]},{"id":1269006,"name":"Jhansi","names":{"en":"Jhansi"},"country":"IN","lat":25.45887,"lon":78.57994,"pop":412927,"search_terms":["jhansi"]},{"id":2082600,"name":"Jayapura","names":{"en":"Jayapura","pl":"Jayapura","de":"Jayapura","id":"Kota Jayapura","nl":"Port Numbay","sv":"Jayapura","ja":"ジャヤプラ","ru":"Джаяпура","ko":"자야푸라","ms":"Port Numbay","th":"จายาปุระ","uk":"Порт-Нумбай","zh":"查雅普拉"},"country":"ID","lat":-2.53371,"lon":140.71813,"pop":404004,"search_terms":["port numbay","자야푸라","jayapura","порт-нумбай","джаяпура","ジャヤプラ","จายาปุระ","kota jayapura","查雅普拉"]},{"id":2036389,"name":"Jixi","names":{"en":"Jixi","fr":"Jixi","de":"Jixi","ja":"鶏西市","nl":"Jixi","pt":"Jixi","ru":"Цзиси","zh":"鸡西","vi":"Kê Tây","cs":"Ťi-si","ko":"지시 시","fa":"جیشی","ur":"جیشی","ar":"جيشي"},"country":"CN","lat":45.29322,"lon":130.96217,"pop":403759,"search_terms":["鶏西市","jixi","جیشی","ťi-si","цзиси","kê tây","鸡西市","鶏西","جيشي","지시 시","鸡西"]},{"id":1805029,"name":"Jizhou","names":{"en":"Jizhou","zh":"冀州"},"country":"CN","lat":37.55054,"lon":115.56871,"pop":362013,"search_terms":["jizhou","冀州"]},{"id":1175892,"name":"Jhang Sadr","names":{"en":"Jhang Sadr","hi":"झांग सदर","ru":"Джханг-Садр","pt":"Jhang Sadar","fr":"Jhang","bn":"জাং সদর","uk":"Джанг-Садар","id":"Jhang Sadar","ur":"جھنگ صدر","sv":"Jhang Sadar","ko":"장 세다","mr":"झांग सदर","ms":"Jhang Sadar","el":"Ζανγκ Σαντάρ","it":"Jhang Sadar","ta":"ஜ்ஹங் சடார்","es":"Jhang Sadar","ar":"جانغ صدر","te":"జంగ్ సదర్","vi":"Jhang Sadar","th":"จาง ซาดาร์","ja":"ジャン・サダー","pl":"Jhang Sadar","nl":"Jhang Sadar","tr":"Jhang Sadar"},"country":"PK","lat":31.26981,"lon":72.31687,"pop":341210,"search_terms":["장 세다","джханг-садр","جانغ صدر","ஜ்ஹங் சடார்","జంగ్ సదర్","джанг-садар","jhang sadr","ζανγκ σαντάρ","জাং সদর","จาง ซาดาร์","jhang","جھنگ صدر","ジャン・サダー","jhang sadar","झांग सदर"]},{"id":1268773,"name":"Junagadh","names":{"en":"Junagadh"},"country":"IN","lat":21.51966,"lon":70.45981,"pop":319462,"search_terms":["junagadh"]},{"id":11962408,"name":"Jardim Angela","names":{"en":"Jardim Angela"},"country":"BR","lat":-23.71636,"lon":-46.76872,"pop":311432,"search_terms":["jardim angela"]},{"id":1642588,"name":"Jember","names":{"en":"Jember","pl":"Jember"},"country":"ID","lat":-8.17211,"lon":113.69953,"pop":298585,"search_terms":["jember"]},{"id":1269395,"name":"Jalna","names":{"en":"Jalna","ar":"جالنا","fa":"جالنا","ur":"جالنہ"},"country":"IN","lat":19.84102,"lon":75.88636,"pop":285577,"search_terms":["jalna","جالنا","جالنہ"]},{"id":1139715,"name":"Jalalabad","names":{"en":"Jalalabad","de":"Dschalalabad","es":"Jalalabad","fa":"جلال‌آباد","fr":"Jalalabad","nl":"Jalalabad","pl":"Dżalalabad","pt":"Jalalabad","ru":"Джелалабад","sv":"Jalalabad","ar":"جلال آباد"},"country":"AF","lat":34.42647,"lon":70.45153,"pop":271900,"search_terms":["dschalalabad","جلال‌آباد","джелалабад","jalalabad","جلال آباد","dżalalabad"]},{"id":5099836,"name":"Jersey City","names":{"en":"Jersey City","ru":"Джерси-Сити","mr":"जर्सी सिटी","vi":"Thành phố Jersey","fa":"جرزی سیتی","uk":"Джерсі-Сіті","kk":"Джерсей Сити","ja":"ジャージーシティ","ar":"جيرسي سيتي","ko":"저지시티","zh":"泽西市","hy":"Ջերսի Սիթի","ur":"جرسی شہر، نیو جرسی"},"country":"US","lat":40.72816,"lon":-74.07764,"pop":264290,"search_terms":["저지시티","jersey city","जर्सी सिटी","جيرسي سيتي","泽西市","джерси-сити","جرسی شہر، نیو جرسی","ջերսի սիթի","джерсі-сіті","ジャージーシティ","джерсей сити","جرزی سیتی","thành phố jersey"]},{"id":1881953,"name":"Jurong Town","names":{"en":"Jurong Town","zh":"裕廊","ta":"ஜூரோங்"},"country":"SG","lat":1.33417,"lon":103.72278,"pop":262730,"search_terms":["裕廊","jurong town","ஜூரோங்"]},{"id":11962427,"name":"Jardim Sao Luis","names":{"en":"Jardim Sao Luis"},"country":"BR","lat":-23.68073,"lon":-46.7394,"pop":259377,"search_terms":["jardim sao luis"]},{"id":2036458,"name":"Jining","names":{"en":"Jining","ru":"Цзинин"},"country":"CN","lat":41.0275,"lon":113.10583,"pop":258757,"search_terms":["jining","цзинин"]},{"id":1881955,"name":"Jurong West","names":{"en":"Jurong West","zh":"裕廊西"},"country":"SG","lat":1.35028,"lon":103.72278,"pop":257470,"search_terms":["jurong west","裕廊西"]},{"id":333772,"name":"Jimma","names":{"en":"Jimma","de":"Jimma","hi":"जिमा","pt":"Jima","hy":"Ջիմմա","uk":"Джимма","id":"Jimma","ur":"جیمما","mr":"जिममा","ms":"Jimma","el":"Τζίμα","it":"Gimma","am":"ጅማ","es":"Jima","zh":"吉馬","ar":"جيما","vi":"Jimma","ja":"ジンマ","fa":"جیما","ro":"Jimma","nl":"Jimma","ru":"Джимма","fr":"Jimma","bn":"জিম্মা","sv":"Jima","ko":"짐마","sw":"Jimma","ta":"ஜீம்மா","te":"జిమ్మా","th":"กิมเมลวาลด์","pl":"Dżimma","tr":"Jimma"},"country":"ET","lat":7.67344,"lon":36.83441,"pop":250900,"search_terms":["jimma","dżimma","जिममा","กิมเมลวาลด์","जिमा","ஜீம்மா","ջիմմա","짐마","ジンマ","جیما","జిమ్మా","جیمما","τζίμα","ጅማ","জিম্মা","gimma","吉馬","джимма","jima","جيما"]},{"id":2336056,"name":"Jimeta","names":{"en":"Jimeta"},"country":"NG","lat":9.27949,"lon":12.45819,"pop":248148,"search_terms":["jimeta"]},{"id":3937513,"name":"Juliaca","names":{"en":"Juliaca","ja":"フリアカ","ka":"ხულიაკა","ko":"훌리아카","uk":"Хульяка","ru":"Хульяка","zh":"胡利亞卡","fa":"خولیاکا"},"country":"PE","lat":-15.5,"lon":-70.13333,"pop":245675,"search_terms":["juliaca","胡利亞卡","훌리아카","خولیاکا","ხულიაკა","フリアカ","хульяка"]},{"id":1336140,"name":"Jessore","names":{"en":"Jessore","bn":"Jessore"},"country":"BD","lat":23.16971,"lon":89.21371,"pop":243987,"search_terms":["jessore"]},{"id":1805012,"name":"Jiyuan","names":{"en":"Jiyuan"},"country":"CN","lat":35.08912,"lon":112.58815,"pop":242143,"search_terms":["jiyuan"]},{"id":3397154,"name":"Juazeiro","names":{"en":"Juazeiro"},"country":"BR","lat":-9.41167,"lon":-40.49861,"pop":237821,"search_terms":["juazeiro"]},{"id":1280957,"name":"Jiayuguan","names":{"en":"Jiayuguan","de":"Jiayuguan","it":"Jiayuguan","nl":"Jiayuguan","pl":"Jiayuguan","zh":"嘉峪关市","ru":"Цзяюйгуань","fr":"Jiayuguan","cs":"Ťia-jü-kuan","hy":"Ցզյայույգուան","ja":"嘉峪関市","ko":"자위관 시","ur":"جائیوگوان شہر","vi":"Gia Dục Quan"},"country":"CN","lat":39.81121,"lon":98.28618,"pop":231853,"search_terms":["цзяюйгуань","자위관 시","嘉峪関市","ťia-jü-kuan","ցզյայույգուան","jiayuguan","gia dục quan","جائیوگوان شہر","嘉峪关市"]},{"id":12076997,"name":"Jose C. Paz","names":{"en":"Jose C. Paz"},"country":"AR","lat":-34.51541,"lon":-58.76813,"pop":230208,"search_terms":["jose c. paz"]},{"id":1805733,"name":"Jinchang","names":{"en":"Jinchang","ru":"Цзиньчан","zh":"金昌","cs":"Ťin-čchang","hy":"Ցզինչան","ja":"金昌市","ko":"진창 시","ur":"جنچانگ","vi":"Kim Xương"},"country":"CN","lat":38.50062,"lon":102.19379,"pop":228561,"search_terms":["진창 시","kim xương","金昌市","ցզինչան","金昌","цзиньчан","ťin-čchang","jinchang","جنچانگ"]},{"id":3397147,"name":"Juazeiro do Norte","names":{"en":"Juazeiro do Norte","pl":"Juazeiro do Norte","id":"Juazeiro do Norte","pt":"Juazeiro do Norte","ro":"Juazeiro do Norte","sv":"Juazeiro do Norte","ru":"Жуазейру-ду-Норти","ka":"ჟუაზეირუ-დუ-ნორტი","kk":"Жуазейру-ду-Норти","zh":"北茹阿澤魯"},"country":"BR","lat":-7.21306,"lon":-39.31528,"pop":225230,"search_terms":["ჟუაზეირუ-დუ-ნორტი","жуазейру-ду-норти","北茹阿澤魯","juazeiro do norte"]},{"id":1805618,"name":"Jingling","names":{"en":"Jingling"},"country":"CN","lat":30.65,"lon":113.1,"pop":224871,"search_terms":["jingling"]},{"id":1176515,"name":"Jacobabad","names":{"en":"Jacobabad","fr":"Jacobabad","de":"Jacobabad","es":"Jacobabad","zh":"雅各布阿巴德","ur":"جیکب آباد","ru":"Джейкобабад","ps":"جيکب اباد","hi":"जकोबाबाद","fa":"جیکب‌آباد، پاکستان"},"country":"PK","lat":28.28187,"lon":68.43761,"pop":219315,"search_terms":["جیکب‌آباد، پاکستان","jacobabad","雅各布阿巴德","جيکب اباد","जकोबाबाद","khangarh","جیکب آباد","джейкобабад"]},{"id":5122520,"name":"Jamaica","names":{"en":"Jamaica","ja":"ジャマイカ地区","ko":"자메이카"},"country":"US","lat":40.69149,"lon":-73.80569,"pop":216866,"search_terms":["자메이카","jamaica","ジャマイカ地区"]},{"id":1805298,"name":"Jinzhou","names":{"en":"Jinzhou","ru":"Цзиньчжоу"},"country":"CN","lat":39.1,"lon":121.71667,"pop":215386,"search_terms":["jinzhou","цзиньчжоу"]},{"id":3526485,"name":"Jiutepec","names":{"en":"Jiutepec","sv":"Jiutepec"},"country":"MX","lat":18.88139,"lon":-99.17778,"pop":215357,"search_terms":["jiutepec"]},{"id":11962390,"name":"Jabaquara","names":{"en":"Jabaquara"},"country":"BR","lat":-23.65055,"lon":-46.64591,"pop":214958,"search_terms":["jabaquara"]},{"id":3460370,"name":"Jacarei","names":{"en":"Jacarei","pt":"Jacareí","es":"Jacareí","sv":"Jacareí","kk":"Жакареи","ru":"Жакареи","zh":"雅卡雷伊"},"country":"BR","lat":-23.30528,"lon":-45.96583,"pop":213110,"search_terms":["雅卡雷伊","jacarei","jacareí","жакареи"]},{"id":2516326,"name":"Jerez de la Frontera","names":{"en":"Jerez de la Frontera","es":"Jerez de la Frontera","de":"Jerez de la Frontera","fr":"Xérès","it":"Jerez de la Frontera","nl":"Jerez de la Frontera","pt":"Jerez de la Frontera","ro":"Jerez de la Frontera","sv":"Jerez de la Frontera","pl":"Jerez de la Frontera","ja":"ヘレス・デ・ラ・フロンテーラ","ar":"شريش","tr":"Jerez de la Frontera","ko":"헤레스데라프론테라","uk":"Херес-де-ла-Фронтера","ru":"Херес-де-ла-Фронтера","zh":"赫雷斯-德拉弗龙特拉"},"country":"ES","lat":36.68645,"lon":-6.13606,"pop":212879,"search_terms":["jerez","赫雷斯-德拉弗龙特拉","ヘレス・デ・ラ・フロンテーラ","شريش","xérès","херес-де-ла-фронтера","헤레스데라프론테라","jerez de la frontera"]},{"id":3460103,"name":"Jaragua","names":{"en":"Jaragua"},"country":"BR","lat":-23.44077,"lon":-46.73774,"pop":211610,"search_terms":["jaragua"]},{"id":11524601,"name":"Jebel Ali","names":{"en":"Jebel Ali","ar":"جبل علي"},"country":"AE","lat":25.00255,"lon":55.10811,"pop":210000,"search_terms":["jebel ali","جبل علي"]},{"id":1785710,"name":"Jinghong","names":{"en":"Jinghong","de":"Jinghong","ja":"景洪","th":"เชียงรุ้ง","zh":"景洪市"},"country":"CN","lat":22.00265,"lon":100.7697,"pop":205523,"search_terms":["jinghong","景洪市","景洪","เชียงรุ้ง"]},{"id":1805798,"name":"Jijiang","names":{"en":"Jijiang","zh":"几江"},"country":"CN","lat":29.28993,"lon":106.25001,"pop":196787,"search_terms":["江津区","几江","几江街道","jijiang"]},{"id":1283318,"name":"Janakpur","names":{"en":"Janakpur","hi":"जनकपुर","ja":"ジャナクプル","ko":"자낙푸르","ur":"جنکپور","ru":"Джанакпур","zh":"賈納克布爾"},"country":"NP","lat":26.72882,"lon":85.92628,"pop":195438,"search_terms":["자낙푸르","ジャナクプル","جنکپور","janakpur","賈納克布爾","джанакпур","जनकपुर","janakpur dham"]},{"id":1175864,"name":"Jhelum","names":{"en":"Jhelum","ru":"Джелам","de":"Jhelam","it":"Alessandria Bucefala","ko":"젤룸","mr":"झेलम शहर","ur":"جہلم","pl":"Dźhelam","zh":"傑赫勒姆","fa":"جهلم","ps":"جهلم"},"country":"PK","lat":32.93448,"lon":73.73102,"pop":190425,"search_terms":["傑赫勒姆","dźhelam","джелам","jhelam","젤룸","جهلم","جہلم","jhelum","alessandria bucefala","झेलम शहर"]},{"id":1529651,"name":"Jinshanlu","names":{"en":"Jinshanlu","ko":"아러타이","zh":"阿勒泰市","ru":"Алтайская","kk":"التاي قالاسى"},"country":"CN","lat":47.8505,"lon":88.13286,"pop":190064,"search_terms":["阿勒泰镇","阿勒泰市","التاي قالاسى","金山路","아러타이","алтайская","jinshanlu","阿勒泰","altay"]},{"id":6825489,"name":"Joetsu","names":{"en":"Joetsu","ja":"上越市","ar":"جويتسو","fa":"جوئتسو، نیگاتا","ko":"조에쓰 시","tg":"Ҷоетсу","th":"โจเอะสึ","uk":"Дзьоецу","ur":"جوئیتسو، نیگاتا","ru":"Дзёэцу","zh":"上越市"},"country":"JP","lat":37.14828,"lon":138.23642,"pop":189430,"search_terms":["上越市","ҷоетсу","جوئتسو، نیگاتا","โจเอะสึ","上越","조에쓰 시","дзьоецу","joetsu","дзёэцу","جويتسو","جوئیتسو، نیگاتا"]},{"id":1805704,"name":"Jing'an","names":{"en":"Jing'an","zh":"井岸"},"country":"CN","lat":22.21072,"lon":113.29218,"pop":186000,"search_terms":["井岸","jing'an"]},{"id":3460102,"name":"Jaragua do Sul","names":{"en":"Jaragua do Sul","de":"Jaraguá do Sul","pt":"Jaraguá do Sul","es":"Jaraguá do Sul","sv":"Jaraguá do Sul","ru":"Жарагуа-ду-Сул","zh":"南雅拉瓜"},"country":"BR","lat":-26.48611,"lon":-49.06667,"pop":182660,"search_terms":["jaragua do sul","南雅拉瓜","жарагуа-ду-сул","jaraguá do sul"]},{"id":1513886,"name":"Jizzax","names":{"en":"Jizzax","fr":"Djizak","fa":"جیزک","ru":"Джизак","es":"Djizaks","ar":"جيزك","ja":"ジザフ","ko":"지자흐","tr":"Cizzak","uk":"Джиззак","pl":"Dżyzak","sv":"Dzjizak","zh":"吉扎克","kk":"Жызақ","ky":"Жызак","ur":"جیزخ"},"country":"UZ","lat":40.13351,"lon":67.82956,"pop":179200,"search_terms":["djizak","джизак","жызак","jizzakh","джиззак","dzjizak","지자흐","吉扎克","жызақ","جیزخ","ジザフ","dżyzak","cizzak","جیزک","djizaks","jizzax","جيزك"]},{"id":2036401,"name":"Jiutai","names":{"en":"Jiutai","zh":"九台"},"country":"CN","lat":44.15127,"lon":125.82975,"pop":175115,"search_terms":["jiutai","九台"]},{"id":1269135,"name":"Jaunpur","names":{"en":"Jaunpur","fr":"Jawnpur","fa":"جونپور","hi":"जौनपुर","ru":"Джаунпур","ar":"جونفور","az":"Caunpur","ja":"ジャウンプル","ur":"جونپور، اترپردیش","zh":"乔恩普尔"},"country":"IN","lat":25.75356,"lon":82.68689,"pop":169572,"search_terms":["جونپور، اترپردیش","jawnpur","乔恩普尔","caunpur","ジャウンプル","जौनपुर","джаунпур","jaunpur","جونفور","جونپور"]},{"id":1242833,"name":"Jaffna","names":{"en":"Jaffna","fr":"Jaffna","de":"Jaffna","id":"Jaffna","nl":"Jaffna","sv":"Jaffna","ta":"யாழ்ப்பாணம்","ru":"Джафна","ko":"자프나","uk":"Джафна","te":"జాఫ్నా","mr":"जाफना","ja":"ジャフナ","pl":"Dżafna","ar":"جافنا","hi":"जाफना","zh":"賈夫納","fa":"جافنا","ka":"ჯაფნა","ur":"جافنا"},"country":"LK","lat":9.66845,"lon":80.00742,"pop":169102,"search_terms":["ジャフナ","賈夫納","джафна","자프나","जाफना","யாழ்ப்பாணம்","جافنا","ჯაფნა","జాఫ్నా","jaffna","dżafna"]},{"id":281129,"name":"Jabalya","names":{"en":"Jabalya","ru":"Джабалия","ar":"جباليا"},"country":"PS","lat":31.5272,"lon":34.48347,"pop":168568,"search_terms":["джабалия","جباليا","jabalia","jabalya"]},{"id":1185106,"name":"Jamalpur","names":{"en":"Jamalpur"},"country":"BD","lat":24.91965,"lon":89.94812,"pop":167900,"search_terms":["jamalpur"]},{"id":1268907,"name":"Jind","names":{"en":"Jind"},"country":"IN","lat":29.31577,"lon":76.31502,"pop":167592,"search_terms":["jind"]},{"id":195915,"name":"Jomvu","names":{"en":"Jomvu"},"country":"KE","lat":-3.98623,"lon":39.6082,"pop":163415,"search_terms":["jomvu"]},{"id":1269280,"name":"Jamuria","names":{"en":"Jamuria"},"country":"IN","lat":23.70468,"lon":87.07872,"pop":160242,"search_terms":["jamuria"]},{"id":3595237,"name":"Jalapa","names":{"en":"Jalapa","ru":"Халапа"},"country":"GT","lat":14.63542,"lon":-89.99112,"pop":159840,"search_terms":["халапа","jalapa"]},{"id":7284820,"name":"Jaigaon","names":{"en":"Jaigaon"},"country":"IN","lat":26.84766,"lon":89.37558,"pop":158664,"search_terms":["jaigaon"]},{"id":8299780,"name":"Juja","names":{"en":"Juja"},"country":"KE","lat":-1.10148,"lon":37.0132,"pop":156041,"search_terms":["juja"]},{"id":2216349,"name":"Janzur","names":{"en":"Janzur","ar":"جنزور"},"country":"LY","lat":32.81868,"lon":13.01727,"pop":154389,"search_terms":["جنزور","janzur"]},{"id":4431410,"name":"Jackson","names":{"en":"Jackson","de":"Jackson","ar":"جاكسون","fr":"Jackson","id":"Jackson","ja":"ジャクソン","nl":"Jackson","pl":"Jackson","pt":"Jackson","sv":"Jackson","es":"Jackson","it":"Jackson","uk":"Джексон","hy":"Ջեքսոն","ta":"ஜாக்சன்","mr":"जॅक्सन","fa":"جکسون، میسیسیپی","kk":"Сити оф Джексон","ko":"잭슨","ru":"Джексон","zh":"杰克逊","el":"Τζάκσον","ky":"Жэксон","ur":"جیکسن، مسیسپی"},"country":"US","lat":32.29876,"lon":-90.18481,"pop":153701,"search_terms":["جاكسون","jackson","джексон","잭슨","جیکسن، مسیسپی","ジャクソン","जॅक्सन","杰克逊","ջեքսոն","сити оф джексон","جکسون، میسیسیپی","τζάκσον","жэксон","ஜாக்சன்"]},{"id":655194,"name":"Jyvaeskylae","names":{"en":"Jyvaeskylae","de":"Jyväskylä","es":"Jyväskylä","cs":"Jyväskylä","fr":"Jyväskylä","id":"Jyväskylä","it":"Jyväskylä","nl":"Jyväskylä","pl":"Jyväskylä","ro":"Jyväskylä","sv":"Jyväskylä","ja":"ユヴァスキュラ","ru":"Ювяскюля","ar":"يوفاسكولا","th":"ยูแวสกูแล","uk":"Ювяскюля","ko":"이위베스퀼레","el":"Γυβάσκυλα","zh":"于韦斯屈莱","fa":"ییواسکیلا","ur":"یواسکولا"},"country":"FI","lat":62.24147,"lon":25.72088,"pop":148744,"search_terms":["jyväskylä","이위베스퀼레","于韦斯屈莱","йювяскюля","ювяскюля","γυβάσκυλα","jyvaeskylae","ยูแวสกูแล","یواسکولا","ユヴァスキュラ","يوفاسكولا","ییواسکیلا"]},{"id":4898015,"name":"Joliet","names":{"en":"Joliet","fr":"Joliet","de":"Joliet","nl":"Joliet","pt":"Joliet","sv":"Joliet","pl":"Joliet"},"country":"US","lat":41.52519,"lon":-88.0834,"pop":147861,"search_terms":["joliet"]},{"id":3595069,"name":"Jutiapa","names":{"en":"Jutiapa","ru":"Хутиапа"},"country":"GT","lat":14.28491,"lon":-89.88798,"pop":145880,"search_terms":["jutiapa","хутиапа"]},{"id":1805844,"name":"Jieshou","names":{"en":"Jieshou","zh":"界首"},"country":"CN","lat":33.26338,"lon":115.36108,"pop":141993,"search_terms":["界首","界首市","jieshou"]},{"id":130531,"name":"Jahrom","names":{"en":"Jahrom","fa":"جهرم"},"country":"IR","lat":28.5,"lon":53.5605,"pop":141634,"search_terms":["jahrom","جهرم","دو"]},{"id":11695689,"name":"Jeongeup","names":{"en":"Jeongeup","ko":"정읍시"},"country":"KR","lat":35.60004,"lon":126.91699,"pop":139876,"search_terms":["jeongeup","井邑市","정읍시"]},{"id":3723779,"name":"Jacmel","names":{"en":"Jacmel","fr":"Jacmel","pl":"Jacmel","de":"Jacmel","nl":"Jacmel","pt":"Jacmel","ru":"Жакмеле","ja":"ジャクメル","uk":"Жакмель","zh":"雅克梅勒","es":"Yáquimo","ko":"자크멜","ur":"جکمل"},"country":"HT","lat":18.23569,"lon":-72.53686,"pop":137966,"search_terms":["жакмеле","ジャクメル","jacmel","雅克梅勒","자크멜","yáquimo","جکمل","жакмель"]},{"id":1805857,"name":"Jieshi","names":{"en":"Jieshi","zh":"碣石"},"country":"CN","lat":22.81027,"lon":115.83058,"pop":137444,"search_terms":["jieshi","碣石"]},{"id":7303248,"name":"Jiashan","names":{"en":"Jiashan"},"country":"CN","lat":30.84918,"lon":120.92583,"pop":137112,"search_terms":["jiashan"]},{"id":2036597,"name":"Jiagedaqi","names":{"en":"Jiagedaqi","ja":"加格達奇区","ko":"자거다치 구","fr":"Jiagedaqi","de":"Jagdaqi"},"country":"CN","lat":50.41667,"lon":124.11667,"pop":135760,"search_terms":["加格達奇区","jagdaqi","jiagedaqi","자거다치 구"]},{"id":1805962,"name":"Jiawang","names":{"en":"Jiawang"},"country":"CN","lat":34.43278,"lon":117.44194,"pop":133861,"search_terms":["jiawang"]},{"id":3460005,"name":"Jau","names":{"en":"Jau","pt":"Jaú","kk":"Жау","ru":"Жау","zh":"雅乌"},"country":"BR","lat":-22.29639,"lon":-48.55778,"pop":133497,"search_terms":["雅乌","jau","jaú","жау"]},{"id":2492913,"name":"Jijel","names":{"en":"Jijel","ja":"ジジェル","ar":"جيجل","fa":"جیجل، الجزایر","pl":"Dżidżili","ru":"Джиджель","zh":"吉杰勒"},"country":"DZ","lat":36.821,"lon":5.76352,"pop":131513,"search_terms":["dżidżili","جيجل","جیجل، الجزایر","ジジェル","吉杰勒","джиджель","jijel"]},{"id":6925362,"name":"Jiroft","names":{"en":"Jiroft","fa":"جیرفت"},"country":"IR","lat":28.67806,"lon":57.74056,"pop":130429,"search_terms":["جیرفت","jiroft"]},{"id":1805935,"name":"Jiazi","names":{"en":"Jiazi","zh":"甲子"},"country":"CN","lat":22.87932,"lon":116.07318,"pop":130298,"search_terms":["jiazi","甲子"]},{"id":11962426,"name":"Jardim Helena","names":{"en":"Jardim Helena"},"country":"BR","lat":-23.4837,"lon":-46.41309,"pop":129409,"search_terms":["jardim helena"]},{"id":11962391,"name":"Jose Bonifacio","names":{"en":"Jose Bonifacio"},"country":"BR","lat":-23.56742,"lon":-46.43264,"pop":128243,"search_terms":["jose bonifacio"]},{"id":3459943,"name":"Jequie","names":{"en":"Jequie","pt":"Jequié","ro":"Jequié","ja":"ジェキエー","ka":"ჟეკიე","kk":"Жекие","ru":"Жекие","zh":"热基耶"},"country":"BR","lat":-13.85875,"lon":-40.08512,"pop":127475,"search_terms":["жекие","ジェキエー","热基耶","ჟეკიე","jequie","jequié"]},{"id":1885823,"name":"Jiangyou","names":{"en":"Jiangyou"},"country":"CN","lat":31.76667,"lon":104.71667,"pop":127225,"search_terms":["jiangyou"]},{"id":1790251,"name":"Jinfeng","names":{"en":"Jinfeng","zh":"金峰"},"country":"CN","lat":28.2385,"lon":116.60054,"pop":127076,"search_terms":["金峰","jinfeng"]},{"id":1268820,"name":"Jorhat","names":{"en":"Jorhat","ru":"Джорхат","ta":"ஜோர்ஹாட்"},"country":"IN","lat":26.75751,"lon":94.20306,"pop":126736,"search_terms":["ஜோர்ஹாட்","джорхат","jorhat"]},{"id":1805543,"name":"Jingzhi","names":{"en":"Jingzhi"},"country":"CN","lat":36.31,"lon":119.3875,"pop":126703,"search_terms":["jingzhi"]},{"id":1642414,"name":"Jombang","names":{"en":"Jombang","pl":"Jombang","id":"Jombang"},"country":"ID","lat":-7.54595,"lon":112.23307,"pop":126465,"search_terms":["jombang","kabupaten jombang"]},{"id":1269578,"name":"Jagdalpur","names":{"en":"Jagdalpur","bn":"জগদলপুর","te":"జగదల్‌పుర్","mr":"जगदलपूर","hi":"जगदलपुर","zh":"贾格达尔普尔","ru":"Джагдалпур","ur":"جگدلپور"},"country":"IN","lat":19.08136,"lon":82.02131,"pop":125463,"search_terms":["जगदलपूर","جگدلپور","জগদলপুর","జగదల్‌పుర్","जगदलपुर","贾格达尔普尔","джагдалпур","jagdalpur"]},{"id":1269605,"name":"Jagadhri","names":{"en":"Jagadhri"},"country":"IN","lat":30.16719,"lon":77.30367,"pop":124894,"search_terms":["jagadhri"]},{"id":3925033,"name":"Ji Parana","names":{"en":"Ji Parana"},"country":"BR","lat":-10.88528,"lon":-61.95167,"pop":124333,"search_terms":["ji parana"]},{"id":2036403,"name":"Jiupu","names":{"en":"Jiupu"},"country":"CN","lat":41.06667,"lon":122.95,"pop":123843,"search_terms":["jiupu"]},{"id":1528249,"name":"Jalal-Abad","names":{"en":"Manas","de":"Dschalalabat","nl":"Dzjalal-Abad","ru":"Джалал-Абад","pl":"Dżalalabad","fr":"Djalalabad","sv":"Dzjalal-Abad","ky":"Jalal-Abad","it":"Žalalabad","fa":"جلال‌آباد، قرقیزستان","hi":"जलालाबाद","ja":"ジャララバード","ko":"잘랄아바트","tr":"Celal-Abad","uk":"Джалал-Абад","uz":"Jalolobod","zh":"賈拉拉巴德","kk":"Жалалабат","ur":"جلال-آباد","el":"Μανάς"},"country":"KG","lat":40.94498,"lon":72.99313,"pop":123239,"search_terms":["жалал-абад шаары","манас","جلال‌آباد، قرقیزستان","잘랄아바트","žalalabad","μανάς","жалалабат","manas","djalalabad","джалал-абад","賈拉拉巴德","dzjalal-abad","jalolobod","celal-abad","jalal-abad","جلال-آباد","dschalalabat","जलालाबाद","ジャララバード","dżalalabad"]},{"id":2036536,"name":"Jiaohe","names":{"en":"Jiaohe","ru":"Цзяохэ","zh":"民主"},"country":"CN","lat":43.72133,"lon":127.33473,"pop":123018,"search_terms":["jiaohe","民主","цзяохэ","蛟河"]},{"id":1176106,"name":"Jaranwala","names":{"en":"Jaranwala","hi":"जढ़ाँवाला","de":"Jaranwala","ps":"جړانواله","pt":"Jaranwala","uk":"Джаранвала","id":"Jaranwala","ur":"جڑانوالہ","mr":"जारनवाला","uz":"Jaranwala","ms":"Jaranwala","el":"Τζαράνγουαλα","it":"Jaranwala","es":"Jaranwala","zh":"傑蘭瓦拉","ar":"جرانوالا","vi":"Jaranwala","ja":"ジャランワーラ","fa":"جرانواله، پاکستان","nl":"Jaranwala","ru":"Джаранвала","fr":"Jaranwala","bn":"জারানওয়ালা","sv":"Jaranwala","ko":"자란왈라","ta":"சரண்வாளா","te":"జరన్వాలా","th":"จารันวาลา","pl":"Jaranwala","tr":"Jaranwala"},"country":"PK","lat":31.3332,"lon":73.41868,"pop":119785,"search_terms":["jaranwala","जढ़ाँवाला","জারানওয়ালা","جڑانوالہ","จารันวาลา","자란왈라","ジャランワーラ","جرانواله، پاکستان","சரண்வாளா","జరన్వాలా","जारनवाला","جرانوالا","جړانواله","τζαράνγουαλα","джаранвала","傑蘭瓦拉"]},{"id":1268936,"name":"Jhunjhunun","names":{"en":"Jhunjhunun"},"country":"IN","lat":28.12559,"lon":75.39797,"pop":118473,"search_terms":["jhunjhunun"]},{"id":1269065,"name":"Jetpur","names":{"en":"Jetpur","pt":"Jetpur","fr":"Jetpur","es":"Jetpur"},"country":"IN","lat":21.75482,"lon":70.62347,"pop":118302,"search_terms":["jetpur"]},{"id":3460170,"name":"Jandira","names":{"en":"Jandira"},"country":"BR","lat":-23.5275,"lon":-46.9025,"pop":118045,"search_terms":["jandira"]},{"id":2336589,"name":"Jalingo","names":{"en":"Jalingo"},"country":"NG","lat":8.89367,"lon":11.3596,"pop":117757,"search_terms":["jalingo"]},{"id":2516395,"name":"Jaen","names":{"en":"Jaen","de":"Jaén","es":"Jaén","fr":"Jaén","it":"Jaén","nl":"Jaén","pl":"Jaén","ja":"ハエン","ar":"جيان","pt":"Jaén","tr":"Jaén","ru":"Хаэн"},"country":"ES","lat":37.76922,"lon":-3.79028,"pop":113457,"search_terms":["хаэн","jaén","ハエン","جيان","jaen"]},{"id":2702979,"name":"Joenkoeping","names":{"en":"Joenkoeping","de":"Jönköping","fr":"Jönköping","pl":"Jönköping","ru":"Йёнчёпинг","nl":"Jönköping","sv":"Jönköping","ar":"يونشوبينغ","fa":"یونشوپینگ","ja":"ヨンショーピング市","ka":"იენჩეპინგი","kk":"Йёнчёпинг","ko":"옌셰핑","th":"เยินเชอปิง","uk":"Єнчепінг","zh":"延雪平","ur":"یونشوپنگ"},"country":"SE","lat":57.78145,"lon":14.15618,"pop":112766,"search_terms":["ヨンショーピング市","یونشوپینگ","joenkoeping","延雪平","옌셰핑","jönköping","єнчепінг","йёнчёпинг","يونشوبينغ","เยินเชอปิง","یونشوپنگ","იენჩეპინგი"]},{"id":1806439,"name":"Jianchang","names":{"en":"Jianchang"},"country":"CN","lat":27.55831,"lon":116.63978,"pop":109108,"search_terms":["jianchang"]},{"id":1269388,"name":"Jalpaiguri","names":{"en":"Jalpaiguri"},"country":"IN","lat":26.51667,"lon":88.73333,"pop":107832,"search_terms":["jalpaiguri"]},{"id":2036595,"name":"Jalai Nur","names":{"en":"Jalai Nur","ru":"Чжалайнор"},"country":"CN","lat":49.45,"lon":117.7,"pop":107828,"search_terms":["jalai nur","чжалайнор"]},{"id":3460064,"name":"Jatai","names":{"en":"Jatai"},"country":"BR","lat":-17.87939,"lon":-51.72166,"pop":105729,"search_terms":["jatai"]},{"id":1269374,"name":"Jamalpur","names":{"en":"Jamalpur"},"country":"IN","lat":25.31258,"lon":86.48888,"pop":105434,"search_terms":["jamalpur"]},{"id":105299,"name":"Jizan","names":{"en":"Jizan","ar":"جازان","ru":"Джизан"},"country":"SA","lat":16.88917,"lon":42.55111,"pop":105198,"search_terms":["jazan","gazan","jizan","jīzān","jāzān","gizan","جازان","джизан","qīzān"]},{"id":2895044,"name":"Jena","names":{"en":"Jena","de":"Jena","es":"Jena","cs":"Jena","fr":"Iéna","id":"Jena","it":"Jena","ja":"イェーナ","ko":"예나","nl":"Jena","pl":"Jena","pt":"Jena","ru":"Йена","sv":"Jena","zh":"耶拿","ro":"Jena","tr":"Jena","vi":"Jena","el":"Ιένα","uk":"Єна","fa":"ینا","ka":"იენა","kk":"Йена","hi":"जेना","ar":"يينا"},"country":"DE","lat":50.92878,"lon":11.5899,"pop":104712,"search_terms":["耶拿","ιένα","iéna","йена","єна","예나","ینا","იენა","जेना","jena","يينا","イェーナ"]},{"id":2036418,"name":"Jishu","names":{"en":"Jishu"},"country":"CN","lat":44.31667,"lon":126.8,"pop":103988,"search_terms":["jishu"]},{"id":1269562,"name":"Jagtial","names":{"en":"Jagtial"},"country":"IN","lat":18.79473,"lon":78.91661,"pop":103930,"search_terms":["jagtial"]},{"id":1269557,"name":"Jahanabad","names":{"en":"Jahanabad"},"country":"IN","lat":25.21368,"lon":84.9871,"pop":103202,"search_terms":["jahanabad"]},{"id":1805270,"name":"Jishou","names":{"en":"Jishou","zh":"吉首市"},"country":"CN","lat":28.31925,"lon":109.73346,"pop":102332,"search_terms":["吉首市","吉首","乾州","jishou"]},{"id":3460132,"name":"Japeri","names":{"en":"Japeri"},"country":"BR","lat":-22.64306,"lon":-43.65333,"pop":102149,"search_terms":["japeri"]},{"id":1710141,"name":"Jolo","names":{"en":"Jolo","ru":"Джоли","es":"Joló","ja":"ホロ","ko":"홀로","ur":"جولو، سولو"},"country":"PH","lat":6.05222,"lon":121.00222,"pop":101002,"search_terms":["joló","جولو، سولو","홀로","холо","ホロ","jolo","джоли"]},{"id":3708306,"name":"Juan Diaz","names":{"en":"Juan Diaz"},"country":"PA","lat":9.04059,"lon":-79.44083,"pop":100636,"search_terms":["juan diaz"]},{"id":293253,"name":"Jaffa","names":{"en":"Jaffa","ar":"Yāffā","fr":"Jophé","pl":"Jafa","fa":"یافا","it":"Giaffa","pt":"Jafa","ru":"Яффа","es":"Jafa","tr":"Yafa"},"country":"IL","lat":32.05043,"lon":34.75224,"pop":100000,"search_terms":["yaffo","yafah","yafo","yāffā","giaffa","jophé","joppé","يافا","yāfā","яффа","یافا","yafa","jaffa","yaffa","jafa"]},{"id":1268977,"name":"Jharsuguda","names":{"en":"Jharsuguda","zh":"贾尔苏古达","ru":"Джхарсугуда","mr":"झर्सुगुडा","hi":"झारसुगुडा","fr":"Jharsuguda","bn":"ঝারসুগুড়া","de":"Jharsuguda"},"country":"IN","lat":21.85531,"lon":84.00698,"pop":97730,"search_terms":["झारसुगुडा","贾尔苏古达","джхарсугуда","ঝারসুগুড়া","jharsuguda","झर्सुगुडा"]},{"id":1805220,"name":"Jiudian","names":{"en":"Jiudian","zh":"旧店"},"country":"CN","lat":36.9918,"lon":120.20412,"pop":97604,"search_terms":["jiudian","旧店"]},{"id":3723593,"name":"Jeremie","names":{"en":"Jeremie","ru":"Жереми","ja":"ジェレミー","ko":"제레미","uk":"Жеремі","ur":"جیریمی","pt":"Jeremias","zh":"熱雷米"},"country":"HT","lat":18.65,"lon":-74.11667,"pop":97503,"search_terms":["熱雷米","жереми","ジェレミー","jérémie","jeremie","제레미","жеремі","jeremias","جیریمی"]},{"id":6644097,"name":"Jinniu","names":{"en":"Jinniu","zh":"金牛"},"country":"CN","lat":25.80062,"lon":100.57435,"pop":96883,"search_terms":["jinniu","金牛"]},{"id":3097333,"name":"Jaworzno","names":{"en":"Jaworzno","ru":"Явожно","ja":"ヤヴォジュノ","fa":"یاووژنو","uk":"Явожно","ko":"야보주노","ar":"يافورجنو","zh":"亚沃日诺"},"country":"PL","lat":50.20528,"lon":19.27498,"pop":96541,"search_terms":["야보주노","ヤヴォジュノ","явожно","jaworzno","يافورجنو","یاووژنو","亚沃日诺"]},{"id":273140,"name":"Jounieh","names":{"en":"Jounieh","ar":"جونيه","de":"Jounieh","fr":"Jounieh","tr":"Cünye","uk":"Джунія","ru":"Джуния","el":"Τζουνίγια","az":"Cuniyə"},"country":"LB","lat":33.98083,"lon":35.61778,"pop":96315,"search_terms":["cünye","джунія","جونيه","джуния","τζουνίγια","cuniyə","jounieh"]},{"id":2300182,"name":"Japekrom","names":{"en":"Japekrom"},"country":"GH","lat":7.5758,"lon":-2.78516,"pop":96000,"search_terms":["japekrom"]},{"id":3097391,"name":"Jastrzebie Zdroj","names":{"en":"Jastrzebie Zdroj","pl":"Jastrzębie-Zdrój","es":"Jastrzębie-Zdrój","de":"Jastrzębie Zdrój","fr":"Jastrzębie Zdrój","cs":"Jastrzębie-Zdrój","id":"Jastrzębie Zdrój","nl":"Jastrzębie Zdrój","ro":"Jastrzębie-Zdrój","ru":"Ястшембе-Здруй"},"country":"PL","lat":49.95542,"lon":18.57479,"pop":95813,"search_terms":["ястшембе-здруй","jastrzębie zdrój","jastrzębie-zdrój","jastrzebie zdroj"]},{"id":1805408,"name":"Jinsha","names":{"en":"Jinsha","ru":"Цзиньша"},"country":"CN","lat":32.08982,"lon":121.07355,"pop":95647,"search_terms":["цзиньша","jinsha"]},{"id":11962387,"name":"Jacana","names":{"en":"Jacana"},"country":"BR","lat":-23.46013,"lon":-46.5749,"pop":94609,"search_terms":["jacana"]},{"id":1176368,"name":"Jalalpur Jattan","names":{"en":"Jalalpur Jattan"},"country":"PK","lat":32.64118,"lon":74.20561,"pop":93883,"search_terms":["jalalpur jattan"]},{"id":1805947,"name":"Jiayue","names":{"en":"Jiayue"},"country":"CN","lat":36.02361,"lon":119.17611,"pop":93228,"search_terms":["jiayue"]},{"id":233114,"name":"Jinja","names":{"en":"Jinja","ja":"ジンジャ","ko":"진자","ru":"Джинджа","zh":"金賈","el":"Τζίντζα"},"country":"UG","lat":0.43902,"lon":33.20317,"pop":93061,"search_terms":["τζίντζα","진자","джинджа","jinja","ジンジャ","金賈"]},{"id":2300068,"name":"Jirapa","names":{"en":"Jirapa"},"country":"GH","lat":10.53689,"lon":-2.70155,"pop":91279,"search_terms":["jirapa"]},{"id":1268775,"name":"Jhumri Telaiya","names":{"en":"Jhumri Telaiya"},"country":"IN","lat":24.4349,"lon":85.52951,"pop":87867,"search_terms":["jhumri telaiya"]},{"id":3853354,"name":"Junin","names":{"en":"Junin","fa":"خونین","zh":"胡寧","ar":"جونين، مقاطعة بوينس آيرس","ka":"ხუნინი"},"country":"AR","lat":-34.59391,"lon":-60.94644,"pop":87509,"search_terms":["junin","خونین","ხუნინი","junín","胡寧","جونين، مقاطعة بوينس آيرس"]},{"id":1269291,"name":"Jamui","names":{"en":"Jamui"},"country":"IN","lat":24.92606,"lon":86.22531,"pop":87357,"search_terms":["jamui"]},{"id":1268988,"name":"Jharia","names":{"en":"Jharia","hi":"झरिया","zh":"贾里亚"},"country":"IN","lat":23.74079,"lon":86.41456,"pop":86938,"search_terms":["jharia","贾里亚","झरिया"]},{"id":1806271,"name":"Jiangshan","names":{"en":"Jiangshan","zh":"姜山"},"country":"CN","lat":36.67806,"lon":120.52917,"pop":86642,"search_terms":["姜山","jiangshan"]},{"id":1269092,"name":"Jeypore","names":{"en":"Jeypore"},"country":"IN","lat":18.8563,"lon":82.5716,"pop":84830,"search_terms":["jeypore"]},{"id":1805334,"name":"Jinxiang","names":{"en":"Jinxiang"},"country":"CN","lat":27.43265,"lon":120.60625,"pop":84231,"search_terms":["jinxiang"]},{"id":7615262,"name":"Jardim Paulista","names":{"en":"Jardim Paulista","pt":"Jardim Paulista"},"country":"BR","lat":-23.56675,"lon":-46.66439,"pop":83667,"search_terms":["jardim paulista"]},{"id":6331909,"name":"Johns Creek","names":{"en":"Johns Creek","ko":"존스크릭","ar":"جونز كريك","fa":"جانز کریک، جورجیا","ur":"جانز کریک، جارجیا"},"country":"US","lat":34.02893,"lon":-84.19858,"pop":83335,"search_terms":["존스크릭","جانز کریک، جورجیا","جانز کریک، جارجیا","johns creek","جونز كريك"]},{"id":1805379,"name":"Jinshi","names":{"en":"Jinshi","zh":"津市"},"country":"CN","lat":29.60487,"lon":111.87012,"pop":82906,"search_terms":["津市","jinshi"]},{"id":3460344,"name":"Jacobina","names":{"en":"Jacobina","ka":"ჟაკობინა","kk":"Жакобина","ru":"Жакобина","zh":"雅科比纳"},"country":"BR","lat":-11.18143,"lon":-40.51372,"pop":82590,"search_terms":["жакобина","jacobina","雅科比纳","ჟაკობინა"]},{"id":1269247,"name":"Jangipur","names":{"en":"Jangipur"},"country":"IN","lat":24.47001,"lon":88.07659,"pop":82548,"search_terms":["jangipur"]},{"id":1804935,"name":"Junlian","names":{"en":"Junlian"},"country":"CN","lat":28.17106,"lon":104.51162,"pop":80708,"search_terms":["junlian"]},{"id":3459796,"name":"Joao Monlevade","names":{"en":"Joao Monlevade","kk":"Жуан-Монлевади","ru":"Жуан-Монлевади","zh":"若昂蒙莱瓦迪"},"country":"BR","lat":-19.81,"lon":-43.17361,"pop":80187,"search_terms":["жуан-монлевади","若昂蒙莱瓦迪","joao monlevade"]},{"id":1881952,"name":"Jurong East","names":{"en":"Jurong East","zh":"裕廊东"},"country":"SG","lat":1.32888,"lon":103.73995,"pop":78600,"search_terms":["裕廊东","jurong east"]},{"id":655808,"name":"Joensuu","names":{"en":"Joensuu","de":"Joensuu","es":"Joensuu","pl":"Joensuu","cs":"Joensuu","fr":"Joensuu","ja":"ヨエンスー","nl":"Joensuu","ro":"Joensuu","sv":"Joensuu","id":"Joensuu","ar":"يوينسو","uk":"Йоенсуу","ko":"요엔수","ru":"Йоэнсуу","zh":"约恩苏","ur":"یوئنسو"},"country":"FI","lat":62.60118,"lon":29.76316,"pop":78398,"search_terms":["joensuu","ヨエンスー","يوينسو","یوئنسو","요엔수","约恩苏","йоенсуу","йоэнсуу"]},{"id":12432956,"name":"Jardim Botanico","names":{"en":"Jardim Botanico","pt":"Jardim Botânico"},"country":"BR","lat":-15.86527,"lon":-47.81477,"pop":77767,"search_terms":["jardim botanico","jardim botânico"]},{"id":1805267,"name":"Jishui","names":{"en":"Jishui"},"country":"CN","lat":33.73333,"lon":115.4,"pop":77540,"search_terms":["jishui"]},{"id":3097257,"name":"Jelenia Gora","names":{"en":"Jelenia Gora","fr":"Jelenia Góra","nl":"Jelenia Góra","pl":"Jelenia Góra","ro":"Jelenia Góra","sv":"Jelenia Góra","ko":"옐레니아구라","cs":"Jelenia Góra","ar":"يلينيا غورا"},"country":"PL","lat":50.89973,"lon":15.72899,"pop":77366,"search_terms":["jelenia góra","يلينيا غورا","jelenia gora","옐레니아구라"]},{"id":1805833,"name":"Jiexiu","names":{"en":"Jiexiu","ko":"제슈 시","ur":"جیئشیو","vi":"Giới Hưu","ru":"Цзесю"},"country":"CN","lat":37.02444,"lon":111.9125,"pop":77178,"search_terms":["جیئشیو","jiexiu","цзесю","제슈 시","giới hưu"]},{"id":11054704,"name":"Jozsefvaros","names":{"en":"Jozsefvaros"},"country":"HU","lat":47.48938,"lon":19.07292,"pop":76957,"search_terms":["jozsefvaros"]},{"id":354981,"name":"Juhaynah","names":{"en":"Juhaynah","ar":"جهينة"},"country":"EG","lat":26.67418,"lon":31.49686,"pop":76555,"search_terms":["جهينة","juhaynah"]},{"id":97417,"name":"Jamjamal","names":{"en":"Jamjamal","ar":"چمچمال","ku":"Chemchemał"},"country":"IQ","lat":35.53356,"lon":44.8343,"pop":75634,"search_terms":["chemchemał","چمچمال","jamjamal","چەمچەماڵ","جمجمال"]},{"id":1269217,"name":"Jaora","names":{"en":"Jaora","de":"Jaora","hi":"जावरा","ru":"Джаора","pt":"Jaora","bn":"জাওরা","fr":"Jaora","ur":"جوڑا","sv":"Jaorā","ko":"자오라","ms":"Jaora","it":"Jaora","ta":"ஜயரா","es":"Jaora","zh":"贾奥拉","te":"జారో","vi":"Jaora","ja":"ジャオラ","nl":"Jaora"},"country":"IN","lat":23.63783,"lon":75.12711,"pop":74907,"search_terms":["جوڑا","贾奥拉","జారో","자오라","ジャオラ","जावरा","ஜயரா","জাওরা","jaorā","джаора","jaora"]},{"id":11611939,"name":"Joyo","names":{"en":"Joyo","ja":"城陽"},"country":"JP","lat":34.84396,"lon":135.80561,"pop":74607,"search_terms":["joyo","城陽"]},{"id":4116834,"name":"Jonesboro","names":{"en":"Jonesboro","ru":"Джонсборо","fa":"جونزبرو","ko":"존즈버러","ja":"ジョーンズボロ","zh":"琼斯伯勒","ar":"جونزبورو","uk":"Джонсборо","ur":"جونسبورو، آرکنساس"},"country":"US","lat":35.8423,"lon":-90.70428,"pop":73907,"search_terms":["جونسبورو، آرکنساس","جونزبرو","존즈버러","جونزبورو","джонсборо","ジョーンズボロ","琼斯伯勒","jonesboro"]},{"id":2336237,"name":"Jega","names":{"en":"Jega"},"country":"NG","lat":12.22336,"lon":4.37971,"pop":73495,"search_terms":["jega"]},{"id":1804979,"name":"Juegang","names":{"en":"Juegang","zh":"如东县"},"country":"CN","lat":32.31737,"lon":121.18552,"pop":73317,"search_terms":["如东县","juegang"]},{"id":1185206,"name":"Joypur Hat","names":{"en":"Joypur Hat","bn":"Joypur Hāt"},"country":"BD","lat":25.10147,"lon":89.02734,"pop":73068,"search_terms":["joypur hat","joypur hāt"]},{"id":1642726,"name":"Jatibarang","names":{"en":"Jatibarang","id":"Jatibarang"},"country":"ID","lat":-6.47472,"lon":108.31528,"pop":73010,"search_terms":["jatibarang"]},{"id":1806188,"name":"Jiangzhuang","names":{"en":"Jiangzhuang"},"country":"CN","lat":36.49444,"lon":119.79417,"pop":72453,"search_terms":["jiangzhuang"]},{"id":3460441,"name":"Jaboticabal","names":{"en":"Jaboticabal","ru":"Жаботикабал","kk":"Жаботикабал","zh":"雅博蒂卡巴尔"},"country":"BR","lat":-21.25472,"lon":-48.32222,"pop":71821,"search_terms":["雅博蒂卡巴尔","жаботикабал","jaboticabal"]},{"id":1805757,"name":"Jimo","names":{"en":"Jimo","zh":"即墨市"},"country":"CN","lat":36.38972,"lon":120.46222,"pop":70733,"search_terms":["即墨","jimo","即墨市"]},{"id":3460174,"name":"Janauba","names":{"en":"Janauba"},"country":"BR","lat":-15.8025,"lon":-43.30889,"pop":70699,"search_terms":["janauba"]},{"id":1806218,"name":"Jiangyan","names":{"en":"Jiangyan","nl":"Jiangyan","zh":"姜堰市"},"country":"CN","lat":32.50611,"lon":120.14278,"pop":70375,"search_terms":["jiangyan","姜堰市"]},{"id":1805884,"name":"Jiehu","names":{"en":"Jiehu"},"country":"CN","lat":35.54278,"lon":118.455,"pop":69245,"search_terms":["jiehu"]},{"id":1269328,"name":"Jamkhandi","names":{"en":"Jamkhandi"},"country":"IN","lat":16.50461,"lon":75.29146,"pop":68938,"search_terms":["jamkhandi"]},{"id":1805505,"name":"Jinjiang","names":{"en":"Jinjiang","zh":"金江"},"country":"CN","lat":19.72878,"lon":110.00851,"pop":68720,"search_terms":["jinjiang","澄迈县","金江"]},{"id":1806422,"name":"Jiang'an","names":{"en":"Jiang'an","zh":"江安"},"country":"CN","lat":28.73335,"lon":105.0683,"pop":67776,"search_terms":["江安","jiang'an"]},{"id":1269507,"name":"Jaisalmer","names":{"en":"Jaisalmer","fr":"Jaisalmer","de":"Jaisalmer","ro":"Jaisalmer","sv":"Jaisalmer","ru":"Джайсалмер","ko":"자이살메르","el":"Τζαϊσαλμέρ","ta":"ஜெய்சல்மேர்","ja":"ジャイサルメール","cs":"Džaisalmér","hi":"जैसलमेर","bn":"জয়সলমের","mr":"जेसलमेर","zh":"贾沙梅尔","ur":"جیسلمیر"},"country":"IN","lat":26.91763,"lon":70.90387,"pop":67604,"search_terms":["ジャイサルメール","τζαϊσαλμέρ","джайсалмер","জয়সলমের","džaisalmér","자이살메르","जैसलमेर","जेसलमेर","贾沙梅尔","جیسلمیر","ஜெய்சல்மேர்","jaisalmer"]},{"id":4473083,"name":"Jacksonville","names":{"en":"Jacksonville","ru":"Джексонвилл","ar":"جاكسونفيل","fa":"جکسنویل، کارولینای شمالی","ja":"ジャクソンビル","uk":"Джексонвіль","ur":"جیکسن ویل، شمالی کیرولائنا"},"country":"US","lat":34.75405,"lon":-77.43024,"pop":67357,"search_terms":["ジャクソンビル","جکسنویل، کارولینای شمالی","جاكسونفيل","джексонвіль","джексонвилл","jacksonville","джэксонвилл","جیکسن ویل، شمالی کیرولائنا"]},{"id":5122477,"name":"Jackson Heights","names":{"en":"Jackson Heights","ko":"잭슨하이츠","ur":"جیکسن ہائیٹس، کوئینز","de":"Jackson Heights","ru":"Джексон-Хайтс","fr":"Jackson Heights","id":"Jackson Heights","sv":"Jackson Heights","it":"Jackson Heights","es":"Jackson Heights","zh":"傑克遜高地","ar":"جاكسون هايتس","ja":"ジャクソン・ハイツ","nl":"Jackson Heights","tr":"Jackson Heights"},"country":"US","lat":40.75566,"lon":-73.88541,"pop":67067,"search_terms":["جیکسن ہائیٹس، کوئینز","잭슨하이츠","ジャクソン・ハイツ","傑克遜高地","jackson heights","джексон-хайтс","جاكسون هايتس"]},{"id":4632595,"name":"Jackson","names":{"en":"Jackson","pl":"Jackson","de":"Jackson","ja":"ジャクソン","ru":"Джексон","fa":"جکسن، تنسی","zh":"傑克遜","ar":"جاكسون","ko":"잭슨","ur":"جیکسن، ٹینیسی"},"country":"US","lat":35.61452,"lon":-88.81395,"pop":66975,"search_terms":["جیکسن، ٹینیسی","جاكسون","jackson","джексон","잭슨","ジャクソン","傑克遜","جکسن، تنسی"]},{"id":1269027,"name":"Jhalawar","names":{"en":"Jhalawar"},"country":"IN","lat":24.59633,"lon":76.16499,"pop":66919,"search_terms":["jhalawar"]},{"id":290215,"name":"Jidd Hafs","names":{"en":"Jidd Hafs","ar":"جِدّ حَفْص"},"country":"BH","lat":26.21861,"lon":50.54778,"pop":66588,"search_terms":["jidd hafs","جِدّ حَفْص"]},{"id":12157038,"name":"Jesus Maria","names":{"en":"Jesus Maria"},"country":"PE","lat":-12.06982,"lon":-77.04495,"pop":66171,"search_terms":["jesus maria"]},{"id":4633419,"name":"Johnson City","names":{"en":"Johnson City","ar":"جونسون سيتي","ko":"존슨시티","zh":"約翰遜城","fa":"جانسون سیتی، تنسی","ja":"ジョンソンシティ","ur":"جانسن سٹی، ٹینیسی"},"country":"US","lat":36.31344,"lon":-82.35347,"pop":66027,"search_terms":["johnson city","約翰遜城","존슨시티","جانسن سٹی، ٹینیسی","جونسون سيتي","ジョンソンシティ","جانسون سیتی، تنسی"]},{"id":7619704,"name":"Johor Jaya","names":{"en":"Johor Jaya","ms":"Taman Johor Jaya","ta":"ஜொகூர் ஜெயா"},"country":"MY","lat":1.5392,"lon":103.8092,"pop":66000,"search_terms":["ஜொகூர் ஜெயா","taman johor jaya","johor jaya"]},{"id":169304,"name":"Jablah","names":{"en":"Jablah","ar":"جبلة","de":"Dschabla","el":"Τζαμπλέ","fr":"Jablé","hy":"Ջաբլե","ku":"Ceblê","ru":"Джабла","tr":"Ceble","uk":"Джебла"},"country":"SY","lat":35.36211,"lon":35.92759,"pop":65915,"search_terms":["jableh","джабла","jablah","джебла","ceble","dschabla","ceblê","τζαμπλέ","ջաբլե","jablé","جبلة"]},{"id":1280951,"name":"Jietou","names":{"en":"Jietou"},"country":"CN","lat":25.4274,"lon":98.65324,"pop":65843,"search_terms":["jietou"]},{"id":1269564,"name":"Jagraon","names":{"en":"Jagraon","bn":"জাগরাৱন","ur":"جگروں","zh":"贾格拉奥恩"},"country":"IN","lat":30.78783,"lon":75.47391,"pop":65305,"search_terms":["jagraon","贾格拉奥恩","جگروں","জাগরাৱন"]},{"id":3460148,"name":"Januaria","names":{"en":"Januaria"},"country":"BR","lat":-15.47949,"lon":-44.3652,"pop":65150,"search_terms":["januaria"]},{"id":5257754,"name":"Janesville","names":{"en":"Janesville","fr":"Janesville","ar":"جاينسفيل","fa":"جینسویل، ویسکانسین","ja":"ジェーンズビル","ka":"ჯეინსვილი","ru":"Джейнсвилл","ko":"제인스빌","uk":"Джейнсвіль","ur":"جنسویل، وسکونسن"},"country":"US","lat":42.68279,"lon":-89.01872,"pop":64123,"search_terms":["جنسویل، وسکونسن","جینسویل، ویسکانسین","janesville","джейнсвіль","제인스빌","جاينسفيل","джейнсвилл","ジェーンズビル","ჯეინსვილი"]},{"id":1176241,"name":"Jampur","names":{"en":"Jampur"},"country":"PK","lat":29.64235,"lon":70.59518,"pop":63791,"search_terms":["jampur"]},{"id":1269154,"name":"Jatani","names":{"en":"Jatani"},"country":"IN","lat":20.15975,"lon":85.70742,"pop":63697,"search_terms":["jatani"]},{"id":1772808,"name":"Jelutong","names":{"en":"Jelutong","ms":"Jelutong"},"country":"MY","lat":5.38998,"lon":100.31885,"pop":63507,"search_terms":["jelutong"]},{"id":1736302,"name":"Jitra","names":{"en":"Jitra","ms":"Jitra","sv":"Jitra","th":"จีตรา","ja":"ジットラ","id":"Jitra","pl":"Jitra","ta":"ஜித்ரா","es":"Jitra","nl":"Jitra","zh":"日得拉"},"country":"MY","lat":6.26812,"lon":100.42167,"pop":63489,"search_terms":["ஜித்ரா","ジットラ","日得拉","jitra","จีตรา"]},{"id":12324298,"name":"Jinggou","names":{"en":"Jinggou"},"country":"CN","lat":36.28176,"lon":119.55185,"pop":62917,"search_terms":["jinggou"]},{"id":4160610,"name":"Jupiter","names":{"en":"Jupiter","ru":"Юпитер","fa":"ژوپیتر، فلوریدا","ja":"ジュピター","uk":"Джюпітер","ar":"جوبيتر، فلوريدا","zh":"朱庇特","pt":"Júpiter"},"country":"US","lat":26.93422,"lon":-80.09421,"pop":62707,"search_terms":["جوبيتر، فلوريدا","джюпітер","ジュピター","юпитер","ژوپیتر، فلوریدا","朱庇特","jupiter","júpiter"]},{"id":1806248,"name":"Jianguang","names":{"en":"Jianguang"},"country":"CN","lat":28.19377,"lon":115.7836,"pop":61469,"search_terms":["jianguang"]},{"id":6822154,"name":"Joso","names":{"en":"Joso","ja":"常総"},"country":"JP","lat":36.03553,"lon":139.96143,"pop":60834,"search_terms":["常総市","常総","jōsō","joso"]},{"id":1803998,"name":"Jiangbei","names":{"en":"Jiangbei","zh":"江北"},"country":"CN","lat":29.7283,"lon":106.63506,"pop":60466,"search_terms":["江北","jiangbei"]},{"id":1806327,"name":"Jiangkou","names":{"en":"Jiangkou","zh":"江口"},"country":"CN","lat":25.48694,"lon":119.19834,"pop":59902,"search_terms":["jiangkou","江口","江口镇"]},{"id":3397702,"name":"Jacunda","names":{"en":"Jacunda","pt":"Jacundá"},"country":"BR","lat":-4.44696,"lon":-49.11556,"pop":59842,"search_terms":["jacundá","jacunda"]},{"id":10265191,"name":"Jaitpur","names":{"en":"Jaitpur"},"country":"IN","lat":28.50647,"lon":77.32976,"pop":59330,"search_terms":["jaitpur"]},{"id":1806167,"name":"Jian'ou","names":{"en":"Jian'ou","zh":"建瓯市"},"country":"CN","lat":27.04146,"lon":118.31897,"pop":59187,"search_terms":["jian'ou","建瓯市","芝城","建瓯"]},{"id":2037370,"name":"Jixian","names":{"en":"Jixian","ru":"Фули","zh":"集贤"},"country":"CN","lat":46.72594,"lon":131.13308,"pop":59160,"search_terms":["集贤","jixian","фули"]},{"id":7083355,"name":"Jose Rizal","names":{"en":"Jose Rizal","tl":"Bayan ng Rizal"},"country":"PH","lat":8.87722,"lon":117.50415,"pop":59040,"search_terms":["jose rizal","bayan ng rizal"]},{"id":3460200,"name":"Jaguariuna","names":{"en":"Jaguariuna"},"country":"BR","lat":-22.70556,"lon":-46.98583,"pop":58722,"search_terms":["jaguariuna"]},{"id":2036519,"name":"Jidong","names":{"en":"Jidong","zh":"鸡东"},"country":"CN","lat":45.256,"lon":131.11637,"pop":58520,"search_terms":["鸡东","jidong"]},{"id":1804892,"name":"Juye","names":{"en":"Juye","zh":"巨野"},"country":"CN","lat":35.38737,"lon":116.07168,"pop":58107,"search_terms":["巨野","juye"]},{"id":1642684,"name":"Jatiwangi","names":{"en":"Jatiwangi","id":"Jatiwangi"},"country":"ID","lat":-6.73361,"lon":108.26278,"pop":57973,"search_terms":["jatiwangi"]},{"id":12324233,"name":"Jing'an","names":{"en":"Jing'an"},"country":"CN","lat":34.49621,"lon":116.92249,"pop":57825,"search_terms":["jing'an"]},{"id":1268990,"name":"Jhargram","names":{"en":"Jhargram"},"country":"IN","lat":22.45384,"lon":86.99497,"pop":57796,"search_terms":["jhargram"]},{"id":1269551,"name":"Jahangirabad","names":{"en":"Jahangirabad"},"country":"IN","lat":28.40549,"lon":78.10588,"pop":57363,"search_terms":["jahangirabad"]},{"id":1176452,"name":"Jahangira","names":{"en":"Jahangira","ru":"Джахангира","pt":"Jahangira","fa":"جهانگیرا","pl":"Dżehangira","fr":"Jehangira","ur":"جہانگیرا","nl":"Jehangira"},"country":"PK","lat":33.96416,"lon":72.22097,"pop":57011,"search_terms":["dżehangira","джахангира","جہانگیرا","جهانگیرا","jehangira","jahangira"]},{"id":1805515,"name":"Jinji","names":{"en":"Jinji"},"country":"CN","lat":23.22806,"lon":110.82611,"pop":56816,"search_terms":["jinji"]},{"id":11962423,"name":"Jaguare","names":{"en":"Jaguare"},"country":"BR","lat":-23.54382,"lon":-46.74871,"pop":55382,"search_terms":["jaguare"]},{"id":1269422,"name":"Jalaun","names":{"en":"Jalaun"},"country":"IN","lat":26.1451,"lon":79.3366,"pop":55299,"search_terms":["jalaun"]},{"id":3618929,"name":"Jinotega","names":{"en":"Jinotega"},"country":"NI","lat":13.09103,"lon":-86.00234,"pop":55000,"search_terms":["jinotega"]},{"id":4502434,"name":"Jackson","names":{"en":"Jackson"},"country":"US","lat":39.7765,"lon":-74.86238,"pop":54856,"search_terms":["jackson"]},{"id":7303786,"name":"Jonquiere","names":{"en":"Jonquiere","ru":"Жонкьер","fr":"Jonquière"},"country":"CA","lat":48.41648,"lon":-71.24884,"pop":54842,"search_terms":["жонкьер","jonquière","jonquiere"]},{"id":459279,"name":"Jelgava","names":{"en":"Jelgava","de":"Mitau","pl":"Mitawa","fr":"Jelgava","nl":"Jelgava","sv":"Jelgava","it":"Jelgava","ro":"Jelgava","ru":"Елгава"},"country":"LV","lat":56.65,"lon":23.71278,"pop":54834,"search_terms":["mitawa","mitau","jelgava","елгава"]},{"id":10265094,"name":"Jafarabad","names":{"en":"Jafarabad"},"country":"IN","lat":28.67873,"lon":77.27116,"pop":54601,"search_terms":["jafarabad"]},{"id":333750,"name":"Jinka","names":{"en":"Jinka"},"country":"ET","lat":5.65,"lon":36.65,"pop":54400,"search_terms":["jinka"]},{"id":3556437,"name":"Jagueey Grande","names":{"en":"Jagueey Grande"},"country":"CU","lat":22.52694,"lon":-81.12861,"pop":54363,"search_terms":["jagueey grande"]},{"id":1269392,"name":"Jalor","names":{"en":"Jalor"},"country":"IN","lat":25.34558,"lon":72.61559,"pop":54081,"search_terms":["jalor"]},{"id":4004198,"name":"Jacona de Plancarte","names":{"en":"Jacona de Plancarte"},"country":"MX","lat":19.95625,"lon":-102.30557,"pop":53860,"search_terms":["jacona de plancarte"]},{"id":8858088,"name":"Jardines de la Silla","names":{"en":"Jardines de la Silla","es":"Jardines de la Silla"},"country":"MX","lat":25.62944,"lon":-100.18778,"pop":53742,"search_terms":["jardines de la silla"]},{"id":1280948,"name":"Jinding","names":{"en":"Jinding","zh":"金顶"},"country":"CN","lat":26.43903,"lon":99.44061,"pop":53667,"search_terms":["金顶","jinding"]},{"id":13156777,"name":"Jaggaiahpet","names":{"en":"Jaggaiahpet"},"country":"IN","lat":16.89155,"lon":80.09551,"pop":53530,"search_terms":["jaggaiahpet"]},{"id":1280945,"name":"Jinhua","names":{"en":"Jinhua","zh":"金华"},"country":"CN","lat":26.538,"lon":99.91715,"pop":53523,"search_terms":["jinhua","金华"]},{"id":3696150,"name":"Jaen","names":{"en":"Jaen","ru":"Хаэн"},"country":"PE","lat":-5.70729,"lon":-78.80785,"pop":52493,"search_terms":["jaen","хаэн","jaén"]},{"id":2794914,"name":"Jette","names":{"en":"Jette","fr":"Jette","es":"Jette","de":"Jette","nl":"Jette","id":"Jette","ar":"جيتي","fa":"ژت","ja":"ジェット","uk":"Жет","ru":"Жет","zh":"热特","ko":"제트"},"country":"BE","lat":50.87309,"lon":4.33419,"pop":52490,"search_terms":["제트","жет","bruxelles (jette)","jette","جيتي","ژت","ジェット","brussel (jette)","热特"]},{"id":1269256,"name":"Jangaon","names":{"en":"Jangaon"},"country":"IN","lat":17.72602,"lon":79.15236,"pop":52394,"search_terms":["jangaon"]},{"id":12324507,"name":"Jitai","names":{"en":"Jitai"},"country":"CN","lat":36.75724,"lon":118.73866,"pop":52144,"search_terms":["jitai"]},{"id":459201,"name":"Jurmala","names":{"en":"Jurmala","de":"Riga-Strand","pl":"Jūrmala","fr":"Jurmala","nl":"Jūrmala","pt":"Jūrmala","ru":"Юрмала","sv":"Jūrmala","it":"Jūrmala","ro":"Jūrmala"},"country":"LV","lat":56.968,"lon":23.77038,"pop":52001,"search_terms":["rigastrand","jurmala","riga-strand","юрмала","jūrmala"]},{"id":4392768,"name":"Joplin","names":{"en":"Joplin","ru":"Джоплин","fa":"جاپلین، میزوری","kk":"Джоплин","ja":"ジョプリン","ar":"جوبلن","ur":"جوپلن، مسوری","tt":"Джоплин","de":"Joplin","hi":"जोप्लिन","pt":"Joplin","hy":"Ջոպլին","uk":"Джоплін","id":"Joplin","uz":"Joplin","mr":"जॉप्लिन","ms":"Joplin","el":"Τζόπλιν","it":"Joplin","es":"Joplin","zh":"喬普林","vi":"Joplin","nl":"Joplin","fr":"Joplin","bn":"জপলিন","ka":"ჯოპლინი","sv":"Joplin","ko":"조플린","ta":"ஜாப்லின்","ky":"Джоплин","cs":"Joplin","te":"జోప్లిన్","th":"จอปลิน","pl":"Joplin","tr":"Joplin"},"country":"US","lat":37.08423,"lon":-94.51328,"pop":51818,"search_terms":["জপলিন","джоплін","जोप्लिन","джоплин","जॉप्लिन","τζόπλιν","ջոպլին","جاپلین، میزوری","ジョプリン","جوبلن","جوپلن، مسوری","喬普林","จอปลิน","ஜாப்லின்","ჯოპლინი","조플린","joplin","జోప్లిన్"]},{"id":2470088,"name":"Jendouba","names":{"en":"Jendouba","ru":"Джендуба","ar":"جندوبة"},"country":"TN","lat":36.50114,"lon":8.78024,"pop":51408,"search_terms":["جندوبة","джендуба","jendouba"]},{"id":3556268,"name":"Jesus Menendez","names":{"en":"Jesus Menendez"},"country":"CU","lat":21.16139,"lon":-76.47919,"pop":51002,"search_terms":["jesus menendez"]},{"id":3396979,"name":"Juruti","names":{"en":"Juruti","kk":"Журути","ru":"Журути","zh":"茹魯蒂"},"country":"BR","lat":-2.15222,"lon":-56.09222,"pop":50881,"search_terms":["juruti","茹魯蒂","журути"]},{"id":3925040,"name":"Jaru","names":{"en":"Jaru","ru":"Жара"},"country":"BR","lat":-10.43889,"lon":-62.46639,"pop":50591,"search_terms":["жара","jaru"]},{"id":1176445,"name":"Jahanian","names":{"en":"Jahanian"},"country":"PK","lat":30.03928,"lon":71.8167,"pop":50270,"search_terms":["jahanian"]},{"id":3074199,"name":"Jihlava","names":{"en":"Jihlava","de":"Iglau","cs":"Jihlava","pl":"Jihlava","ru":"Йиглава","fr":"Jihlava","sv":"Jihlava","id":"Jihlava"},"country":"CZ","lat":49.3961,"lon":15.59124,"pop":50108,"search_terms":["jihlava","йиглава","iglau"]},{"id":1642692,"name":"Jatiroto","names":{"en":"Jatiroto"},"country":"ID","lat":-7.88333,"lon":111.11667,"pop":50059,"search_terms":["jatiroto"]},{"id":3618908,"name":"Juigalpa","names":{"en":"Juigalpa"},"country":"NI","lat":12.10591,"lon":-85.36549,"pop":50000,"search_terms":["juigalpa"]},{"id":1268799,"name":"Jugsalai","names":{"en":"Jugsalai"},"country":"IN","lat":22.77668,"lon":86.18351,"pop":49660,"search_terms":["jugsalai"]},{"id":3556078,"name":"Jobabo","names":{"en":"Jobabo"},"country":"CU","lat":20.90748,"lon":-77.28194,"pop":49403,"search_terms":["jobabo"]},{"id":1805501,"name":"Jinjiang","names":{"en":"Jinjiang"},"country":"CN","lat":28.40051,"lon":116.89983,"pop":49245,"search_terms":["jinjiang"]},{"id":12277995,"name":"Jiawang Zhen","names":{"en":"Jiawang Zhen"},"country":"CN","lat":34.42202,"lon":117.46764,"pop":49005,"search_terms":["jiawang zhen"]},{"id":3460186,"name":"Jales","names":{"en":"Jales"},"country":"BR","lat":-20.26889,"lon":-50.54583,"pop":48776,"search_terms":["jales"]},{"id":1269502,"name":"Jaisingpur","names":{"en":"Jaisingpur"},"country":"IN","lat":16.77639,"lon":74.55361,"pop":48510,"search_terms":["jaisingpur"]},{"id":1269179,"name":"Jasdan","names":{"en":"Jasdan"},"country":"IN","lat":22.03709,"lon":71.20794,"pop":48483,"search_terms":["jasdan"]},{"id":1269042,"name":"Jhajjar","names":{"en":"Jhajjar","ar":"جاهجار","bn":"ঝজ্জর","hi":"झज्जर","ru":"Джаджар","zh":"切杰尔","de":"Jhajjar","pt":"Jhajjar","fr":"Jhajjar","ur":"جھجر","sv":"Jhajjar","ko":"자쟈르","mr":"झज्जर","ms":"Jhajjar","it":"Jhajjar","ta":"ஜகஜ்ஜர்","es":"Jhajjar","te":"ఝజ్జర్","vi":"Jhajjar","ja":"ジャジアール","nl":"Jhajjar"},"country":"IN","lat":28.6063,"lon":76.6565,"pop":48424,"search_terms":["джаджар","ఝజ్జర్","جاهجار","자쟈르","ஜகஜ்ஜர்","jhajjar","ঝজ্জর","جھجر","切杰尔","ジャジアール","झज्जर"]},{"id":1805873,"name":"Jielong","names":{"en":"Jielong","zh":"接龙"},"country":"CN","lat":29.24946,"lon":106.77663,"pop":48018,"search_terms":["jielong","接龙镇","接龙"]},{"id":8541484,"name":"Jalandhar Cantonment","names":{"en":"Jalandhar Cantonment"},"country":"IN","lat":31.29421,"lon":75.61974,"pop":47845,"search_terms":["jalandhar cantonment"]},{"id":6317400,"name":"Juina","names":{"en":"Juina","es":"Juína"},"country":"BR","lat":-11.42047,"lon":-58.75488,"pop":47800,"search_terms":["juína","juina"]},{"id":12450884,"name":"Jieshi","names":{"en":"Jieshi","zh":"界石"},"country":"CN","lat":29.38958,"lon":106.60783,"pop":47636,"search_terms":["jieshi","界石"]},{"id":2545017,"name":"Jerada","names":{"en":"Jerada","ru":"Джерада"},"country":"MA","lat":34.31,"lon":-2.16,"pop":47507,"search_terms":["jerada","джерада"]},{"id":1268866,"name":"Jodhpur","names":{"en":"Jodhpur"},"country":"IN","lat":21.90174,"lon":70.0327,"pop":47329,"search_terms":["jodhpur"]},{"id":3555907,"name":"Jovellanos","names":{"en":"Jovellanos"},"country":"CU","lat":22.80375,"lon":-81.19127,"pop":47164,"search_terms":["jovellanos"]},{"id":1176035,"name":"Jatoi Shimali","names":{"en":"Jatoi Shimali"},"country":"PK","lat":29.51827,"lon":70.84474,"pop":47144,"search_terms":["jatoi shimali"]},{"id":56335,"name":"Jawhar","names":{"en":"Jawhar","so":"Jawhar","de":"Jowhar"},"country":"SO","lat":2.78087,"lon":45.50048,"pop":47086,"search_terms":["jowhar","jawhar","giohar"]},{"id":4259671,"name":"Jeffersonville","names":{"en":"Jeffersonville","ar":"جيفرسونفيلي","fa":"جفرسونویل، ایندیانا","ur":"جفرسن ویل، انڈیانا","zh":"杰斐逊维尔"},"country":"US","lat":38.27757,"lon":-85.73718,"pop":46960,"search_terms":["جفرسن ویل، انڈیانا","杰斐逊维尔","jeffersonville","جفرسونویل، ایندیانا","جيفرسونفيلي"]},{"id":655958,"name":"Jaervenpaeae","names":{"en":"Jaervenpaeae","de":"Järvenpää","nl":"Järvenpää","ro":"Järvenpää","sv":"Träskända","ru":"Ярвенпяя","ar":"يارفنبا","ja":"ヤルヴェンパー","ko":"야르벤파","uk":"Ярвенпяа","zh":"耶爾文佩","ur":"جاروینپاا"},"country":"FI","lat":60.47369,"lon":25.08992,"pop":46942,"search_terms":["träskända","야르벤파","ярвенпяа","jarvenpaa","يارفنبا","ярвенпяя","耶爾文佩","جاروینپاا","järvenpää","ヤルヴェンパー","jaervenpaeae"]},{"id":3459785,"name":"Joao Pinheiro","names":{"en":"Joao Pinheiro","kk":"Жуан-Пиньейру","ru":"Жуан-Пиньейру","zh":"若昂皮涅鲁"},"country":"BR","lat":-17.7425,"lon":-46.1725,"pop":46801,"search_terms":["joao pinheiro","жуан-пиньейру","若昂皮涅鲁"]},{"id":1269315,"name":"Jamner","names":{"en":"Jamner"},"country":"IN","lat":20.80949,"lon":75.77768,"pop":46762,"search_terms":["jamner"]},{"id":9063948,"name":"Joda","names":{"en":"Joda"},"country":"IN","lat":22.017,"lon":85.422,"pop":46631,"search_terms":["joda"]},{"id":1176022,"name":"Jauharabad","names":{"en":"Jauharabad"},"country":"PK","lat":32.29016,"lon":72.28182,"pop":46545,"search_terms":["jauharabad"]},{"id":3074603,"name":"Jablonec nad Nisou","names":{"en":"Jablonec nad Nisou","de":"Gablonz","pl":"Jablonec nad Nysą","cs":"Jablonec nad Nisou","id":"Jablonec nad Nisou","ko":"야블로네츠나트니소우","ru":"Яблонец","fr":"Jablonec nad Nisou"},"country":"CZ","lat":50.72431,"lon":15.17108,"pop":46209,"search_terms":["jablonec nad nysą","야블로네츠나트니소우","gablonz","яблонец","jablonec nad nisou","gablonz an der neisse"]},{"id":3949231,"name":"Jacobo Hunter","names":{"en":"Jacobo Hunter"},"country":"PE","lat":-16.44083,"lon":-71.55333,"pop":46092,"search_terms":["jacobo hunter"]},{"id":1269323,"name":"Jammalamadugu","names":{"en":"Jammalamadugu"},"country":"IN","lat":14.84677,"lon":78.38314,"pop":46069,"search_terms":["jammalamadugu"]},{"id":3460242,"name":"Jaguaquara","names":{"en":"Jaguaquara"},"country":"BR","lat":-13.53056,"lon":-39.97083,"pop":45964,"search_terms":["jaguaquara"]},{"id":2251084,"name":"Joal","names":{"en":"Joal"},"country":"SN","lat":14.17309,"lon":-16.84929,"pop":45903,"search_terms":["joal"]},{"id":3460071,"name":"Jardinopolis","names":{"en":"Jardinopolis"},"country":"BR","lat":-21.01778,"lon":-47.76389,"pop":45282,"search_terms":["jardinopolis"]},{"id":3460107,"name":"Jaragua","names":{"en":"Jaragua","kk":"Жарагуа","ru":"Жарагуа","zh":"雅拉瓜","hy":"Ժարագուա","ka":"ჟარაგუა"},"country":"BR","lat":-15.75694,"lon":-49.33444,"pop":45223,"search_terms":["ժարագուա","雅拉瓜","ჟარაგუა","jaragua","жарагуа"]},{"id":3680387,"name":"Jamundi","names":{"en":"Jamundi","ru":"Хамунди"},"country":"CO","lat":3.26074,"lon":-76.53499,"pop":44833,"search_terms":["jamundi","хамунди"]},{"id":13494730,"name":"Jawaharnagar","names":{"en":"Jawaharnagar"},"country":"IN","lat":17.51001,"lon":78.56562,"pop":44562,"search_terms":["jawaharnagar"]},{"id":1805117,"name":"Jiushan","names":{"en":"Jiushan"},"country":"CN","lat":36.19611,"lon":118.465,"pop":44420,"search_terms":["jiushan"]},{"id":1268896,"name":"Jintur","names":{"en":"Jintur"},"country":"IN","lat":19.61186,"lon":76.6874,"pop":44291,"search_terms":["jintur"]},{"id":56166,"name":"Jilib","names":{"en":"Jilib","ru":"Джилиб"},"country":"SO","lat":0.48829,"lon":42.78535,"pop":43694,"search_terms":["джилиб","jilib"]},{"id":1805661,"name":"Jingguan","names":{"en":"Jingguan","zh":"静观"},"country":"CN","lat":29.89545,"lon":106.5639,"pop":43674,"search_terms":["静观镇","jingguan","静观"]},{"id":1804976,"name":"Juexi","names":{"en":"Juexi","zh":"蕨溪"},"country":"CN","lat":28.9241,"lon":104.26154,"pop":43527,"search_terms":["蕨溪","juexi"]},{"id":1269350,"name":"Jambusar","names":{"en":"Jambusar"},"country":"IN","lat":22.05236,"lon":72.80074,"pop":43344,"search_terms":["jambusar"]},{"id":4004024,"name":"Jerez de Garcia Salinas","names":{"en":"Jerez de Garcia Salinas","ru":"Херес-де-Гарсия-Салинас"},"country":"MX","lat":22.6497,"lon":-102.98979,"pop":43064,"search_terms":["херес-де-гарсия-салинас","jerez de garcia salinas"]},{"id":10265066,"name":"Jiwanpur","names":{"en":"Jiwanpur"},"country":"IN","lat":28.71448,"lon":77.28489,"pop":43054,"search_terms":["jiwanpur"]},{"id":4003995,"name":"Jesus Maria","names":{"en":"Jesus Maria"},"country":"MX","lat":21.96111,"lon":-102.34333,"pop":43012,"search_terms":["jesus maria"]},{"id":1806282,"name":"Jiangping","names":{"en":"Jiangping"},"country":"CN","lat":21.6,"lon":108.15,"pop":42985,"search_terms":["jiangping"]},{"id":4392388,"name":"Jefferson City","names":{"en":"Jefferson City","es":"Jefferson City","de":"Jefferson City","pl":"Jefferson City","fr":"Jefferson City","it":"Jefferson City","ja":"ジェファーソンシティ","ko":"제퍼슨시티","pt":"Jefferson City","ru":"Джефферсон-Сити","sv":"Jefferson City","id":"Kota Jefferson","nl":"Jefferson City","fa":"جفرسون‌سیتی","mr":"जेफरसन सिटी","kk":"Джефферсон Сити","hi":"जेफर्सन सिटी","uk":"Джефферсон-Сіті","ar":"جفرسون سيتي","hy":"Ջեֆերսոն Սիթի","tl":"Lungsod ng Jefferson","ta":"ஜெபர்சன் நகரம்","zh":"杰斐逊城","el":"Τζέφερσον Σίτι","ky":"Джэфферсон Сити","ur":"جیفرسن سٹی، مسوری"},"country":"US","lat":38.5767,"lon":-92.17352,"pop":42595,"search_terms":["杰斐逊城","जेफरसन सिटी","جیفرسن سٹی، مسوری","kota jefferson","जेफर्सन सिटी","جفرسون‌سیتی","ジェファーソンシティ","джефферсон сити","джефферсон-сіті","ջեֆերսոն սիթի","جفرسون سيتي","제퍼슨시티","τζέφερσον σίτι","ஜெபர்சன் நகரம்","lungsod ng jefferson","jefferson city","джефферсон-сити","джэфферсон сити"]},{"id":3397230,"name":"Jose de Freitas","names":{"en":"Jose de Freitas"},"country":"BR","lat":-4.75639,"lon":-42.57556,"pop":42559,"search_terms":["jose de freitas"]},{"id":1269168,"name":"Jaspur","names":{"en":"Jaspur","hi":"जसपुर","sv":"Jaspur","pt":"Jaspur","ms":"Jaspur","it":"Jaspur","fr":"Jaspur","ta":"ஜஸ்பூர்","zh":"贾斯普尔","es":"Jaspur","vi":"Jaspur","fa":"جاسپور","pl":"Jaspur","ur":"جسپر","nl":"Jaspur"},"country":"IN","lat":29.27919,"lon":78.82798,"pop":42524,"search_terms":["جاسپور","ஜஸ்பூர்","jaspur","贾斯普尔","जसपुर","جسپر"]},{"id":56399,"name":"Jamaame","names":{"en":"Jamaame","de":"Jamaame"},"country":"SO","lat":0.06968,"lon":42.74497,"pop":42270,"search_terms":["jamaame"]},{"id":4003662,"name":"Juventino Rosas","names":{"en":"Juventino Rosas","es":"Santa Cruz de Juventino Rosas","ru":"Санта-Крус-де-Хувентино-Росас"},"country":"MX","lat":20.64337,"lon":-100.99286,"pop":42264,"search_terms":["санта-крус-де-хувентино-росас","juventino rosas","santa cruz de juventino rosas"]},{"id":10173805,"name":"Joint Base Pearl Harbor Hickam","names":{"en":"Joint Base Pearl Harbor Hickam"},"country":"US","lat":21.34906,"lon":-157.94713,"pop":42184,"search_terms":["joint base pearl harbor hickam"]},{"id":1269477,"name":"Jajpur","names":{"en":"Jajpur"},"country":"IN","lat":20.84852,"lon":86.33729,"pop":42157,"search_terms":["jajpur"]},{"id":1268823,"name":"Jora","names":{"en":"Jora","ru":"Жора"},"country":"IN","lat":26.34209,"lon":77.8092,"pop":42153,"search_terms":["жора","jora"]},{"id":1846371,"name":"Jangseong","names":{"en":"Jangseong","ko":"장성"},"country":"KR","lat":35.29778,"lon":126.78444,"pop":42129,"search_terms":["장성","jangseong"]},{"id":1185204,"name":"Jhingergacha","names":{"en":"Jhingergacha","bn":"Jhikargāchha"},"country":"BD","lat":23.11134,"lon":89.09061,"pop":41957,"search_terms":["jhingergacha","jhikergacha","jhingergācha","jhikargāchha"]},{"id":13117829,"name":"Jaxaay Parcelle Niakoul Rap","names":{"en":"Jaxaay Parcelle Niakoul Rap"},"country":"SN","lat":14.77474,"lon":-17.28024,"pop":41570,"search_terms":["jaxaay parcelle niakoul rap"]},{"id":8224045,"name":"Jordan","names":{"en":"Jordan","zh":"佐敦"},"country":"HK","lat":22.30539,"lon":114.17001,"pop":41537,"search_terms":["jordan","佐敦"]},{"id":1269570,"name":"Jaggayyapeta","names":{"en":"Jaggayyapeta"},"country":"IN","lat":16.8938,"lon":80.09807,"pop":41180,"search_terms":["jaggayyapeta"]},{"id":3556168,"name":"Jiguani","names":{"en":"Jiguani"},"country":"CU","lat":20.36785,"lon":-76.42741,"pop":41106,"search_terms":["jiguani"]},{"id":1268834,"name":"Jalarpet","names":{"en":"Jalarpet"},"country":"IN","lat":12.57025,"lon":78.57318,"pop":40959,"search_terms":["jalarpet"]},{"id":1269046,"name":"Jhajha","names":{"en":"Jhajha","hi":"झाझा","ru":"Джаджа","sv":"Jhā Jhā","pt":"Jhajha","ms":"Jhajha","it":"Jhajha","bn":"ঝাঝা","fr":"Jhajha","zh":"贾贾","vi":"Jhajha","ha":"Jhajha","nl":"Jhajha"},"country":"IN","lat":24.77107,"lon":86.37888,"pop":40646,"search_terms":["jhā jhā","ঝাঝা","джаджа","贾贾","झाझा","jhajha"]},{"id":3460362,"name":"Jacarezinho","names":{"en":"Jacarezinho","ru":"Жакарезинью"},"country":"BR","lat":-23.16056,"lon":-49.96944,"pop":40375,"search_terms":["jacarezinho","жакарезинью"]},{"id":1642317,"name":"Juwana","names":{"en":"Juwana","id":"Juwana"},"country":"ID","lat":-6.715,"lon":111.1514,"pop":40177,"search_terms":["juwana"]},{"id":1710389,"name":"Jaen","names":{"en":"Jaen","ru":"Хаэн"},"country":"PH","lat":15.3275,"lon":120.9192,"pop":39700,"search_terms":["jaen","хаэн"]},{"id":1269445,"name":"Jalalabad","names":{"en":"Jalalabad"},"country":"IN","lat":30.60622,"lon":74.25727,"pop":39525,"search_terms":["jalalabad"]},{"id":169023,"name":"Jisr ash Shughur","names":{"en":"Jisr ash Shughur","ar":"جسر الشغور"},"country":"SY","lat":35.81418,"lon":36.31983,"pop":39311,"search_terms":["jisr ash shughur","جسر الشغور"]},{"id":1268855,"name":"Jogbani","names":{"en":"Jogbani"},"country":"IN","lat":26.39905,"lon":87.26525,"pop":39281,"search_terms":["jogbani"]},{"id":291775,"name":"Jumayra","names":{"en":"Jumayra","ar":"جميرا"},"country":"AE","lat":25.20795,"lon":55.24969,"pop":39080,"search_terms":["jumayra","جميرا"]},{"id":12324249,"name":"Jinzhongzi","names":{"en":"Jinzhongzi"},"country":"CN","lat":36.33457,"lon":119.25807,"pop":39054,"search_terms":["jinzhongzi"]},{"id":130245,"name":"Javanrud","names":{"en":"Javanrud"},"country":"IR","lat":34.79611,"lon":46.51722,"pop":38657,"search_terms":["javanrud"]},{"id":1269415,"name":"Jalesar","names":{"en":"Jalesar"},"country":"IN","lat":27.47315,"lon":78.3031,"pop":38614,"search_terms":["jalesar"]},{"id":1806516,"name":"Jiachuan","names":{"en":"Jiachuan","zh":"嘉川"},"country":"CN","lat":32.20907,"lon":106.21494,"pop":38421,"search_terms":["嘉川","jiachuan"]},{"id":770293,"name":"Jaslo","names":{"en":"Jaslo","ru":"Ясло","uk":"Ясло","zh":"亚斯沃","ur":"یسوو"},"country":"PL","lat":49.74506,"lon":21.47252,"pop":37851,"search_terms":["jaslo","亚斯沃","ясло","یسوو"]},{"id":1907975,"name":"Jinshan","names":{"en":"Jinshan"},"country":"CN","lat":34.81139,"lon":105.43444,"pop":37727,"search_terms":["jinshan"]},{"id":3696057,"name":"Juanjui","names":{"en":"Juanjui","es":"Juanjuí","de":"Juanjuí","ru":"Хуанхуи","pt":"Juanjuí","fr":"Juanjuí","uk":"Хуанхуї","it":"Juanjuí","zh":"胡安惠","cs":"Juanjuí","ja":"フアンフイ","fa":"خوانخوی","nl":"Juanjuí"},"country":"PE","lat":-7.17697,"lon":-76.72774,"pop":37715,"search_terms":["juanjuí","خوانخوی","胡安惠","хуанхуи","フアンフイ","хуанхуї","juanjui"]},{"id":6317358,"name":"Jaiba","names":{"en":"Jaiba"},"country":"BR","lat":-15.33833,"lon":-43.67444,"pop":37660,"search_terms":["jaiba"]},{"id":3459922,"name":"Jeremoabo","names":{"en":"Jeremoabo"},"country":"BR","lat":-10.076,"lon":-38.34725,"pop":37626,"search_terms":["jeremoabo"]},{"id":3460068,"name":"Jarinu","names":{"en":"Jarinu"},"country":"BR","lat":-23.10139,"lon":-46.72833,"pop":37535,"search_terms":["jarinu"]},{"id":1642628,"name":"Jekulo","names":{"en":"Jekulo","id":"Jekulo"},"country":"ID","lat":-6.8057,"lon":110.9262,"pop":37521,"search_terms":["jekulo"]},{"id":1678008,"name":"Jincheng","names":{"en":"Jincheng","zh":"金城"},"country":"TW","lat":24.43415,"lon":118.31712,"pop":37507,"search_terms":["金城","jincheng"]},{"id":1269020,"name":"Jhalrapatan","names":{"en":"Jhalrapatan"},"country":"IN","lat":24.54205,"lon":76.17242,"pop":37506,"search_terms":["jhalrapatan"]},{"id":4940764,"name":"Jamaica Plain","names":{"en":"Jamaica Plain","ur":"جمیکا پلائیں"},"country":"US","lat":42.30982,"lon":-71.12033,"pop":37468,"search_terms":["jamaica plain","جمیکا پلائیں"]},{"id":3012219,"name":"Joue-les-Tours","names":{"en":"Joue-les-Tours","pl":"Joué-lès-Tours","fr":"Joué-lès-Tours","it":"Joué-lès-Tours","nl":"Joué-lès-Tours","pt":"Joué-lès-Tours","sv":"Joué-lès-Tours","ru":"Жу-ле-Тур"},"country":"FR","lat":47.34907,"lon":0.66513,"pop":37466,"search_terms":["жу-ле-тур","joue-les-tours","joué-lès-tours"]},{"id":1176358,"name":"Jalalpur Pirwala","names":{"en":"Jalalpur Pirwala","pt":"Jalalpur Pirwala","fa":"جلال‌پور پیروالا","fr":"Jalalpur Pirwala","pl":"Dźalalpur Pirwala","ur":"جلالپور پیروالا","es":"Jalalpur Pirwala","nl":"Jalalpur Pirwala"},"country":"PK","lat":29.5051,"lon":71.22202,"pop":37393,"search_terms":["jalalpur pirwala","dźalalpur pirwala","جلال‌پور پیروالا","جلالپور پیروالا"]},{"id":1269488,"name":"Jaito","names":{"en":"Jaito"},"country":"IN","lat":30.45126,"lon":74.89189,"pop":37377,"search_terms":["jaito"]},{"id":1529420,"name":"Jelilyuezi","names":{"en":"Jelilyuezi","zh":"吉里于孜"},"country":"CN","lat":43.9749,"lon":81.53555,"pop":37238,"search_terms":["jelilyuezi","吉里于孜"]},{"id":1844954,"name":"Jungpyong","names":{"en":"Jungpyong"},"country":"KR","lat":36.78472,"lon":127.58194,"pop":37207,"search_terms":["jungpyong"]},{"id":3595248,"name":"Jacaltenango","names":{"en":"Jacaltenango","ru":"Хакальтенанго"},"country":"GT","lat":15.66662,"lon":-91.71177,"pop":37171,"search_terms":["хакальтенанго","jacaltenango"]},{"id":3175628,"name":"Jesi","names":{"en":"Jesi","ru":"Джези","pl":"Jesi","de":"Jesi","fr":"Jesi","it":"Jesi","ja":"イェージ","nl":"Jesi","pt":"Jesi","es":"Iesi","ar":"ييزي","fa":"ایسی","ms":"Iesi","uk":"Єзі"},"country":"IT","lat":43.52142,"lon":13.24368,"pop":36985,"search_terms":["єзі","ایسی","イェージ","jesi","ييزي","iesi","ези","джези"]},{"id":3459667,"name":"Jose Bonifacio","names":{"en":"Jose Bonifacio"},"country":"BR","lat":-21.05278,"lon":-49.68833,"pop":36633,"search_terms":["jose bonifacio"]},{"id":1772983,"name":"Jawi","names":{"en":"Jawi","ms":"Jawi"},"country":"MY","lat":5.21525,"lon":100.49211,"pop":36601,"search_terms":["jawi"]},{"id":3862320,"name":"Juan Jose Castelli","names":{"en":"Juan Jose Castelli"},"country":"AR","lat":-25.9466,"lon":-60.62008,"pop":36588,"search_terms":["juan jose castelli"]},{"id":148290,"name":"Jalilabad","names":{"en":"Jalilabad","az":"Cəlilabad","ru":"Джалильабад"},"country":"AZ","lat":39.20963,"lon":48.49186,"pop":36259,"search_terms":["jalilabad","cəlilabad","джалильабад"]},{"id":3655446,"name":"Jipijapa","names":{"en":"Jipijapa"},"country":"EC","lat":-1.34841,"lon":-80.57913,"pop":35901,"search_terms":["jipijapa"]},{"id":6317397,"name":"Juara","names":{"en":"Juara"},"country":"BR","lat":-11.255,"lon":-57.51972,"pop":35899,"search_terms":["juara"]},{"id":1269053,"name":"Jhabua","names":{"en":"Jhabua","ru":"Дхабуа"},"country":"IN","lat":22.76772,"lon":74.59087,"pop":35753,"search_terms":["jhabua","дхабуа"]},{"id":789923,"name":"Jagodina","names":{"en":"Jagodina","ru":"Ягодина","ar":"ياغودينا","el":"Γιάγκοντινα","fa":"یاگودینا","ja":"ヤゴディナ","kk":"Ягодина","ko":"야고디나","zh":"雅戈丁那","ur":"یاگودینا"},"country":"RS","lat":43.97713,"lon":21.26121,"pop":35589,"search_terms":["야고디나","یاگودینا","γιάγκοντινα","ياغودينا","jagodina","ヤゴディナ","ягодина","雅戈丁那"]},{"id":770380,"name":"Jaroslaw","names":{"en":"Jaroslaw","pl":"Jarosław","de":"Jaroslau","nl":"Jarosław","ro":"Jarosław","sv":"Jarosław","uk":"Ярослав","ru":"Ярослав","zh":"雅罗斯瓦夫","ur":"جاروسواو"},"country":"PL","lat":50.01623,"lon":22.67776,"pop":35475,"search_terms":["雅罗斯瓦夫","jaroslau","jarosław","jaroslaw","جاروسواو","ярослав"]},{"id":3460214,"name":"Jaguariaiva","names":{"en":"Jaguariaiva"},"country":"BR","lat":-24.24423,"lon":-49.70932,"pop":35141,"search_terms":["jaguariaiva"]},{"id":1269447,"name":"Jalalabad","names":{"en":"Jalalabad"},"country":"IN","lat":27.72625,"lon":79.65523,"pop":35051,"search_terms":["jalalabad"]},{"id":1710357,"name":"Jalajala","names":{"en":"Jalajala"},"country":"PH","lat":14.353,"lon":121.3225,"pop":34901,"search_terms":["jalajala"]},{"id":1269379,"name":"Jamadoba","names":{"en":"Jamadoba"},"country":"IN","lat":23.71667,"lon":86.4,"pop":34774,"search_terms":["jamadoba"]},{"id":5987650,"name":"Joliette","names":{"en":"Joliette","ar":"جولييت، كيبك","fa":"ژولیت","uk":"Жольєт","fr":"Joliette"},"country":"CA","lat":46.0164,"lon":-73.4236,"pop":34772,"search_terms":["جولييت، كيبك","жольєт","joliette","ژولیت"]},{"id":283506,"name":"Janin","names":{"en":"Janin","de":"Dschenin","fr":"Jénine","ar":"جنين","it":"Jenin","nl":"Jenin","ru":"Дженин"},"country":"PS","lat":32.45943,"lon":35.30086,"pop":34730,"search_terms":["janin","dschenin","جنين","jenin","jénine","дженин"]},{"id":1846544,"name":"Jangheung","names":{"en":"Jangheung","ko":"장흥"},"country":"KR","lat":34.68164,"lon":126.90694,"pop":34544,"search_terms":["장흥","changhŭng","jangheung"]},{"id":4013710,"name":"Jose Mariano Jimenez","names":{"en":"Jose Mariano Jimenez","es":"José Mariano Jiménez"},"country":"MX","lat":27.13076,"lon":-104.92391,"pop":34281,"search_terms":["jose mariano jimenez","josé mariano jiménez"]},{"id":1269327,"name":"Jamkhed","names":{"en":"Jamkhed"},"country":"IN","lat":18.73519,"lon":75.31343,"pop":34017,"search_terms":["jamkhed"]},{"id":1269102,"name":"Jayamkondacholapuram","names":{"en":"Jayamkondacholapuram"},"country":"IN","lat":11.21266,"lon":79.36369,"pop":33945,"search_terms":["jayamkondacholapuram"]},{"id":2894553,"name":"Juelich","names":{"en":"Juelich","fr":"Juliers","fa":"یولیش","kk":"Юлих","uk":"Юліх","ru":"Юлих","zh":"于利希","de":"Jülich","ar":"يوليش"},"country":"DE","lat":50.92149,"lon":6.36267,"pop":33911,"search_terms":["یولیش","يوليش","юлих","于利希","juelich","juliers","jülich","юліх"]},{"id":3397675,"name":"Jaguaribe","names":{"en":"Jaguaribe","ru":"Жагуариби"},"country":"BR","lat":-5.89056,"lon":-38.62194,"pop":33726,"search_terms":["jaguaribe","жагуариби"]},{"id":3608503,"name":"Juticalpa","names":{"en":"Juticalpa"},"country":"HN","lat":14.66438,"lon":-86.22246,"pop":33686,"search_terms":["juticalpa"]},{"id":1269581,"name":"Jagatsinghapur","names":{"en":"Jagatsinghapur"},"country":"IN","lat":20.2557,"lon":86.17112,"pop":33631,"search_terms":["jagatsinghapur"]},{"id":1732602,"name":"Jerantut","names":{"en":"Jerantut","ms":"Jerantut"},"country":"MY","lat":3.936,"lon":102.3626,"pop":33606,"search_terms":["jerantut"]},{"id":1710222,"name":"Jetafe","names":{"en":"Jetafe","es":"Jetafe","fr":"Jetafe","nl":"Getafe"},"country":"PH","lat":10.14722,"lon":124.15389,"pop":33485,"search_terms":["getafe","jetafe"]},{"id":3397315,"name":"Joao Camara","names":{"en":"Joao Camara"},"country":"BR","lat":-5.5375,"lon":-35.81972,"pop":33290,"search_terms":["joao camara"]},{"id":4997384,"name":"Jackson","names":{"en":"Jackson","ru":"Джексон","ar":"جاكسون","ja":"ジャクソン","kk":"Джэксон","fa":"جکسون، میشیگان","ky":"Джэксон","ur":"جیکسن، مشی گن"},"country":"US","lat":42.24587,"lon":-84.40135,"pop":33133,"search_terms":["جاكسون","jackson","джексон","джэксон","ジャクソン","جیکسن، مشی گن","جکسون، میشیگان"]},{"id":8405717,"name":"Jukui","names":{"en":"Jukui","zh":"聚奎"},"country":"CN","lat":30.63588,"lon":107.59633,"pop":32971,"search_terms":["jukui","黄土坎","聚奎","聚奎镇"]},{"id":11903637,"name":"Jakomini","names":{"en":"Jakomini"},"country":"AT","lat":47.05441,"lon":15.44984,"pop":32912,"search_terms":["jakomini"]},{"id":1269239,"name":"Janjgir","names":{"en":"Janjgir"},"country":"IN","lat":22.00922,"lon":82.5778,"pop":32833,"search_terms":["janjgir"]},{"id":3526593,"name":"Jaltipan de Morelos","names":{"en":"Jaltipan de Morelos"},"country":"MX","lat":17.96542,"lon":-94.71396,"pop":32778,"search_terms":["jaltipan de morelos"]},{"id":3460225,"name":"Jaguarari","names":{"en":"Jaguarari"},"country":"BR","lat":-10.26389,"lon":-40.19583,"pop":32703,"search_terms":["jaguarari"]},{"id":8400138,"name":"Jiulongshan","names":{"en":"Jiulongshan","zh":"九龙山"},"country":"CN","lat":31.19445,"lon":108.25094,"pop":32696,"search_terms":["九龙山镇","jiulongshan","九龙山","广佛寺"]},{"id":1710378,"name":"Jagna","names":{"en":"Jagna"},"country":"PH","lat":9.6531,"lon":124.3697,"pop":32566,"search_terms":["jagna"]},{"id":993910,"name":"Jeffreys Bay","names":{"en":"Jeffreys Bay","zh":"傑弗里斯貝","ru":"Джеффрис-Бей"},"country":"ZA","lat":-34.04526,"lon":24.92146,"pop":32477,"search_terms":["傑弗里斯貝","jeffreys bay","джеффрис-бей"]},{"id":11333755,"name":"Jujuvadi","names":{"en":"Jujuvadi"},"country":"IN","lat":12.76794,"lon":77.79184,"pop":32474,"search_terms":["jujuvadi"]},{"id":1269573,"name":"Jagdispur","names":{"en":"Jagdispur"},"country":"IN","lat":25.46811,"lon":84.41939,"pop":32447,"search_terms":["jagdispur"]},{"id":1642754,"name":"Jaten","names":{"en":"Jaten"},"country":"ID","lat":-7.57722,"lon":110.8975,"pop":32378,"search_terms":["jaten"]},{"id":169113,"name":"Jayrud","names":{"en":"Jayrud","ar":"جيرود"},"country":"SY","lat":33.80709,"lon":36.73861,"pop":32352,"search_terms":["jayrud","جيرود"]},{"id":1242835,"name":"Ja Ela","names":{"en":"Ja Ela","ta":"ஜா-எல"},"country":"LK","lat":7.0744,"lon":79.8919,"pop":32175,"search_terms":["ஜா-எல","ja ela"]},{"id":10431234,"name":"Jora Khurd","names":{"en":"Jora Khurd"},"country":"IN","lat":26.48927,"lon":77.97578,"pop":32087,"search_terms":["jora khurd"]},{"id":1549734,"name":"Jiangzhuang","names":{"en":"Jiangzhuang"},"country":"CN","lat":34.49167,"lon":117.39722,"pop":31991,"search_terms":["jiangzhuang"]},{"id":11628615,"name":"Jaridih","names":{"en":"Jaridih"},"country":"IN","lat":23.76571,"lon":85.93864,"pop":31882,"search_terms":["jaridih"]},{"id":3397665,"name":"Jaguaruana","names":{"en":"Jaguaruana"},