[{"id":993800,"name":"Johannesburg","local":"Йоханнесбург","country":"ZA","lat":-26.202,"lon":28.044,"pop":9418183,"tz":"Africa/Johannesburg"},{"id":1642911,"name":"Jakarta","local":"Джакарта","country":"ID","lat":-6.215,"lon":106.845,"pop":8540121,"tz":"Asia/Jakarta"},{"id":105343,"name":"Jeddah","local":"Джидда","country":"SA","lat":21.49,"lon":39.186,"pop":4697000,"tz":"Asia/Riyadh"},{"id":1805753,"name":"Jinan","local":"Цзинань","country":"CN","lat":36.668,"lon":116.997,"pop":4335989,"tz":"Asia/Shanghai"},{"id":1269515,"name":"Jaipur","local":"Джайпур","country":"IN","lat":26.92,"lon":75.788,"pop":3046163,"tz":"Asia/Kolkata"},{"id":1797121,"name":"Jieyang","local":"Цзеян","country":"CN","lat":23.542,"lon":116.366,"pop":1899394,"tz":"Asia/Shanghai"},{"id":2036502,"name":"Jilin","local":"Цзилинь","country":"CN","lat":43.847,"lon":126.561,"pop":1895865,"tz":"Asia/Shanghai"},{"id":1806299,"name":"Jiangmen","local":"Цзянмэнь","country":"CN","lat":22.583,"lon":113.083,"pop":1795459,"tz":"Asia/Shanghai"},{"id":1815251,"name":"Jiangyin","local":"Jiangyin","country":"CN","lat":31.911,"lon":120.263,"pop":1779515,"tz":"Asia/Shanghai"},{"id":1805528,"name":"Jinhua","local":"Цзиньхуа","country":"CN","lat":29.107,"lon":119.644,"pop":1463990,"tz":"Asia/Shanghai"},{"id":1797658,"name":"Jinjiang","local":"Цзиньцзян","country":"CN","lat":24.82,"lon":118.574,"pop":1416151,"tz":"Asia/Shanghai"},{"id":1269300,"name":"Jamshedpur","local":"Джамшедпур","country":"IN","lat":22.803,"lon":86.185,"pop":1339438,"tz":"Asia/Kolkata"},{"id":1642548,"name":"Jepara","local":"Jepara","country":"ID","lat":-6.592,"lon":110.671,"pop":1257912,"tz":"Asia/Jakarta"},{"id":1805518,"name":"Jining","local":"Цзинин","country":"CN","lat":35.405,"lon":116.581,"pop":1241012,"tz":"Asia/Shanghai"},{"id":10942283,"name":"Jinzhong","local":"Jinzhong","country":"CN","lat":37.684,"lon":112.755,"pop":1226617,"tz":"Asia/Shanghai"},{"id":1805953,"name":"Jiaxing","local":"Цзясин","country":"CN","lat":30.752,"lon":120.75,"pop":1180000,"tz":"Asia/Shanghai"},{"id":1805179,"name":"Jiujiang","local":"Цзюцзян","country":"CN","lat":29.705,"lon":116.002,"pop":1164268,"tz":"Asia/Shanghai"},{"id":1269633,"name":"Jabalpur","local":"Джабалпур","country":"IN","lat":23.167,"lon":79.95,"pop":1081677,"tz":"Asia/Kolkata"},{"id":1268865,"name":"Jodhpur","local":"Джодхпур","country":"IN","lat":26.268,"lon":73.006,"pop":1056191,"tz":"Asia/Kolkata"},{"id":1805540,"name":"Jingzhou","local":"Цзинчжоу","country":"CN","lat":30.35,"lon":112.19,"pop":1052282,"tz":"Asia/Shanghai"},{"id":2335953,"name":"Jos","local":"Йос","country":"NG","lat":9.928,"lon":8.892,"pop":1040000,"tz":"Africa/Lagos"},{"id":4160021,"name":"Jacksonville","local":"Джэксонвилл","country":"US","lat":30.332,"lon":-81.656,"pop":1009833,"tz":"America/New_York"},{"id":281184,"name":"Jerusalem","local":"Иерусалим","country":"IL","lat":31.769,"lon":35.216,"pop":971800,"tz":"Asia/Jerusalem"},{"id":1268782,"name":"Jalandhar","local":"Джаландхар","country":"IN","lat":31.326,"lon":75.579,"pop":868929,"tz":"Asia/Kolkata"},{"id":1805987,"name":"Jiaozuo","local":"Цзяоцзо","country":"CN","lat":35.239,"lon":113.239,"pop":865413,"tz":"Asia/Shanghai"},{"id":1732752,"name":"Johor Bahru","local":"Джохор-Бару","country":"MY","lat":1.466,"lon":103.758,"pop":858118,"tz":"Asia/Kuala_Lumpur"},{"id":3397277,"name":"Joao Pessoa","local":"Жуан-Песоа","country":"BR","lat":-7.115,"lon":-34.863,"pop":817511,"tz":"America/Fortaleza"},{"id":3397838,"name":"Jaboatao","local":"Jaboatão","country":"BR","lat":-8.18,"lon":-35.001,"pop":702621,"tz":"America/Recife"},{"id":6317344,"name":"Jaboatao dos Guararapes","local":"Жабоатан-дус-Гуарарапис","country":"BR","lat":-8.113,"lon":-35.015,"pop":644037,"tz":"America/Recife"},{"id":1805611,"name":"Jingmen","local":"Цзинмэнь","country":"CN","lat":31.034,"lon":112.205,"pop":632954,"tz":"Asia/Shanghai"},{"id":1845457,"name":"Jeonju","local":"Чонджу","country":"KR","lat":35.822,"lon":127.149,"pop":629618,"tz":"Asia/Seoul"},{"id":1806096,"name":"Jiaozhou","local":"Jiaozhou","country":"CN","lat":36.284,"lon":120.003,"pop":619266,"tz":"Asia/Shanghai"},{"id":1642858,"name":"Jambi City","local":"Джамби","country":"ID","lat":-1.6,"lon":103.617,"pop":606200,"tz":"Asia/Jakarta"},{"id":2036427,"name":"Jinzhou","local":"Цзиньчжоу","country":"CN","lat":41.108,"lon":121.142,"pop":604269,"tz":"Asia/Shanghai"},{"id":1269317,"name":"Jamnagar","local":"Джамнагаром","country":"IN","lat":22.473,"lon":70.067,"pop":600943,"tz":"Asia/Kolkata"},{"id":1269321,"name":"Jammu","local":"Джамму","country":"IN","lat":32.735,"lon":74.862,"pop":576198,"tz":"Asia/Kolkata"},{"id":3459505,"name":"Juiz de Fora","local":"Жуис-ди-Фора","country":"BR","lat":-21.764,"lon":-43.35,"pop":573285,"tz":"America/Sao_Paulo"},{"id":2036581,"name":"Jiamusi","local":"Цзямусы","country":"CN","lat":46.797,"lon":130.311,"pop":549549,"tz":"Asia/Shanghai"},{"id":1806445,"name":"Ji'an","local":"Цзиань","country":"CN","lat":27.117,"lon":114.979,"pop":538699,"tz":"Asia/Shanghai"},{"id":9931406,"name":"Jianshui","local":"Jianshui","country":"CN","lat":24.277,"lon":101.224,"pop":490000,"tz":"Asia/Shanghai"},{"id":1846266,"name":"Jeju City","local":"Чеджу","country":"KR","lat":33.51,"lon":126.522,"pop":488844,"tz":"Asia/Seoul"},{"id":333795,"name":"Jijiga","local":"Джиджига","country":"ET","lat":9.35,"lon":42.8,"pop":483000,"tz":"Africa/Addis_Ababa"},{"id":1805741,"name":"Jincheng","local":"Цзиньчэн","country":"CN","lat":35.502,"lon":112.833,"pop":476945,"tz":"Asia/Shanghai"},{"id":1805680,"name":"Jingdezhen","local":"Цзиндэчжэнь","country":"CN","lat":29.295,"lon":117.208,"pop":473561,"tz":"Asia/Shanghai"},{"id":1809061,"name":"Jiaojiang","local":"Jiaojiang","country":"CN","lat":28.698,"lon":121.473,"pop":470804,"tz":"Asia/Shanghai"},{"id":3459712,"name":"Joinville","local":"Жоинвили","country":"BR","lat":-26.304,"lon":-48.846,"pop":461304,"tz":"America/Sao_Paulo"},{"id":1269407,"name":"Jalgaon","local":"Джалгаоне","country":"IN","lat":21.003,"lon":75.566,"pop":460228,"tz":"Asia/Kolkata"},{"id":373303,"name":"Juba","local":"Джуба","country":"SS","lat":4.852,"lon":31.582,"pop":450000,"tz":"Africa/Juba"},{"id":3459462,"name":"Jundiai","local":"Жундиаи","country":"BR","lat":-23.186,"lon":-46.884,"pop":443221,"tz":"America/Sao_Paulo"},{"id":1279945,"name":"Jiuquan","local":"Сучжоу","country":"CN","lat":39.743,"lon":98.517,"pop":428346,"tz":"Asia/Shanghai"},{"id":1269006,"name":"Jhansi","local":"Jhānsi","country":"IN","lat":25.459,"lon":78.58,"pop":412927,"tz":"Asia/Kolkata"},{"id":2082600,"name":"Jayapura","local":"Джаяпура","country":"ID","lat":-2.534,"lon":140.718,"pop":404004,"tz":"Asia/Jayapura"},{"id":2036389,"name":"Jixi","local":"Цзиси","country":"CN","lat":45.293,"lon":130.962,"pop":403759,"tz":"Asia/Shanghai"},{"id":1805029,"name":"Jizhou","local":"Jizhou","country":"CN","lat":37.551,"lon":115.569,"pop":362013,"tz":"Asia/Shanghai"},{"id":1175892,"name":"Jhang Sadr","local":"Джханг-Садр","country":"PK","lat":31.27,"lon":72.317,"pop":341210,"tz":"Asia/Karachi"},{"id":1268773,"name":"Junagadh","local":"Jūnāgadh","country":"IN","lat":21.52,"lon":70.46,"pop":319462,"tz":"Asia/Kolkata"},{"id":11962408,"name":"Jardim Angela","local":"Jardim Angela","country":"BR","lat":-23.716,"lon":-46.769,"pop":311432,"tz":"America/Sao_Paulo"},{"id":1642588,"name":"Jember","local":"Jember","country":"ID","lat":-8.172,"lon":113.7,"pop":298585,"tz":"Asia/Jakarta"},{"id":1269395,"name":"Jalna","local":"Jālna","country":"IN","lat":19.841,"lon":75.886,"pop":285577,"tz":"Asia/Kolkata"},{"id":1139715,"name":"Jalalabad","local":"Джелалабад","country":"AF","lat":34.426,"lon":70.452,"pop":271900,"tz":"Asia/Kabul"},{"id":5099836,"name":"Jersey City","local":"Джерси-Сити","country":"US","lat":40.728,"lon":-74.078,"pop":264290,"tz":"America/New_York"},{"id":1881953,"name":"Jurong Town","local":"Jurong Town","country":"SG","lat":1.334,"lon":103.723,"pop":262730,"tz":"Asia/Singapore"},{"id":11962427,"name":"Jardim Sao Luis","local":"Jardim Sao Luis","country":"BR","lat":-23.681,"lon":-46.739,"pop":259377,"tz":"America/Sao_Paulo"},{"id":2036458,"name":"Jining","local":"Цзинин","country":"CN","lat":41.028,"lon":113.106,"pop":258757,"tz":"Asia/Shanghai"},{"id":1881955,"name":"Jurong West","local":"Jurong West","country":"SG","lat":1.35,"lon":103.723,"pop":257470,"tz":"Asia/Singapore"},{"id":333772,"name":"Jimma","local":"Джимма","country":"ET","lat":7.673,"lon":36.834,"pop":250900,"tz":"Africa/Addis_Ababa"},{"id":2336056,"name":"Jimeta","local":"Jimeta","country":"NG","lat":9.279,"lon":12.458,"pop":248148,"tz":"Africa/Lagos"},{"id":3937513,"name":"Juliaca","local":"Хульяка","country":"PE","lat":-15.5,"lon":-70.133,"pop":245675,"tz":"America/Lima"},{"id":1336140,"name":"Jessore","local":"Jessore","country":"BD","lat":23.17,"lon":89.214,"pop":243987,"tz":"Asia/Dhaka"},{"id":1805012,"name":"Jiyuan","local":"Jiyuan","country":"CN","lat":35.089,"lon":112.588,"pop":242143,"tz":"Asia/Shanghai"},{"id":3397154,"name":"Juazeiro","local":"Juazeiro","country":"BR","lat":-9.412,"lon":-40.499,"pop":237821,"tz":"America/Bahia"},{"id":1280957,"name":"Jiayuguan","local":"Цзяюйгуань","country":"CN","lat":39.811,"lon":98.286,"pop":231853,"tz":"Asia/Shanghai"},{"id":12076997,"name":"Jose C. Paz","local":"José C. Paz","country":"AR","lat":-34.515,"lon":-58.768,"pop":230208,"tz":"America/Argentina/Buenos_Aires"},{"id":1805733,"name":"Jinchang","local":"Цзиньчан","country":"CN","lat":38.501,"lon":102.194,"pop":228561,"tz":"Asia/Shanghai"},{"id":3397147,"name":"Juazeiro do Norte","local":"Жуазейру-ду-Норти","country":"BR","lat":-7.213,"lon":-39.315,"pop":225230,"tz":"America/Fortaleza"},{"id":1805618,"name":"Jingling","local":"Jingling","country":"CN","lat":30.65,"lon":113.1,"pop":224871,"tz":"Asia/Shanghai"},{"id":1176515,"name":"Jacobabad","local":"Джейкобабад","country":"PK","lat":28.282,"lon":68.438,"pop":219315,"tz":"Asia/Karachi"},{"id":5122520,"name":"Jamaica","local":"Jamaica","country":"US","lat":40.691,"lon":-73.806,"pop":216866,"tz":"America/New_York"},{"id":1805298,"name":"Jinzhou","local":"Цзиньчжоу","country":"CN","lat":39.1,"lon":121.717,"pop":215386,"tz":"Asia/Shanghai"},{"id":3526485,"name":"Jiutepec","local":"Jiutepec","country":"MX","lat":18.881,"lon":-99.178,"pop":215357,"tz":"America/Mexico_City"},{"id":11962390,"name":"Jabaquara","local":"Jabaquara","country":"BR","lat":-23.651,"lon":-46.646,"pop":214958,"tz":"America/Sao_Paulo"},{"id":3460370,"name":"Jacarei","local":"Жакареи","country":"BR","lat":-23.305,"lon":-45.966,"pop":213110,"tz":"America/Sao_Paulo"},{"id":2516326,"name":"Jerez de la Frontera","local":"Херес-де-ла-Фронтера","country":"ES","lat":36.686,"lon":-6.136,"pop":212879,"tz":"Europe/Madrid"},{"id":3460103,"name":"Jaragua","local":"Jaraguá","country":"BR","lat":-23.441,"lon":-46.738,"pop":211610,"tz":"America/Sao_Paulo"},{"id":11524601,"name":"Jebel Ali","local":"Jebel Ali","country":"AE","lat":25.003,"lon":55.108,"pop":210000,"tz":"Asia/Dubai"},{"id":1785710,"name":"Jinghong","local":"Jinghong","country":"CN","lat":22.003,"lon":100.77,"pop":205523,"tz":"Asia/Shanghai"},{"id":1805798,"name":"Jijiang","local":"Jijiang","country":"CN","lat":29.29,"lon":106.25,"pop":196787,"tz":"Asia/Shanghai"},{"id":1283318,"name":"Janakpur","local":"Джанакпур","country":"NP","lat":26.729,"lon":85.926,"pop":195438,"tz":"Asia/Kathmandu"},{"id":1175864,"name":"Jhelum","local":"Джелам","country":"PK","lat":32.934,"lon":73.731,"pop":190425,"tz":"Asia/Karachi"},{"id":1529651,"name":"Jinshanlu","local":"Алтайская","country":"CN","lat":47.85,"lon":88.133,"pop":190064,"tz":"Asia/Urumqi"},{"id":6825489,"name":"Joetsu","local":"Дзёэцу","country":"JP","lat":37.148,"lon":138.236,"pop":189430,"tz":"Asia/Tokyo"},{"id":1805704,"name":"Jing'an","local":"Jing’an","country":"CN","lat":22.211,"lon":113.292,"pop":186000,"tz":"Asia/Shanghai"},{"id":3460102,"name":"Jaragua do Sul","local":"Жарагуа-ду-Сул","country":"BR","lat":-26.486,"lon":-49.067,"pop":182660,"tz":"America/Sao_Paulo"},{"id":1513886,"name":"Jizzax","local":"Джизак","country":"UZ","lat":40.134,"lon":67.83,"pop":179200,"tz":"Asia/Samarkand"},{"id":2036401,"name":"Jiutai","local":"Jiutai","country":"CN","lat":44.151,"lon":125.83,"pop":175115,"tz":"Asia/Shanghai"},{"id":1269135,"name":"Jaunpur","local":"Джаунпур","country":"IN","lat":25.754,"lon":82.687,"pop":169572,"tz":"Asia/Kolkata"},{"id":1242833,"name":"Jaffna","local":"Джафна","country":"LK","lat":9.668,"lon":80.007,"pop":169102,"tz":"Asia/Colombo"},{"id":281129,"name":"Jabalya","local":"Джабалия","country":"PS","lat":31.527,"lon":34.483,"pop":168568,"tz":"Asia/Gaza"},{"id":1185106,"name":"Jamalpur","local":"Jamālpur","country":"BD","lat":24.92,"lon":89.948,"pop":167900,"tz":"Asia/Dhaka"},{"id":1268907,"name":"Jind","local":"Jīnd","country":"IN","lat":29.316,"lon":76.315,"pop":167592,"tz":"Asia/Kolkata"},{"id":195915,"name":"Jomvu","local":"Jomvu","country":"KE","lat":-3.986,"lon":39.608,"pop":163415,"tz":"Africa/Nairobi"},{"id":1269280,"name":"Jamuria","local":"Jāmuria","country":"IN","lat":23.705,"lon":87.079,"pop":160242,"tz":"Asia/Kolkata"},{"id":3595237,"name":"Jalapa","local":"Халапа","country":"GT","lat":14.635,"lon":-89.991,"pop":159840,"tz":"America/Guatemala"},{"id":7284820,"name":"Jaigaon","local":"Jaigaon","country":"IN","lat":26.848,"lon":89.376,"pop":158664,"tz":"Asia/Kolkata"},{"id":8299780,"name":"Juja","local":"Juja","country":"KE","lat":-1.101,"lon":37.013,"pop":156041,"tz":"Africa/Nairobi"},{"id":2216349,"name":"Janzur","local":"Janzūr","country":"LY","lat":32.819,"lon":13.017,"pop":154389,"tz":"Africa/Tripoli"},{"id":4431410,"name":"Jackson","local":"Джексон","country":"US","lat":32.299,"lon":-90.185,"pop":153701,"tz":"America/Chicago"},{"id":655194,"name":"Jyvaeskylae","local":"Ювяскюля","country":"FI","lat":62.241,"lon":25.721,"pop":148744,"tz":"Europe/Helsinki"},{"id":4898015,"name":"Joliet","local":"Joliet","country":"US","lat":41.525,"lon":-88.083,"pop":147861,"tz":"America/Chicago"},{"id":3595069,"name":"Jutiapa","local":"Хутиапа","country":"GT","lat":14.285,"lon":-89.888,"pop":145880,"tz":"America/Guatemala"},{"id":1805844,"name":"Jieshou","local":"Jieshou","country":"CN","lat":33.263,"lon":115.361,"pop":141993,"tz":"Asia/Shanghai"},{"id":130531,"name":"Jahrom","local":"Jahrom","country":"IR","lat":28.5,"lon":53.56,"pop":141634,"tz":"Asia/Tehran"},{"id":11695689,"name":"Jeongeup","local":"Jeongeup","country":"KR","lat":35.6,"lon":126.917,"pop":139876,"tz":"Asia/Seoul"},{"id":3723779,"name":"Jacmel","local":"Жакмеле","country":"HT","lat":18.236,"lon":-72.537,"pop":137966,"tz":"America/Port-au-Prince"},{"id":1805857,"name":"Jieshi","local":"Jieshi","country":"CN","lat":22.81,"lon":115.831,"pop":137444,"tz":"Asia/Shanghai"},{"id":7303248,"name":"Jiashan","local":"Jiashan","country":"CN","lat":30.849,"lon":120.926,"pop":137112,"tz":"Asia/Shanghai"},{"id":2036597,"name":"Jiagedaqi","local":"Jiagedaqi","country":"CN","lat":50.417,"lon":124.117,"pop":135760,"tz":"Asia/Shanghai"},{"id":1805962,"name":"Jiawang","local":"Jiawang","country":"CN","lat":34.433,"lon":117.442,"pop":133861,"tz":"Asia/Shanghai"},{"id":3460005,"name":"Jau","local":"Жау","country":"BR","lat":-22.296,"lon":-48.558,"pop":133497,"tz":"America/Sao_Paulo"},{"id":2492913,"name":"Jijel","local":"Джиджель","country":"DZ","lat":36.821,"lon":5.764,"pop":131513,"tz":"Africa/Algiers"},{"id":6925362,"name":"Jiroft","local":"Jīroft","country":"IR","lat":28.678,"lon":57.741,"pop":130429,"tz":"Asia/Tehran"},{"id":1805935,"name":"Jiazi","local":"Jiazi","country":"CN","lat":22.879,"lon":116.073,"pop":130298,"tz":"Asia/Shanghai"},{"id":11962426,"name":"Jardim Helena","local":"Jardim Helena","country":"BR","lat":-23.484,"lon":-46.413,"pop":129409,"tz":"America/Sao_Paulo"},{"id":11962391,"name":"Jose Bonifacio","local":"Jose Bonifacio","country":"BR","lat":-23.567,"lon":-46.433,"pop":128243,"tz":"America/Sao_Paulo"},{"id":3459943,"name":"Jequie","local":"Жекие","country":"BR","lat":-13.859,"lon":-40.085,"pop":127475,"tz":"America/Bahia"},{"id":1885823,"name":"Jiangyou","local":"Jiangyou","country":"CN","lat":31.767,"lon":104.717,"pop":127225,"tz":"Asia/Shanghai"},{"id":1790251,"name":"Jinfeng","local":"Jinfeng","country":"CN","lat":28.238,"lon":116.601,"pop":127076,"tz":"Asia/Shanghai"},{"id":1268820,"name":"Jorhat","local":"Джорхат","country":"IN","lat":26.758,"lon":94.203,"pop":126736,"tz":"Asia/Kolkata"},{"id":1805543,"name":"Jingzhi","local":"Jingzhi","country":"CN","lat":36.31,"lon":119.388,"pop":126703,"tz":"Asia/Shanghai"},{"id":1642414,"name":"Jombang","local":"Jombang","country":"ID","lat":-7.546,"lon":112.233,"pop":126465,"tz":"Asia/Jakarta"},{"id":1269578,"name":"Jagdalpur","local":"Джагдалпур","country":"IN","lat":19.081,"lon":82.021,"pop":125463,"tz":"Asia/Kolkata"},{"id":1269605,"name":"Jagadhri","local":"Jagādhri","country":"IN","lat":30.167,"lon":77.304,"pop":124894,"tz":"Asia/Kolkata"},{"id":3925033,"name":"Ji Parana","local":"Ji Paraná","country":"BR","lat":-10.885,"lon":-61.952,"pop":124333,"tz":"America/Porto_Velho"},{"id":2036403,"name":"Jiupu","local":"Jiupu","country":"CN","lat":41.067,"lon":122.95,"pop":123843,"tz":"Asia/Shanghai"},{"id":1528249,"name":"Jalal-Abad","local":"Джалал-Абад","country":"KG","lat":40.945,"lon":72.993,"pop":123239,"tz":"Asia/Bishkek"},{"id":2036536,"name":"Jiaohe","local":"Цзяохэ","country":"CN","lat":43.721,"lon":127.335,"pop":123018,"tz":"Asia/Shanghai"},{"id":1176106,"name":"Jaranwala","local":"Джаранвала","country":"PK","lat":31.333,"lon":73.419,"pop":119785,"tz":"Asia/Karachi"},{"id":1268936,"name":"Jhunjhunun","local":"Jhunjhunūn","country":"IN","lat":28.126,"lon":75.398,"pop":118473,"tz":"Asia/Kolkata"},{"id":1269065,"name":"Jetpur","local":"Jetpur","country":"IN","lat":21.755,"lon":70.623,"pop":118302,"tz":"Asia/Kolkata"},{"id":3460170,"name":"Jandira","local":"Jandira","country":"BR","lat":-23.527,"lon":-46.903,"pop":118045,"tz":"America/Sao_Paulo"},{"id":2336589,"name":"Jalingo","local":"Jalingo","country":"NG","lat":8.894,"lon":11.36,"pop":117757,"tz":"Africa/Lagos"},{"id":2516395,"name":"Jaen","local":"Хаэн","country":"ES","lat":37.769,"lon":-3.79,"pop":113457,"tz":"Europe/Madrid"},{"id":2702979,"name":"Joenkoeping","local":"Йёнчёпинг","country":"SE","lat":57.781,"lon":14.156,"pop":112766,"tz":"Europe/Stockholm"},{"id":1806439,"name":"Jianchang","local":"Jianchang","country":"CN","lat":27.558,"lon":116.64,"pop":109108,"tz":"Asia/Shanghai"},{"id":1269388,"name":"Jalpaiguri","local":"Jalpāiguri","country":"IN","lat":26.517,"lon":88.733,"pop":107832,"tz":"Asia/Kolkata"},{"id":2036595,"name":"Jalai Nur","local":"Чжалайнор","country":"CN","lat":49.45,"lon":117.7,"pop":107828,"tz":"Asia/Shanghai"},{"id":3460064,"name":"Jatai","local":"Jataí","country":"BR","lat":-17.879,"lon":-51.722,"pop":105729,"tz":"America/Sao_Paulo"},{"id":1269374,"name":"Jamalpur","local":"Jamālpur","country":"IN","lat":25.313,"lon":86.489,"pop":105434,"tz":"Asia/Kolkata"},{"id":105299,"name":"Jizan","local":"Джизан","country":"SA","lat":16.889,"lon":42.551,"pop":105198,"tz":"Asia/Riyadh"},{"id":2895044,"name":"Jena","local":"Йена","country":"DE","lat":50.929,"lon":11.59,"pop":104712,"tz":"Europe/Berlin"},{"id":2036418,"name":"Jishu","local":"Jishu","country":"CN","lat":44.317,"lon":126.8,"pop":103988,"tz":"Asia/Shanghai"},{"id":1269562,"name":"Jagtial","local":"Jagtiāl","country":"IN","lat":18.795,"lon":78.917,"pop":103930,"tz":"Asia/Kolkata"},{"id":1269557,"name":"Jahanabad","local":"Jahānābād","country":"IN","lat":25.214,"lon":84.987,"pop":103202,"tz":"Asia/Kolkata"},{"id":1805270,"name":"Jishou","local":"Jishou","country":"CN","lat":28.319,"lon":109.733,"pop":102332,"tz":"Asia/Shanghai"},{"id":3460132,"name":"Japeri","local":"Japeri","country":"BR","lat":-22.643,"lon":-43.653,"pop":102149,"tz":"America/Sao_Paulo"},{"id":1710141,"name":"Jolo","local":"Джоли","country":"PH","lat":6.052,"lon":121.002,"pop":101002,"tz":"Asia/Manila"},{"id":3708306,"name":"Juan Diaz","local":"Juan Díaz","country":"PA","lat":9.041,"lon":-79.441,"pop":100636,"tz":"America/Panama"},{"id":293253,"name":"Jaffa","local":"Яффа","country":"IL","lat":32.05,"lon":34.752,"pop":100000,"tz":"Asia/Jerusalem"},{"id":1268977,"name":"Jharsuguda","local":"Джхарсугуда","country":"IN","lat":21.855,"lon":84.007,"pop":97730,"tz":"Asia/Kolkata"},{"id":1805220,"name":"Jiudian","local":"Jiudian","country":"CN","lat":36.992,"lon":120.204,"pop":97604,"tz":"Asia/Shanghai"},{"id":3723593,"name":"Jeremie","local":"Жереми","country":"HT","lat":18.65,"lon":-74.117,"pop":97503,"tz":"America/Port-au-Prince"},{"id":6644097,"name":"Jinniu","local":"Jinniu","country":"CN","lat":25.801,"lon":100.574,"pop":96883,"tz":"Asia/Shanghai"},{"id":3097333,"name":"Jaworzno","local":"Явожно","country":"PL","lat":50.205,"lon":19.275,"pop":96541,"tz":"Europe/Warsaw"},{"id":273140,"name":"Jounieh","local":"Джуния","country":"LB","lat":33.981,"lon":35.618,"pop":96315,"tz":"Asia/Beirut"},{"id":2300182,"name":"Japekrom","local":"Japekrom","country":"GH","lat":7.576,"lon":-2.785,"pop":96000,"tz":"Africa/Accra"},{"id":3097391,"name":"Jastrzebie Zdroj","local":"Ястшембе-Здруй","country":"PL","lat":49.955,"lon":18.575,"pop":95813,"tz":"Europe/Warsaw"},{"id":1805408,"name":"Jinsha","local":"Цзиньша","country":"CN","lat":32.09,"lon":121.074,"pop":95647,"tz":"Asia/Shanghai"},{"id":11962387,"name":"Jacana","local":"Jaçanã","country":"BR","lat":-23.46,"lon":-46.575,"pop":94609,"tz":"America/Sao_Paulo"},{"id":1176368,"name":"Jalalpur Jattan","local":"Jalalpur Jattan","country":"PK","lat":32.641,"lon":74.206,"pop":93883,"tz":"Asia/Karachi"},{"id":1805947,"name":"Jiayue","local":"Jiayue","country":"CN","lat":36.024,"lon":119.176,"pop":93228,"tz":"Asia/Shanghai"},{"id":233114,"name":"Jinja","local":"Джинджа","country":"UG","lat":0.439,"lon":33.203,"pop":93061,"tz":"Africa/Kampala"},{"id":2300068,"name":"Jirapa","local":"Jirapa","country":"GH","lat":10.537,"lon":-2.702,"pop":91279,"tz":"Africa/Accra"},{"id":1268775,"name":"Jhumri Telaiya","local":"Jhumri Telaiya","country":"IN","lat":24.435,"lon":85.53,"pop":87867,"tz":"Asia/Kolkata"},{"id":3853354,"name":"Junin","local":"Junín","country":"AR","lat":-34.594,"lon":-60.946,"pop":87509,"tz":"America/Argentina/Buenos_Aires"},{"id":1269291,"name":"Jamui","local":"Jamūī","country":"IN","lat":24.926,"lon":86.225,"pop":87357,"tz":"Asia/Kolkata"},{"id":1268988,"name":"Jharia","local":"Jharia","country":"IN","lat":23.741,"lon":86.415,"pop":86938,"tz":"Asia/Kolkata"},{"id":1806271,"name":"Jiangshan","local":"Jiangshan","country":"CN","lat":36.678,"lon":120.529,"pop":86642,"tz":"Asia/Shanghai"},{"id":1269092,"name":"Jeypore","local":"Jeypore","country":"IN","lat":18.856,"lon":82.572,"pop":84830,"tz":"Asia/Kolkata"},{"id":1805334,"name":"Jinxiang","local":"Jinxiang","country":"CN","lat":27.433,"lon":120.606,"pop":84231,"tz":"Asia/Shanghai"},{"id":7615262,"name":"Jardim Paulista","local":"Jardim Paulista","country":"BR","lat":-23.567,"lon":-46.664,"pop":83667,"tz":"America/Sao_Paulo"},{"id":6331909,"name":"Johns Creek","local":"Џонс Крик","country":"US","lat":34.029,"lon":-84.199,"pop":83335,"tz":"America/New_York"},{"id":1805379,"name":"Jinshi","local":"Jinshi","country":"CN","lat":29.605,"lon":111.87,"pop":82906,"tz":"Asia/Shanghai"},{"id":3460344,"name":"Jacobina","local":"Жакобина","country":"BR","lat":-11.181,"lon":-40.514,"pop":82590,"tz":"America/Bahia"},{"id":1269247,"name":"Jangipur","local":"Jangipur","country":"IN","lat":24.47,"lon":88.077,"pop":82548,"tz":"Asia/Kolkata"},{"id":1804935,"name":"Junlian","local":"Junlian","country":"CN","lat":28.171,"lon":104.512,"pop":80708,"tz":"Asia/Shanghai"},{"id":3459796,"name":"Joao Monlevade","local":"Жуан-Монлевади","country":"BR","lat":-19.81,"lon":-43.174,"pop":80187,"tz":"America/Sao_Paulo"},{"id":1881952,"name":"Jurong East","local":"Jurong East","country":"SG","lat":1.329,"lon":103.74,"pop":78600,"tz":"Asia/Singapore"},{"id":655808,"name":"Joensuu","local":"Йоэнсуу","country":"FI","lat":62.601,"lon":29.763,"pop":78398,"tz":"Europe/Helsinki"},{"id":12432956,"name":"Jardim Botanico","local":"Jardim Botânico","country":"BR","lat":-15.865,"lon":-47.815,"pop":77767,"tz":"America/Sao_Paulo"},{"id":1805267,"name":"Jishui","local":"Jishui","country":"CN","lat":33.733,"lon":115.4,"pop":77540,"tz":"Asia/Shanghai"},{"id":3097257,"name":"Jelenia Gora","local":"Йеленя Гура","country":"PL","lat":50.9,"lon":15.729,"pop":77366,"tz":"Europe/Warsaw"},{"id":1805833,"name":"Jiexiu","local":"Цзесю","country":"CN","lat":37.024,"lon":111.912,"pop":77178,"tz":"Asia/Shanghai"},{"id":11054704,"name":"Jozsefvaros","local":"Józsefváros","country":"HU","lat":47.489,"lon":19.073,"pop":76957,"tz":"Europe/Budapest"},{"id":354981,"name":"Juhaynah","local":"Juhaynah","country":"EG","lat":26.674,"lon":31.497,"pop":76555,"tz":"Africa/Cairo"},{"id":97417,"name":"Jamjamal","local":"Jamjamāl","country":"IQ","lat":35.534,"lon":44.834,"pop":75634,"tz":"Asia/Baghdad"},{"id":1269217,"name":"Jaora","local":"Джаора","country":"IN","lat":23.638,"lon":75.127,"pop":74907,"tz":"Asia/Kolkata"},{"id":11611939,"name":"Joyo","local":"Jōyō","country":"JP","lat":34.844,"lon":135.806,"pop":74607,"tz":"Asia/Tokyo"},{"id":4116834,"name":"Jonesboro","local":"Джонсборо","country":"US","lat":35.842,"lon":-90.704,"pop":73907,"tz":"America/Chicago"},{"id":2336237,"name":"Jega","local":"Jega","country":"NG","lat":12.223,"lon":4.38,"pop":73495,"tz":"Africa/Lagos"},{"id":1804979,"name":"Juegang","local":"Juegang","country":"CN","lat":32.317,"lon":121.186,"pop":73317,"tz":"Asia/Shanghai"},{"id":1185206,"name":"Joypur Hat","local":"Joypur Hāt","country":"BD","lat":25.101,"lon":89.027,"pop":73068,"tz":"Asia/Dhaka"},{"id":1642726,"name":"Jatibarang","local":"Jatibarang","country":"ID","lat":-6.475,"lon":108.315,"pop":73010,"tz":"Asia/Jakarta"},{"id":1806188,"name":"Jiangzhuang","local":"Jiangzhuang","country":"CN","lat":36.494,"lon":119.794,"pop":72453,"tz":"Asia/Shanghai"},{"id":3460441,"name":"Jaboticabal","local":"Жаботикабал","country":"BR","lat":-21.255,"lon":-48.322,"pop":71821,"tz":"America/Sao_Paulo"},{"id":1805757,"name":"Jimo","local":"Jimo","country":"CN","lat":36.39,"lon":120.462,"pop":70733,"tz":"Asia/Shanghai"},{"id":3460174,"name":"Janauba","local":"Janaúba","country":"BR","lat":-15.803,"lon":-43.309,"pop":70699,"tz":"America/Sao_Paulo"},{"id":1806218,"name":"Jiangyan","local":"Jiangyan","country":"CN","lat":32.506,"lon":120.143,"pop":70375,"tz":"Asia/Shanghai"},{"id":1805884,"name":"Jiehu","local":"Jiehu","country":"CN","lat":35.543,"lon":118.455,"pop":69245,"tz":"Asia/Shanghai"},{"id":1269328,"name":"Jamkhandi","local":"Jamkhandi","country":"IN","lat":16.505,"lon":75.291,"pop":68938,"tz":"Asia/Kolkata"},{"id":1805505,"name":"Jinjiang","local":"Jinjiang","country":"CN","lat":19.729,"lon":110.009,"pop":68720,"tz":"Asia/Shanghai"},{"id":1806422,"name":"Jiang'an","local":"Jiang’an","country":"CN","lat":28.733,"lon":105.068,"pop":67776,"tz":"Asia/Shanghai"},{"id":1269507,"name":"Jaisalmer","local":"Джайсалмер","country":"IN","lat":26.918,"lon":70.904,"pop":67604,"tz":"Asia/Kolkata"},{"id":4473083,"name":"Jacksonville","local":"Джексонвилл","country":"US","lat":34.754,"lon":-77.43,"pop":67357,"tz":"America/New_York"},{"id":5122477,"name":"Jackson Heights","local":"Джексон-Хайтс","country":"US","lat":40.756,"lon":-73.885,"pop":67067,"tz":"America/New_York"},{"id":4632595,"name":"Jackson","local":"Джексон","country":"US","lat":35.615,"lon":-88.814,"pop":66975,"tz":"America/Chicago"},{"id":1269027,"name":"Jhalawar","local":"Jhālāwār","country":"IN","lat":24.596,"lon":76.165,"pop":66919,"tz":"Asia/Kolkata"},{"id":290215,"name":"Jidd Hafs","local":"Jidd Ḩafş","country":"BH","lat":26.219,"lon":50.548,"pop":66588,"tz":"Asia/Bahrain"},{"id":12157038,"name":"Jesus Maria","local":"Jesus Maria","country":"PE","lat":-12.07,"lon":-77.045,"pop":66171,"tz":"America/Lima"},{"id":4633419,"name":"Johnson City","local":"Џонсон Сити","country":"US","lat":36.313,"lon":-82.353,"pop":66027,"tz":"America/New_York"},{"id":7619704,"name":"Johor Jaya","local":"Johor Jaya","country":"MY","lat":1.539,"lon":103.809,"pop":66000,"tz":"Asia/Kuala_Lumpur"},{"id":169304,"name":"Jablah","local":"Джабла","country":"SY","lat":35.362,"lon":35.928,"pop":65915,"tz":"Asia/Damascus"},{"id":1280951,"name":"Jietou","local":"Jietou","country":"CN","lat":25.427,"lon":98.653,"pop":65843,"tz":"Asia/Shanghai"},{"id":1269564,"name":"Jagraon","local":"Jagraon","country":"IN","lat":30.788,"lon":75.474,"pop":65305,"tz":"Asia/Kolkata"},{"id":3460148,"name":"Januaria","local":"Januária","country":"BR","lat":-15.479,"lon":-44.365,"pop":65150,"tz":"America/Sao_Paulo"},{"id":5257754,"name":"Janesville","local":"Джейнсвилл","country":"US","lat":42.683,"lon":-89.019,"pop":64123,"tz":"America/Chicago"},{"id":1176241,"name":"Jampur","local":"Jampur","country":"PK","lat":29.642,"lon":70.595,"pop":63791,"tz":"Asia/Karachi"},{"id":1269154,"name":"Jatani","local":"Jatani","country":"IN","lat":20.16,"lon":85.707,"pop":63697,"tz":"Asia/Kolkata"},{"id":1772808,"name":"Jelutong","local":"Jelutong","country":"MY","lat":5.39,"lon":100.319,"pop":63507,"tz":"Asia/Kuala_Lumpur"},{"id":1736302,"name":"Jitra","local":"Jitra","country":"MY","lat":6.268,"lon":100.422,"pop":63489,"tz":"Asia/Kuala_Lumpur"},{"id":12324298,"name":"Jinggou","local":"Jinggou","country":"CN","lat":36.282,"lon":119.552,"pop":62917,"tz":"Asia/Shanghai"},{"id":4160610,"name":"Jupiter","local":"Юпитер","country":"US","lat":26.934,"lon":-80.094,"pop":62707,"tz":"America/New_York"},{"id":1806248,"name":"Jianguang","local":"Jianguang","country":"CN","lat":28.194,"lon":115.784,"pop":61469,"tz":"Asia/Shanghai"},{"id":6822154,"name":"Joso","local":"Jōsō","country":"JP","lat":36.036,"lon":139.961,"pop":60834,"tz":"Asia/Tokyo"},{"id":1803998,"name":"Jiangbei","local":"Jiangbei","country":"CN","lat":29.728,"lon":106.635,"pop":60466,"tz":"Asia/Shanghai"},{"id":1806327,"name":"Jiangkou","local":"Jiangkou","country":"CN","lat":25.487,"lon":119.198,"pop":59902,"tz":"Asia/Shanghai"},{"id":3397702,"name":"Jacunda","local":"Jacundá","country":"BR","lat":-4.447,"lon":-49.116,"pop":59842,"tz":"America/Belem"},{"id":10265191,"name":"Jaitpur","local":"Jaitpur","country":"IN","lat":28.506,"lon":77.33,"pop":59330,"tz":"Asia/Kolkata"},{"id":1806167,"name":"Jian'ou","local":"Jian’ou","country":"CN","lat":27.041,"lon":118.319,"pop":59187,"tz":"Asia/Shanghai"},{"id":2037370,"name":"Jixian","local":"Фули","country":"CN","lat":46.726,"lon":131.133,"pop":59160,"tz":"Asia/Shanghai"},{"id":7083355,"name":"Jose Rizal","local":"Jose Rizal","country":"PH","lat":8.877,"lon":117.504,"pop":59040,"tz":"Asia/Manila"},{"id":3460200,"name":"Jaguariuna","local":"Jaguariúna","country":"BR","lat":-22.706,"lon":-46.986,"pop":58722,"tz":"America/Sao_Paulo"},{"id":2036519,"name":"Jidong","local":"Jidong","country":"CN","lat":45.256,"lon":131.116,"pop":58520,"tz":"Asia/Shanghai"},{"id":1804892,"name":"Juye","local":"Juye","country":"CN","lat":35.387,"lon":116.072,"pop":58107,"tz":"Asia/Shanghai"},{"id":1642684,"name":"Jatiwangi","local":"Jatiwangi","country":"ID","lat":-6.734,"lon":108.263,"pop":57973,"tz":"Asia/Jakarta"},{"id":12324233,"name":"Jing'an","local":"Jing'an","country":"CN","lat":34.496,"lon":116.922,"pop":57825,"tz":"Asia/Shanghai"},{"id":1268990,"name":"Jhargram","local":"Jhārgrām","country":"IN","lat":22.454,"lon":86.995,"pop":57796,"tz":"Asia/Kolkata"},{"id":1269551,"name":"Jahangirabad","local":"Jahāngīrābād","country":"IN","lat":28.405,"lon":78.106,"pop":57363,"tz":"Asia/Kolkata"},{"id":1176452,"name":"Jahangira","local":"Джахангира","country":"PK","lat":33.964,"lon":72.221,"pop":57011,"tz":"Asia/Karachi"},{"id":1805515,"name":"Jinji","local":"Jinji","country":"CN","lat":23.228,"lon":110.826,"pop":56816,"tz":"Asia/Shanghai"},{"id":11962423,"name":"Jaguare","local":"Jaguare","country":"BR","lat":-23.544,"lon":-46.749,"pop":55382,"tz":"America/Sao_Paulo"},{"id":1269422,"name":"Jalaun","local":"Jālaun","country":"IN","lat":26.145,"lon":79.337,"pop":55299,"tz":"Asia/Kolkata"},{"id":3618929,"name":"Jinotega","local":"Хинотега","country":"NI","lat":13.091,"lon":-86.002,"pop":55000,"tz":"America/Managua"},{"id":4502434,"name":"Jackson","local":"Jackson","country":"US","lat":39.776,"lon":-74.862,"pop":54856,"tz":"America/New_York"},{"id":7303786,"name":"Jonquiere","local":"Жонкьер","country":"CA","lat":48.416,"lon":-71.249,"pop":54842,"tz":"America/Toronto"},{"id":459279,"name":"Jelgava","local":"Елгава","country":"LV","lat":56.65,"lon":23.713,"pop":54834,"tz":"Europe/Riga"},{"id":10265094,"name":"Jafarabad","local":"Jāfarābād","country":"IN","lat":28.679,"lon":77.271,"pop":54601,"tz":"Asia/Kolkata"},{"id":333750,"name":"Jinka","local":"Jinka","country":"ET","lat":5.65,"lon":36.65,"pop":54400,"tz":"Africa/Addis_Ababa"},{"id":3556437,"name":"Jagueey Grande","local":"Jagüey Grande","country":"CU","lat":22.527,"lon":-81.129,"pop":54363,"tz":"America/Havana"},{"id":1269392,"name":"Jalor","local":"Jalor","country":"IN","lat":25.346,"lon":72.616,"pop":54081,"tz":"Asia/Kolkata"},{"id":4004198,"name":"Jacona de Plancarte","local":"Jacona de Plancarte","country":"MX","lat":19.956,"lon":-102.306,"pop":53860,"tz":"America/Mexico_City"},{"id":8858088,"name":"Jardines de la Silla","local":"Jardines de la Silla","country":"MX","lat":25.629,"lon":-100.188,"pop":53742,"tz":"America/Monterrey"},{"id":1280948,"name":"Jinding","local":"Jinding","country":"CN","lat":26.439,"lon":99.441,"pop":53667,"tz":"Asia/Shanghai"},{"id":13156777,"name":"Jaggaiahpet","local":"Jaggaiahpet","country":"IN","lat":16.892,"lon":80.096,"pop":53530,"tz":"Asia/Kolkata"},{"id":1280945,"name":"Jinhua","local":"Jinhua","country":"CN","lat":26.538,"lon":99.917,"pop":53523,"tz":"Asia/Shanghai"},{"id":3696150,"name":"Jaen","local":"Хаэн","country":"PE","lat":-5.707,"lon":-78.808,"pop":52493,"tz":"America/Lima"},{"id":2794914,"name":"Jette","local":"Жет","country":"BE","lat":50.873,"lon":4.334,"pop":52490,"tz":"Europe/Brussels"},{"id":1269256,"name":"Jangaon","local":"Jangaon","country":"IN","lat":17.726,"lon":79.152,"pop":52394,"tz":"Asia/Kolkata"},{"id":12324507,"name":"Jitai","local":"Jitai","country":"CN","lat":36.757,"lon":118.739,"pop":52144,"tz":"Asia/Shanghai"},{"id":459201,"name":"Jurmala","local":"Юрмала","country":"LV","lat":56.968,"lon":23.77,"pop":52001,"tz":"Europe/Riga"},{"id":4392768,"name":"Joplin","local":"Джоплин","country":"US","lat":37.084,"lon":-94.513,"pop":51818,"tz":"America/Chicago"},{"id":2470088,"name":"Jendouba","local":"Джендуба","country":"TN","lat":36.501,"lon":8.78,"pop":51408,"tz":"Africa/Tunis"},{"id":3556268,"name":"Jesus Menendez","local":"Jesús Menéndez","country":"CU","lat":21.161,"lon":-76.479,"pop":51002,"tz":"America/Havana"},{"id":3396979,"name":"Juruti","local":"Журути","country":"BR","lat":-2.152,"lon":-56.092,"pop":50881,"tz":"America/Santarem"},{"id":3925040,"name":"Jaru","local":"Жара","country":"BR","lat":-10.439,"lon":-62.466,"pop":50591,"tz":"America/Porto_Velho"},{"id":1176445,"name":"Jahanian","local":"Jahanian","country":"PK","lat":30.039,"lon":71.817,"pop":50270,"tz":"Asia/Karachi"},{"id":3074199,"name":"Jihlava","local":"Йиглава","country":"CZ","lat":49.396,"lon":15.591,"pop":50108,"tz":"Europe/Prague"},{"id":1642692,"name":"Jatiroto","local":"Jatiroto","country":"ID","lat":-7.883,"lon":111.117,"pop":50059,"tz":"Asia/Jakarta"},{"id":3618908,"name":"Juigalpa","local":"Juigalpa","country":"NI","lat":12.106,"lon":-85.365,"pop":50000,"tz":"America/Managua"},{"id":1268799,"name":"Jugsalai","local":"Jugsālai","country":"IN","lat":22.777,"lon":86.184,"pop":49660,"tz":"Asia/Kolkata"},{"id":3556078,"name":"Jobabo","local":"Jobabo","country":"CU","lat":20.907,"lon":-77.282,"pop":49403,"tz":"America/Havana"},{"id":1805501,"name":"Jinjiang","local":"Jinjiang","country":"CN","lat":28.401,"lon":116.9,"pop":49245,"tz":"Asia/Shanghai"},{"id":12277995,"name":"Jiawang Zhen","local":"Jiawang Zhen","country":"CN","lat":34.422,"lon":117.468,"pop":49005,"tz":"Asia/Shanghai"},{"id":3460186,"name":"Jales","local":"Jales","country":"BR","lat":-20.269,"lon":-50.546,"pop":48776,"tz":"America/Sao_Paulo"},{"id":1269502,"name":"Jaisingpur","local":"Jaisingpur","country":"IN","lat":16.776,"lon":74.554,"pop":48510,"tz":"Asia/Kolkata"},{"id":1269179,"name":"Jasdan","local":"Jasdan","country":"IN","lat":22.037,"lon":71.208,"pop":48483,"tz":"Asia/Kolkata"},{"id":1269042,"name":"Jhajjar","local":"Джаджар","country":"IN","lat":28.606,"lon":76.656,"pop":48424,"tz":"Asia/Kolkata"},{"id":1805873,"name":"Jielong","local":"Jielong","country":"CN","lat":29.249,"lon":106.777,"pop":48018,"tz":"Asia/Shanghai"},{"id":8541484,"name":"Jalandhar Cantonment","local":"Jalandhar Cantonment","country":"IN","lat":31.294,"lon":75.62,"pop":47845,"tz":"Asia/Kolkata"},{"id":6317400,"name":"Juina","local":"Juína","country":"BR","lat":-11.42,"lon":-58.755,"pop":47800,"tz":"America/Cuiaba"},{"id":12450884,"name":"Jieshi","local":"Jieshi","country":"CN","lat":29.39,"lon":106.608,"pop":47636,"tz":"Asia/Shanghai"},{"id":2545017,"name":"Jerada","local":"Джерада","country":"MA","lat":34.31,"lon":-2.16,"pop":47507,"tz":"Africa/Casablanca"},{"id":1268866,"name":"Jodhpur","local":"Jodhpur","country":"IN","lat":21.902,"lon":70.033,"pop":47329,"tz":"Asia/Kolkata"},{"id":3555907,"name":"Jovellanos","local":"Jovellanos","country":"CU","lat":22.804,"lon":-81.191,"pop":47164,"tz":"America/Havana"},{"id":1176035,"name":"Jatoi Shimali","local":"Jatoi Shimali","country":"PK","lat":29.518,"lon":70.845,"pop":47144,"tz":"Asia/Karachi"},{"id":56335,"name":"Jawhar","local":"Jawhar","country":"SO","lat":2.781,"lon":45.5,"pop":47086,"tz":"Africa/Mogadishu"},{"id":4259671,"name":"Jeffersonville","local":"Џеферсонвил","country":"US","lat":38.278,"lon":-85.737,"pop":46960,"tz":"America/Kentucky/Louisville"},{"id":655958,"name":"Jaervenpaeae","local":"Ярвенпяя","country":"FI","lat":60.474,"lon":25.09,"pop":46942,"tz":"Europe/Helsinki"},{"id":3459785,"name":"Joao Pinheiro","local":"Жуан-Пиньейру","country":"BR","lat":-17.742,"lon":-46.172,"pop":46801,"tz":"America/Sao_Paulo"},{"id":1269315,"name":"Jamner","local":"Jāmner","country":"IN","lat":20.809,"lon":75.778,"pop":46762,"tz":"Asia/Kolkata"},{"id":9063948,"name":"Joda","local":"Joda","country":"IN","lat":22.017,"lon":85.422,"pop":46631,"tz":"Asia/Kolkata"},{"id":1176022,"name":"Jauharabad","local":"Jauharabad","country":"PK","lat":32.29,"lon":72.282,"pop":46545,"tz":"Asia/Karachi"},{"id":3074603,"name":"Jablonec nad Nisou","local":"Яблонец","country":"CZ","lat":50.724,"lon":15.171,"pop":46209,"tz":"Europe/Prague"},{"id":3949231,"name":"Jacobo Hunter","local":"Jacobo Hunter","country":"PE","lat":-16.441,"lon":-71.553,"pop":46092,"tz":"America/Lima"},{"id":1269323,"name":"Jammalamadugu","local":"Jammalamadugu","country":"IN","lat":14.847,"lon":78.383,"pop":46069,"tz":"Asia/Kolkata"},{"id":3460242,"name":"Jaguaquara","local":"Jaguaquara","country":"BR","lat":-13.531,"lon":-39.971,"pop":45964,"tz":"America/Bahia"},{"id":2251084,"name":"Joal","local":"Joal","country":"SN","lat":14.173,"lon":-16.849,"pop":45903,"tz":"Africa/Dakar"},{"id":3460071,"name":"Jardinopolis","local":"Jardinópolis","country":"BR","lat":-21.018,"lon":-47.764,"pop":45282,"tz":"America/Sao_Paulo"},{"id":3460107,"name":"Jaragua","local":"Жарагуа","country":"BR","lat":-15.757,"lon":-49.334,"pop":45223,"tz":"America/Sao_Paulo"},{"id":3680387,"name":"Jamundi","local":"Хамунди","country":"CO","lat":3.261,"lon":-76.535,"pop":44833,"tz":"America/Bogota"},{"id":13494730,"name":"Jawaharnagar","local":"Jawaharnagar","country":"IN","lat":17.51,"lon":78.566,"pop":44562,"tz":"Asia/Kolkata"},{"id":1805117,"name":"Jiushan","local":"Jiushan","country":"CN","lat":36.196,"lon":118.465,"pop":44420,"tz":"Asia/Shanghai"},{"id":1268896,"name":"Jintur","local":"Jintūr","country":"IN","lat":19.612,"lon":76.687,"pop":44291,"tz":"Asia/Kolkata"},{"id":56166,"name":"Jilib","local":"Джилиб","country":"SO","lat":0.488,"lon":42.785,"pop":43694,"tz":"Africa/Mogadishu"},{"id":1805661,"name":"Jingguan","local":"Jingguan","country":"CN","lat":29.895,"lon":106.564,"pop":43674,"tz":"Asia/Shanghai"},{"id":1804976,"name":"Juexi","local":"Juexi","country":"CN","lat":28.924,"lon":104.262,"pop":43527,"tz":"Asia/Shanghai"},{"id":1269350,"name":"Jambusar","local":"Jambusar","country":"IN","lat":22.052,"lon":72.801,"pop":43344,"tz":"Asia/Kolkata"},{"id":4004024,"name":"Jerez de Garcia Salinas","local":"Херес-де-Гарсия-Салинас","country":"MX","lat":22.65,"lon":-102.99,"pop":43064,"tz":"America/Mexico_City"},{"id":10265066,"name":"Jiwanpur","local":"Jīwanpur","country":"IN","lat":28.714,"lon":77.285,"pop":43054,"tz":"Asia/Kolkata"},{"id":4003995,"name":"Jesus Maria","local":"Jesús María","country":"MX","lat":21.961,"lon":-102.343,"pop":43012,"tz":"America/Mexico_City"},{"id":1806282,"name":"Jiangping","local":"Jiangping","country":"CN","lat":21.6,"lon":108.15,"pop":42985,"tz":"Asia/Shanghai"},{"id":4392388,"name":"Jefferson City","local":"Джефферсон-Сити","country":"US","lat":38.577,"lon":-92.174,"pop":42595,"tz":"America/Chicago"},{"id":3397230,"name":"Jose de Freitas","local":"José de Freitas","country":"BR","lat":-4.756,"lon":-42.576,"pop":42559,"tz":"America/Fortaleza"},{"id":1269168,"name":"Jaspur","local":"Jaspur","country":"IN","lat":29.279,"lon":78.828,"pop":42524,"tz":"Asia/Kolkata"},{"id":56399,"name":"Jamaame","local":"Jamaame","country":"SO","lat":0.07,"lon":42.745,"pop":42270,"tz":"Africa/Mogadishu"},{"id":4003662,"name":"Juventino Rosas","local":"Санта-Крус-де-Хувентино-Росас","country":"MX","lat":20.643,"lon":-100.993,"pop":42264,"tz":"America/Mexico_City"},{"id":10173805,"name":"Joint Base Pearl Harbor Hickam","local":"Joint Base Pearl Harbor Hickam","country":"US","lat":21.349,"lon":-157.947,"pop":42184,"tz":"Pacific/Honolulu"},{"id":1269477,"name":"Jajpur","local":"Jājpur","country":"IN","lat":20.849,"lon":86.337,"pop":42157,"tz":"Asia/Kolkata"},{"id":1268823,"name":"Jora","local":"Жора","country":"IN","lat":26.342,"lon":77.809,"pop":42153,"tz":"Asia/Kolkata"},{"id":1846371,"name":"Jangseong","local":"Jangseong","country":"KR","lat":35.298,"lon":126.784,"pop":42129,"tz":"Asia/Seoul"},{"id":1185204,"name":"Jhingergacha","local":"Jhingergācha","country":"BD","lat":23.111,"lon":89.091,"pop":41957,"tz":"Asia/Dhaka"},{"id":13117829,"name":"Jaxaay Parcelle Niakoul Rap","local":"Jaxaay Parcelle Niakoul Rap","country":"SN","lat":14.775,"lon":-17.28,"pop":41570,"tz":"Africa/Dakar"},{"id":8224045,"name":"Jordan","local":"Jordan","country":"HK","lat":22.305,"lon":114.17,"pop":41537,"tz":"Asia/Hong_Kong"},{"id":1269570,"name":"Jaggayyapeta","local":"Jaggayyapeta","country":"IN","lat":16.894,"lon":80.098,"pop":41180,"tz":"Asia/Kolkata"},{"id":3556168,"name":"Jiguani","local":"Jiguaní","country":"CU","lat":20.368,"lon":-76.427,"pop":41106,"tz":"America/Havana"},{"id":1268834,"name":"Jalarpet","local":"Jalārpet","country":"IN","lat":12.57,"lon":78.573,"pop":40959,"tz":"Asia/Kolkata"},{"id":1269046,"name":"Jhajha","local":"Джаджа","country":"IN","lat":24.771,"lon":86.379,"pop":40646,"tz":"Asia/Kolkata"},{"id":3460362,"name":"Jacarezinho","local":"Жакарезинью","country":"BR","lat":-23.161,"lon":-49.969,"pop":40375,"tz":"America/Sao_Paulo"},{"id":1642317,"name":"Juwana","local":"Juwana","country":"ID","lat":-6.715,"lon":111.151,"pop":40177,"tz":"Asia/Jakarta"},{"id":1710389,"name":"Jaen","local":"Хаэн","country":"PH","lat":15.328,"lon":120.919,"pop":39700,"tz":"Asia/Manila"},{"id":1269445,"name":"Jalalabad","local":"Jalālābād","country":"IN","lat":30.606,"lon":74.257,"pop":39525,"tz":"Asia/Kolkata"},{"id":169023,"name":"Jisr ash Shughur","local":"Jisr ash Shughūr","country":"SY","lat":35.814,"lon":36.32,"pop":39311,"tz":"Asia/Damascus"},{"id":1268855,"name":"Jogbani","local":"Jogbani","country":"IN","lat":26.399,"lon":87.265,"pop":39281,"tz":"Asia/Kolkata"},{"id":291775,"name":"Jumayra","local":"Jumayrā","country":"AE","lat":25.208,"lon":55.25,"pop":39080,"tz":"Asia/Dubai"},{"id":12324249,"name":"Jinzhongzi","local":"Jinzhongzi","country":"CN","lat":36.335,"lon":119.258,"pop":39054,"tz":"Asia/Shanghai"},{"id":130245,"name":"Javanrud","local":"Javānrūd","country":"IR","lat":34.796,"lon":46.517,"pop":38657,"tz":"Asia/Tehran"},{"id":1269415,"name":"Jalesar","local":"Jalesar","country":"IN","lat":27.473,"lon":78.303,"pop":38614,"tz":"Asia/Kolkata"},{"id":1806516,"name":"Jiachuan","local":"Jiachuan","country":"CN","lat":32.209,"lon":106.215,"pop":38421,"tz":"Asia/Shanghai"},{"id":770293,"name":"Jaslo","local":"Ясло","country":"PL","lat":49.745,"lon":21.473,"pop":37851,"tz":"Europe/Warsaw"},{"id":1907975,"name":"Jinshan","local":"Jinshan","country":"CN","lat":34.811,"lon":105.434,"pop":37727,"tz":"Asia/Shanghai"},{"id":3696057,"name":"Juanjui","local":"Хуанхуи","country":"PE","lat":-7.177,"lon":-76.728,"pop":37715,"tz":"America/Lima"},{"id":6317358,"name":"Jaiba","local":"Jaíba","country":"BR","lat":-15.338,"lon":-43.674,"pop":37660,"tz":"America/Sao_Paulo"},{"id":3459922,"name":"Jeremoabo","local":"Jeremoabo","country":"BR","lat":-10.076,"lon":-38.347,"pop":37626,"tz":"America/Bahia"},{"id":3460068,"name":"Jarinu","local":"Jarinu","country":"BR","lat":-23.101,"lon":-46.728,"pop":37535,"tz":"America/Sao_Paulo"},{"id":1642628,"name":"Jekulo","local":"Jekulo","country":"ID","lat":-6.806,"lon":110.926,"pop":37521,"tz":"Asia/Jakarta"},{"id":1678008,"name":"Jincheng","local":"Jincheng","country":"TW","lat":24.434,"lon":118.317,"pop":37507,"tz":"Asia/Taipei"},{"id":1269020,"name":"Jhalrapatan","local":"Jhālrapātan","country":"IN","lat":24.542,"lon":76.172,"pop":37506,"tz":"Asia/Kolkata"},{"id":4940764,"name":"Jamaica Plain","local":"Jamaica Plain","country":"US","lat":42.31,"lon":-71.12,"pop":37468,"tz":"America/New_York"},{"id":3012219,"name":"Joue-les-Tours","local":"Жу-ле-Тур","country":"FR","lat":47.349,"lon":0.665,"pop":37466,"tz":"Europe/Paris"},{"id":1176358,"name":"Jalalpur Pirwala","local":"Jalalpur Pirwala","country":"PK","lat":29.505,"lon":71.222,"pop":37393,"tz":"Asia/Karachi"},{"id":1269488,"name":"Jaito","local":"Jaito","country":"IN","lat":30.451,"lon":74.892,"pop":37377,"tz":"Asia/Kolkata"},{"id":1529420,"name":"Jelilyuezi","local":"Җелилюзи","country":"CN","lat":43.975,"lon":81.536,"pop":37238,"tz":"Asia/Urumqi"},{"id":1844954,"name":"Jungpyong","local":"Jungpyong","country":"KR","lat":36.785,"lon":127.582,"pop":37207,"tz":"Asia/Seoul"},{"id":3595248,"name":"Jacaltenango","local":"Хакальтенанго","country":"GT","lat":15.667,"lon":-91.712,"pop":37171,"tz":"America/Guatemala"},{"id":3175628,"name":"Jesi","local":"Джези","country":"IT","lat":43.521,"lon":13.244,"pop":36985,"tz":"Europe/Rome"},{"id":3459667,"name":"Jose Bonifacio","local":"José Bonifácio","country":"BR","lat":-21.053,"lon":-49.688,"pop":36633,"tz":"America/Sao_Paulo"},{"id":1772983,"name":"Jawi","local":"Jawi","country":"MY","lat":5.215,"lon":100.492,"pop":36601,"tz":"Asia/Kuala_Lumpur"},{"id":3862320,"name":"Juan Jose Castelli","local":"Juan José Castelli","country":"AR","lat":-25.947,"lon":-60.62,"pop":36588,"tz":"America/Argentina/Cordoba"},{"id":148290,"name":"Jalilabad","local":"Джалильабад","country":"AZ","lat":39.21,"lon":48.492,"pop":36259,"tz":"Asia/Baku"},{"id":3655446,"name":"Jipijapa","local":"Jipijapa","country":"EC","lat":-1.348,"lon":-80.579,"pop":35901,"tz":"America/Guayaquil"},{"id":6317397,"name":"Juara","local":"Juara","country":"BR","lat":-11.255,"lon":-57.52,"pop":35899,"tz":"America/Cuiaba"},{"id":1269053,"name":"Jhabua","local":"Дхабуа","country":"IN","lat":22.768,"lon":74.591,"pop":35753,"tz":"Asia/Kolkata"},{"id":789923,"name":"Jagodina","local":"Ягодина","country":"RS","lat":43.977,"lon":21.261,"pop":35589,"tz":"Europe/Belgrade"},{"id":770380,"name":"Jaroslaw","local":"Ярослав","country":"PL","lat":50.016,"lon":22.678,"pop":35475,"tz":"Europe/Warsaw"},{"id":3460214,"name":"Jaguariaiva","local":"Jaguariaíva","country":"BR","lat":-24.244,"lon":-49.709,"pop":35141,"tz":"America/Sao_Paulo"},{"id":1269447,"name":"Jalalabad","local":"Jalālābād","country":"IN","lat":27.726,"lon":79.655,"pop":35051,"tz":"Asia/Kolkata"},{"id":1710357,"name":"Jalajala","local":"Jalajala","country":"PH","lat":14.353,"lon":121.323,"pop":34901,"tz":"Asia/Manila"},{"id":1269379,"name":"Jamadoba","local":"Jāmadoba","country":"IN","lat":23.717,"lon":86.4,"pop":34774,"tz":"Asia/Kolkata"},{"id":5987650,"name":"Joliette","local":"Жолијет","country":"CA","lat":46.016,"lon":-73.424,"pop":34772,"tz":"America/Toronto"},{"id":283506,"name":"Janin","local":"Дженин","country":"PS","lat":32.459,"lon":35.301,"pop":34730,"tz":"Asia/Hebron"},{"id":1846544,"name":"Jangheung","local":"Jangheung","country":"KR","lat":34.682,"lon":126.907,"pop":34544,"tz":"Asia/Seoul"},{"id":4013710,"name":"Jose Mariano Jimenez","local":"José Mariano Jiménez","country":"MX","lat":27.131,"lon":-104.924,"pop":34281,"tz":"America/Chihuahua"},{"id":1269327,"name":"Jamkhed","local":"Jāmkhed","country":"IN","lat":18.735,"lon":75.313,"pop":34017,"tz":"Asia/Kolkata"},{"id":1269102,"name":"Jayamkondacholapuram","local":"Jayamkondacholapuram","country":"IN","lat":11.213,"lon":79.364,"pop":33945,"tz":"Asia/Kolkata"},{"id":2894553,"name":"Juelich","local":"Юлих","country":"DE","lat":50.921,"lon":6.363,"pop":33911,"tz":"Europe/Berlin"},{"id":3397675,"name":"Jaguaribe","local":"Жагуариби","country":"BR","lat":-5.891,"lon":-38.622,"pop":33726,"tz":"America/Fortaleza"},{"id":3608503,"name":"Juticalpa","local":"Juticalpa","country":"HN","lat":14.664,"lon":-86.222,"pop":33686,"tz":"America/Tegucigalpa"},{"id":1269581,"name":"Jagatsinghapur","local":"Jagatsinghapur","country":"IN","lat":20.256,"lon":86.171,"pop":33631,"tz":"Asia/Kolkata"},{"id":1732602,"name":"Jerantut","local":"Jerantut","country":"MY","lat":3.936,"lon":102.363,"pop":33606,"tz":"Asia/Kuala_Lumpur"},{"id":1710222,"name":"Jetafe","local":"Jetafe","country":"PH","lat":10.147,"lon":124.154,"pop":33485,"tz":"Asia/Manila"},{"id":3397315,"name":"Joao Camara","local":"João Câmara","country":"BR","lat":-5.537,"lon":-35.82,"pop":33290,"tz":"America/Fortaleza"},{"id":4997384,"name":"Jackson","local":"Джексон","country":"US","lat":42.246,"lon":-84.401,"pop":33133,"tz":"America/Detroit"},{"id":8405717,"name":"Jukui","local":"Jukui","country":"CN","lat":30.636,"lon":107.596,"pop":32971,"tz":"Asia/Shanghai"},{"id":11903637,"name":"Jakomini","local":"Jakomini","country":"AT","lat":47.054,"lon":15.45,"pop":32912,"tz":"Europe/Vienna"},{"id":1269239,"name":"Janjgir","local":"Jānjgīr","country":"IN","lat":22.009,"lon":82.578,"pop":32833,"tz":"Asia/Kolkata"},{"id":3526593,"name":"Jaltipan de Morelos","local":"Jáltipan de Morelos","country":"MX","lat":17.965,"lon":-94.714,"pop":32778,"tz":"America/Mexico_City"},{"id":3460225,"name":"Jaguarari","local":"Jaguarari","country":"BR","lat":-10.264,"lon":-40.196,"pop":32703,"tz":"America/Bahia"},{"id":8400138,"name":"Jiulongshan","local":"Jiulongshan","country":"CN","lat":31.194,"lon":108.251,"pop":32696,"tz":"Asia/Shanghai"},{"id":1710378,"name":"Jagna","local":"Jagna","country":"PH","lat":9.653,"lon":124.37,"pop":32566,"tz":"Asia/Manila"},{"id":993910,"name":"Jeffreys Bay","local":"Джеффрис-Бей","country":"ZA","lat":-34.045,"lon":24.921,"pop":32477,"tz":"Africa/Johannesburg"},{"id":11333755,"name":"Jujuvadi","local":"Jūjūvādi","country":"IN","lat":12.768,"lon":77.792,"pop":32474,"tz":"Asia/Kolkata"},{"id":1269573,"name":"Jagdispur","local":"Jagdīspur","country":"IN","lat":25.468,"lon":84.419,"pop":32447,"tz":"Asia/Kolkata"},{"id":1642754,"name":"Jaten","local":"Jaten","country":"ID","lat":-7.577,"lon":110.897,"pop":32378,"tz":"Asia/Jakarta"},{"id":169113,"name":"Jayrud","local":"Jayrūd","country":"SY","lat":33.807,"lon":36.739,"pop":32352,"tz":"Asia/Damascus"},{"id":1242835,"name":"Ja Ela","local":"Ja Ela","country":"LK","lat":7.074,"lon":79.892,"pop":32175,"tz":"Asia/Colombo"},{"id":10431234,"name":"Jora Khurd","local":"Jora Khurd","country":"IN","lat":26.489,"lon":77.976,"pop":32087,"tz":"Asia/Kolkata"},{"id":1549734,"name":"Jiangzhuang","local":"Jiangzhuang","country":"CN","lat":34.492,"lon":117.397,"pop":31991,"tz":"Asia/Shanghai"},{"id":11628615,"name":"Jaridih","local":"Jāridih","country":"IN","lat":23.766,"lon":85.939,"pop":31882,"tz":"Asia/Kolkata"},{"id":3397665,"name":"Jaguaruana","local":"Jaguaruana","country":"BR","lat":-4.834,"lon":-37.781,"pop":31701,"tz":"America/Fortaleza"},{"id":5554072,"name":"Juneau","local":"Джуно","country":"US","lat":58.302,"lon":-134.42,"pop":31555,"tz":"America/Juneau"},{"id":1805093,"name":"Jiuxian","local":"Jiuxian","country":"CN","lat":29.862,"lon":106.203,"pop":31499,"tz":"Asia/Shanghai"},{"id":130451,"name":"Jam","local":"Jam","country":"IR","lat":27.83,"lon":52.325,"pop":31436,"tz":"Asia/Tehran"},{"id":1269435,"name":"Jalalpur","local":"Jalālpur","country":"IN","lat":26.312,"lon":82.739,"pop":31388,"tz":"Asia/Kolkata"},{"id":1269012,"name":"Jhanjharpur","local":"Jhanjhārpur","country":"IN","lat":26.265,"lon":86.28,"pop":31283,"tz":"Asia/Kolkata"},{"id":1846114,"name":"Jinan-gun","local":"Jinan-gun","country":"KR","lat":35.792,"lon":127.425,"pop":31273,"tz":"Asia/Seoul"},{"id":1269574,"name":"Jagdishpur","local":"Jagdīshpur","country":"IN","lat":26.75,"lon":80.545,"pop":31029,"tz":"Asia/Kolkata"},{"id":10062601,"name":"Justiniskes","local":"Justiniškės","country":"LT","lat":54.717,"lon":25.217,"pop":31000,"tz":"Europe/Vilnius"},{"id":373296,"name":"Jubayt","local":"Гебейт","country":"SD","lat":18.953,"lon":36.834,"pop":30856,"tz":"Africa/Khartoum"},{"id":1675170,"name":"Jinhu","local":"Jinhu","country":"TW","lat":24.439,"lon":118.421,"pop":30826,"tz":"Asia/Taipei"},{"id":3459550,"name":"Juatuba","local":"Juatuba","country":"BR","lat":-19.952,"lon":-44.343,"pop":30716,"tz":"America/Sao_Paulo"},{"id":165997,"name":"Jasim","local":"Джасим","country":"SY","lat":32.991,"lon":36.061,"pop":30283,"tz":"Asia/Damascus"},{"id":3459869,"name":"Joacaba","local":"Жоасаба","country":"BR","lat":-27.178,"lon":-51.505,"pop":30146,"tz":"America/Sao_Paulo"},{"id":5122534,"name":"Jamestown","local":"Джеймстаун","country":"US","lat":42.097,"lon":-79.235,"pop":30075,"tz":"America/New_York"},{"id":3504158,"name":"Jarabacoa","local":"Харабакоа","country":"DO","lat":19.117,"lon":-70.636,"pop":29983,"tz":"America/Santo_Domingo"},{"id":13118135,"name":"Jelebu","local":"Jelebu","country":"SG","lat":1.38,"lon":103.763,"pop":29960,"tz":"Asia/Singapore"},{"id":1805576,"name":"Jingui","local":"Jingui","country":"CN","lat":38.5,"lon":106.417,"pop":29796,"tz":"Asia/Shanghai"},{"id":3460355,"name":"Jaciara","local":"Jaciara","country":"BR","lat":-15.965,"lon":-54.968,"pop":29560,"tz":"America/Cuiaba"},{"id":3618926,"name":"Jinotepe","local":"Jinotepe","country":"NI","lat":11.848,"lon":-86.199,"pop":29507,"tz":"America/Managua"},{"id":1269298,"name":"Jamtara","local":"Jāmtāra","country":"IN","lat":23.963,"lon":86.803,"pop":29415,"tz":"Asia/Kolkata"},{"id":1269056,"name":"Jewar","local":"Jewar","country":"IN","lat":28.122,"lon":77.557,"pop":29316,"tz":"Asia/Kolkata"},{"id":8604682,"name":"Johnston","local":"Джонстон","country":"US","lat":41.822,"lon":-71.507,"pop":29247,"tz":"America/New_York"},{"id":1269267,"name":"Jandiala Guru","local":"Jandiāla Gurū","country":"IN","lat":31.562,"lon":75.028,"pop":29232,"tz":"Asia/Kolkata"},{"id":1176444,"name":"Jahanian Shah","local":"Jahanian Shah","country":"PK","lat":31.805,"lon":72.277,"pop":29095,"tz":"Asia/Karachi"},{"id":3460412,"name":"Jaguare","local":"Jaguaré","country":"BR","lat":-18.906,"lon":-40.076,"pop":28931,"tz":"America/Sao_Paulo"},{"id":3595232,"name":"Jalpatagua","local":"Jalpatagua","country":"GT","lat":14.137,"lon":-90.009,"pop":28832,"tz":"America/Guatemala"},{"id":1269023,"name":"Jhalod","local":"Jhālod","country":"IN","lat":23.101,"lon":74.155,"pop":28720,"tz":"Asia/Kolkata"},{"id":2473639,"name":"Jedeida","local":"Jedeïda","country":"TN","lat":36.831,"lon":9.924,"pop":28660,"tz":"Africa/Tunis"},{"id":4116315,"name":"Jacksonville","local":"Джексонвилл","country":"US","lat":34.866,"lon":-92.11,"pop":28643,"tz":"America/Chicago"},{"id":1268810,"name":"Jowai","local":"Джоваи","country":"IN","lat":25.436,"lon":92.191,"pop":28430,"tz":"Asia/Kolkata"},{"id":129933,"name":"Juybar","local":"Jūybār","country":"IR","lat":36.641,"lon":52.912,"pop":28404,"tz":"Asia/Tehran"},{"id":13353374,"name":"Jammu Cantonment","local":"Jammu Cantonment","country":"IN","lat":32.704,"lon":74.861,"pop":28396,"tz":"Asia/Kolkata"},{"id":1269177,"name":"Jashpur Nagar","local":"Jashpur Nagar","country":"IN","lat":22.888,"lon":84.139,"pop":28301,"tz":"Asia/Kolkata"},{"id":1269406,"name":"Jalgaon Jamod","local":"Джалгаоне","country":"IN","lat":21.052,"lon":76.535,"pop":28276,"tz":"Asia/Kolkata"},{"id":3639107,"name":"Juan Griego","local":"Juan Griego","country":"VE","lat":11.082,"lon":-63.965,"pop":28256,"tz":"America/Caracas"},{"id":13157135,"name":"Jhadeshwar","local":"Jhadeshwar","country":"IN","lat":21.714,"lon":73.032,"pop":28148,"tz":"Asia/Kolkata"},{"id":1642437,"name":"Jogonalan","local":"Jogonalan","country":"ID","lat":-7.704,"lon":110.536,"pop":28114,"tz":"Asia/Jakarta"},{"id":2516336,"name":"Javea","local":"Javea","country":"ES","lat":38.783,"lon":0.167,"pop":28016,"tz":"Europe/Madrid"},{"id":1805419,"name":"Jinqiao","local":"Jinqiao","country":"CN","lat":31.271,"lon":121.593,"pop":28000,"tz":"Asia/Shanghai"},{"id":1175870,"name":"Jhawarian","local":"Jhawarian","country":"PK","lat":32.362,"lon":72.623,"pop":27893,"tz":"Asia/Karachi"},{"id":1269158,"name":"Jaswantnagar","local":"Jaswantnagar","country":"IN","lat":26.883,"lon":78.903,"pop":27777,"tz":"Asia/Kolkata"},{"id":3397319,"name":"Joao Alfredo","local":"João Alfredo","country":"BR","lat":-7.856,"lon":-35.588,"pop":27725,"tz":"America/Recife"},{"id":1445348,"name":"Jiladiguda","local":"Jilādiguda","country":"IN","lat":17.332,"lon":78.526,"pop":27461,"tz":"Asia/Kolkata"},{"id":3050907,"name":"Jaszbereny","local":"Јасберењ","country":"HU","lat":47.5,"lon":19.917,"pop":27439,"tz":"Europe/Budapest"},{"id":3397577,"name":"Jardim","local":"Jardim","country":"BR","lat":-7.582,"lon":-39.283,"pop":27411,"tz":"America/Fortaleza"},{"id":3459435,"name":"Juquitiba","local":"Juquitiba","country":"BR","lat":-23.932,"lon":-47.068,"pop":27404,"tz":"America/Sao_Paulo"},{"id":1805967,"name":"Jiasi","local":"Jiasi","country":"CN","lat":29.116,"lon":106.447,"pop":27327,"tz":"Asia/Shanghai"},{"id":2645972,"name":"Jarrow","local":"Джарроу","country":"GB","lat":54.98,"lon":-1.484,"pop":27264,"tz":"Europe/London"},{"id":1269612,"name":"Jafarabad","local":"Jāfarābād","country":"IN","lat":20.866,"lon":71.366,"pop":27167,"tz":"Asia/Kolkata"},{"id":7373656,"name":"Jiangxi","local":"Jiangxi","country":"CN","lat":33.999,"lon":105.2,"pop":27098,"tz":"Asia/Shanghai"},{"id":248875,"name":"Jarash","local":"Джераш","country":"JO","lat":32.281,"lon":35.899,"pop":27046,"tz":"Asia/Amman"},{"id":1176470,"name":"Jaglot","local":"Jaglot","country":"PK","lat":35.688,"lon":74.624,"pop":27000,"tz":"Asia/Karachi"},{"id":4296218,"name":"Jeffersontown","local":"Џеферсонтаун","country":"US","lat":38.194,"lon":-85.564,"pop":26946,"tz":"America/Kentucky/Louisville"},{"id":3853510,"name":"Jesus Maria","local":"Jesús María","country":"AR","lat":-30.982,"lon":-64.094,"pop":26825,"tz":"America/Argentina/Cordoba"},{"id":3460232,"name":"Jaguarao","local":"Jaguarão","country":"BR","lat":-32.566,"lon":-53.376,"pop":26603,"tz":"America/Sao_Paulo"},{"id":598818,"name":"Jonava","local":"Ионава","country":"LT","lat":55.08,"lon":24.275,"pop":26423,"tz":"Europe/Vilnius"},{"id":1268761,"name":"Junnar","local":"Юннар","country":"IN","lat":19.208,"lon":73.875,"pop":25997,"tz":"Asia/Kolkata"},{"id":1269094,"name":"Jaynagar Majilpur","local":"Jaynagar Majilpur","country":"IN","lat":22.175,"lon":88.42,"pop":25922,"tz":"Asia/Kolkata"},{"id":11185501,"name":"Jamjodhpur","local":"Jamjodhpur","country":"IN","lat":21.902,"lon":70.036,"pop":25892,"tz":"Asia/Kolkata"},{"id":1269289,"name":"Jamul","local":"Jāmul","country":"IN","lat":21.25,"lon":81.4,"pop":25878,"tz":"Asia/Kolkata"},{"id":1269413,"name":"Jaleshwar","local":"Jaleshwar","country":"IN","lat":21.802,"lon":87.222,"pop":25747,"tz":"Asia/Kolkata"},{"id":1269509,"name":"Jais","local":"Jais","country":"IN","lat":26.265,"lon":81.549,"pop":25726,"tz":"Asia/Kolkata"},{"id":1269057,"name":"Jevargi","local":"Джеварги","country":"IN","lat":17.014,"lon":76.773,"pop":25686,"tz":"Asia/Kolkata"},{"id":2516255,"name":"Jumilla","local":"Хумилье","country":"ES","lat":38.479,"lon":-1.325,"pop":25685,"tz":"Europe/Madrid"},{"id":1269269,"name":"Jandiala","local":"Jandiāla","country":"IN","lat":31.159,"lon":75.618,"pop":25631,"tz":"Asia/Kolkata"},{"id":3097528,"name":"Jarocin","local":"Яроцин","country":"PL","lat":51.973,"lon":17.503,"pop":25582,"tz":"Europe/Warsaw"},{"id":6317383,"name":"Jijoca de Jericoacoara","local":"Jijoca de Jericoacoara","country":"BR","lat":-2.895,"lon":-40.449,"pop":25555,"tz":"America/Fortaleza"},{"id":3460267,"name":"Jacutinga","local":"Jacutinga","country":"BR","lat":-22.286,"lon":-46.612,"pop":25525,"tz":"America/Sao_Paulo"},{"id":1269446,"name":"Jalalabad","local":"Jalālābad","country":"IN","lat":29.619,"lon":77.439,"pop":25302,"tz":"Asia/Kolkata"},{"id":169179,"name":"Jarabulus","local":"Jarābulus","country":"SY","lat":36.818,"lon":38.011,"pop":24997,"tz":"Asia/Damascus"},{"id":3433349,"name":"Jardin America","local":"Jardín América","country":"AR","lat":-27.043,"lon":-55.227,"pop":24905,"tz":"America/Argentina/Cordoba"},{"id":1734793,"name":"Jenjarum","local":"Jenjarum","country":"MY","lat":2.872,"lon":101.495,"pop":24857,"tz":"Asia/Kuala_Lumpur"},{"id":3467612,"name":"Joao Dourado","local":"João Dourado","country":"BR","lat":-11.345,"lon":-41.663,"pop":24854,"tz":"America/Bahia"},{"id":11962388,"name":"Jaguara","local":"Jaguara","country":"BR","lat":-23.511,"lon":-46.747,"pop":24730,"tz":"America/Sao_Paulo"},{"id":3397292,"name":"Joao Lisboa","local":"João Lisboa","country":"BR","lat":-5.448,"lon":-47.401,"pop":24709,"tz":"America/Fortaleza"},{"id":4273680,"name":"Junction City","local":"Џанкшон Сити","country":"US","lat":39.029,"lon":-96.831,"pop":24621,"tz":"America/Chicago"},{"id":12450725,"name":"Jiahanbage","local":"Jiahanbage","country":"CN","lat":37.197,"lon":79.706,"pop":24524,"tz":"Asia/Urumqi"},{"id":2794860,"name":"Jumet","local":"Jumet","country":"BE","lat":50.442,"lon":4.437,"pop":24510,"tz":"Europe/Brussels"},{"id":12214073,"name":"Josefstadt","local":"Josefstadt","country":"AT","lat":48.212,"lon":16.345,"pop":24499,"tz":"Europe/Vienna"},{"id":4004153,"name":"Jalostotitlan","local":"Халостотитлан","country":"MX","lat":21.168,"lon":-102.461,"pop":24423,"tz":"America/Mexico_City"},{"id":8399045,"name":"Jiagao","local":"Jiagao","country":"CN","lat":30.889,"lon":109.176,"pop":24407,"tz":"Asia/Shanghai"},{"id":3397063,"name":"Junqueiro","local":"Junqueiro","country":"BR","lat":-9.925,"lon":-36.476,"pop":24381,"tz":"America/Maceio"},{"id":4003923,"name":"Jiquilpan de Juarez","local":"Jiquilpan de Juárez","country":"MX","lat":19.992,"lon":-102.718,"pop":24233,"tz":"America/Mexico_City"},{"id":2703396,"name":"Jakobsberg","local":"Якобсбери","country":"SE","lat":59.423,"lon":17.835,"pop":24046,"tz":"Europe/Stockholm"},{"id":3397763,"name":"Jacareacanga","local":"Jacareacanga","country":"BR","lat":-6.222,"lon":-57.753,"pop":24042,"tz":"America/Santarem"},{"id":3618954,"name":"Jalapa","local":"Халапа","country":"NI","lat":13.922,"lon":-86.123,"pop":24037,"tz":"America/Managua"},{"id":3459925,"name":"Jequitinhonha","local":"Жекитиньонья","country":"BR","lat":-16.434,"lon":-41.003,"pop":24007,"tz":"America/Sao_Paulo"},{"id":1514109,"name":"Jalolquduq","local":"Джалалкудук","country":"UZ","lat":40.689,"lon":72.609,"pop":24000,"tz":"Asia/Tashkent"},{"id":3460087,"name":"Jardim","local":"Жардин","country":"BR","lat":-21.48,"lon":-56.138,"pop":23981,"tz":"America/Campo_Grande"},{"id":3397119,"name":"Jucas","local":"Jucás","country":"BR","lat":-6.525,"lon":-39.528,"pop":23922,"tz":"America/Fortaleza"},{"id":3097367,"name":"Jawor","local":"Явор","country":"PL","lat":51.051,"lon":16.193,"pop":23865,"tz":"Europe/Warsaw"},{"id":12358572,"name":"Jiuhe","local":"Jiuhe","country":"CN","lat":26.763,"lon":99.992,"pop":23680,"tz":"Asia/Shanghai"},{"id":1283323,"name":"Jaleshwar","local":"Jaleshwar","country":"NP","lat":26.649,"lon":85.8,"pop":23573,"tz":"Asia/Kathmandu"},{"id":4005864,"name":"Juan Jose Rios","local":"Juan José Ríos","country":"MX","lat":25.757,"lon":-108.824,"pop":23553,"tz":"America/Mazatlan"},{"id":1268962,"name":"Jhinjhak","local":"Jhīnjhak","country":"IN","lat":26.561,"lon":79.734,"pop":23499,"tz":"Asia/Kolkata"},{"id":1806020,"name":"Jiaoshi","local":"Jiaoshi","country":"CN","lat":29.716,"lon":107.598,"pop":23454,"tz":"Asia/Shanghai"},{"id":3639086,"name":"Judibana","local":"Judibana","country":"VE","lat":11.759,"lon":-70.184,"pop":23182,"tz":"America/Caracas"},{"id":8858103,"name":"Jesus del Monte","local":"Jesús del Monte","country":"MX","lat":19.375,"lon":-99.294,"pop":23150,"tz":"America/Mexico_City"},{"id":1139085,"name":"Jurm","local":"Jurm","country":"AF","lat":36.865,"lon":70.834,"pop":23064,"tz":"Asia/Kabul"},{"id":4160023,"name":"Jacksonville Beach","local":"Џексонвил Бич","country":"US","lat":30.295,"lon":-81.393,"pop":23064,"tz":"America/New_York"},{"id":10263301,"name":"Jharoda Mazra Burari","local":"Jharoda Mazra Burāri","country":"IN","lat":28.73,"lon":77.209,"pop":22878,"tz":"Asia/Kolkata"},{"id":3074149,"name":"Jindrichuv Hradec","local":"Йиндржихув-Градец","country":"CZ","lat":49.144,"lon":15.003,"pop":22812,"tz":"Europe/Prague"},{"id":1269498,"name":"Jaitaran","local":"Jaitāran","country":"IN","lat":26.204,"lon":73.937,"pop":22621,"tz":"Asia/Kolkata"},{"id":1269377,"name":"Jamai","local":"Jāmai","country":"IN","lat":22.196,"lon":78.592,"pop":22587,"tz":"Asia/Kolkata"},{"id":2894637,"name":"Juchen","local":"Йюхен","country":"DE","lat":51.1,"lon":6.5,"pop":22562,"tz":"Europe/Berlin"},{"id":1063782,"name":"Jafaro","local":"Jafaro","country":"MG","lat":-24.917,"lon":45.517,"pop":22000,"tz":"Indian/Antananarivo"},{"id":5373492,"name":"Jurupa Valley","local":"Мира Лома","country":"US","lat":33.993,"lon":-117.516,"pop":21930,"tz":"America/Los_Angeles"},{"id":1269093,"name":"Jainagar","local":"Jainagar","country":"IN","lat":26.59,"lon":86.138,"pop":21782,"tz":"Asia/Kolkata"},{"id":8740793,"name":"Jirapur","local":"Jirapur","country":"IN","lat":24.021,"lon":76.376,"pop":21724,"tz":"Asia/Kolkata"},{"id":1904091,"name":"Jinlong","local":"Jinlong","country":"CN","lat":29.514,"lon":106.061,"pop":21665,"tz":"Asia/Shanghai"},{"id":8416627,"name":"Jiangnan","local":"Jiangnan","country":"CN","lat":29.793,"lon":107.037,"pop":21509,"tz":"Asia/Shanghai"},{"id":1217362,"name":"Juma Shahri","local":"Juma Shahri","country":"UZ","lat":39.716,"lon":66.664,"pop":21500,"tz":"Asia/Samarkand"},{"id":2336251,"name":"Jebba","local":"Jebba","country":"NG","lat":9.12,"lon":4.824,"pop":21488,"tz":"Africa/Lagos"},{"id":3460172,"name":"Jandaia do Sul","local":"Jandaia do Sul","country":"BR","lat":-23.603,"lon":-51.643,"pop":21408,"tz":"America/Sao_Paulo"},{"id":1280921,"name":"Judian","local":"Judian","country":"CN","lat":27.306,"lon":99.649,"pop":21368,"tz":"Asia/Shanghai"},{"id":1710103,"name":"Jose Panganiban","local":"Jose Pañganiban","country":"PH","lat":14.291,"lon":122.692,"pop":21236,"tz":"Asia/Manila"},{"id":3754915,"name":"Jimaguayu","local":"Jimaguayú","country":"CU","lat":21.242,"lon":-77.826,"pop":21169,"tz":"America/Havana"},{"id":294622,"name":"Judeida Makr","local":"Judeida Makr","country":"IL","lat":32.928,"lon":35.157,"pop":21163,"tz":"Asia/Jerusalem"},{"id":3937733,"name":"Jauja","local":"Хауха","country":"PE","lat":-11.776,"lon":-75.497,"pop":21057,"tz":"America/Lima"},{"id":459283,"name":"Jekabpils","local":"Екабпилс","country":"LV","lat":56.499,"lon":25.857,"pop":21014,"tz":"Europe/Riga"},{"id":1904188,"name":"Ji'an","local":"Ji’an","country":"CN","lat":29.159,"lon":105.747,"pop":20978,"tz":"Asia/Shanghai"},{"id":4862760,"name":"Johnston","local":"Джонстон","country":"US","lat":41.673,"lon":-93.698,"pop":20871,"tz":"America/Chicago"},{"id":1806316,"name":"Jiangkou","local":"Jiangkou","country":"CN","lat":29.24,"lon":107.879,"pop":20829,"tz":"Asia/Shanghai"},{"id":4539615,"name":"Jenks","local":"Џенкс","country":"US","lat":36.023,"lon":-95.968,"pop":20740,"tz":"America/Chicago"},{"id":1268902,"name":"Jining","local":"Jining","country":"IN","lat":28.216,"lon":94.854,"pop":20684,"tz":"Asia/Kolkata"},{"id":1835967,"name":"Jenzan","local":"Jenzan","country":"KR","lat":36.241,"lon":128.298,"pop":20673,"tz":"Asia/Seoul"},{"id":1845142,"name":"Jumunjin","local":"Jumunjin","country":"KR","lat":37.891,"lon":128.826,"pop":20600,"tz":"Asia/Seoul"},{"id":1269545,"name":"Jahazpur","local":"Jahāzpur","country":"IN","lat":25.62,"lon":75.276,"pop":20586,"tz":"Asia/Kolkata"},{"id":4004092,"name":"Jaral del Progreso","local":"Jaral del Progreso","country":"MX","lat":20.372,"lon":-101.062,"pop":20457,"tz":"America/Mexico_City"},{"id":3459452,"name":"Junqueiropolis","local":"Junqueirópolis","country":"BR","lat":-21.515,"lon":-51.434,"pop":20448,"tz":"America/Sao_Paulo"},{"id":355174,"name":"Jarajus","local":"Jarājūs","country":"EG","lat":25.872,"lon":32.756,"pop":20427,"tz":"Africa/Cairo"},{"id":3460450,"name":"Jaboticatubas","local":"Jaboticatubas","country":"BR","lat":-19.514,"lon":-43.745,"pop":20406,"tz":"America/Sao_Paulo"},{"id":3460197,"name":"Jaguaruna","local":"Jaguaruna","country":"BR","lat":-28.621,"lon":-49.025,"pop":20375,"tz":"America/Sao_Paulo"},{"id":1269019,"name":"Jhalu","local":"Jhālu","country":"IN","lat":29.336,"lon":78.226,"pop":20356,"tz":"Asia/Kolkata"},{"id":3556351,"name":"Jaruco","local":"Jaruco","country":"CU","lat":23.044,"lon":-82.009,"pop":20207,"tz":"America/Havana"},{"id":248803,"name":"Judita","local":"Judita","country":"JO","lat":32.408,"lon":35.708,"pop":20000,"tz":"Asia/Amman"},{"id":5195561,"name":"Johnstown","local":"Джонстаун","country":"US","lat":40.327,"lon":-78.922,"pop":19966,"tz":"America/New_York"},{"id":2894755,"name":"Johannisthal","local":"Йоханнисталь","country":"DE","lat":52.447,"lon":13.507,"pop":19960,"tz":"Europe/Berlin"},{"id":284899,"name":"Jericho","local":"Иерихон","country":"PS","lat":31.867,"lon":35.45,"pop":19783,"tz":"Asia/Hebron"},{"id":1268961,"name":"Jhinjhana","local":"Jhinjhāna","country":"IN","lat":29.521,"lon":77.225,"pop":19711,"tz":"Asia/Kolkata"},{"id":656130,"name":"Jakobstad","local":"Якобстад","country":"FI","lat":63.675,"lon":22.703,"pop":19668,"tz":"Europe/Helsinki"},{"id":2794981,"name":"Jambes","local":"Jambes","country":"BE","lat":50.456,"lon":4.872,"pop":19658,"tz":"Europe/Brussels"},{"id":1268772,"name":"Junagarh","local":"Jūnāgarh","country":"IN","lat":19.86,"lon":82.934,"pop":19656,"tz":"Asia/Kolkata"},{"id":3556334,"name":"Jatibonico","local":"Jatibonico","country":"CU","lat":21.943,"lon":-79.169,"pop":19644,"tz":"America/Havana"},{"id":3459531,"name":"Jussara","local":"Jussara","country":"BR","lat":-15.865,"lon":-50.868,"pop":19620,"tz":"America/Sao_Paulo"},{"id":1443367,"name":"Jharoda Kalan","local":"Jharoda Kalān","country":"IN","lat":28.653,"lon":76.952,"pop":19578,"tz":"Asia/Kolkata"},{"id":1269227,"name":"Jansath","local":"Jānsath","country":"IN","lat":29.325,"lon":77.85,"pop":19467,"tz":"Asia/Kolkata"},{"id":13353678,"name":"Jalochi","local":"Jalochi","country":"IN","lat":18.157,"lon":74.607,"pop":19346,"tz":"Asia/Kolkata"},{"id":3074110,"name":"Jirkov","local":"Йирков","country":"CZ","lat":50.5,"lon":13.448,"pop":19240,"tz":"Europe/Prague"},{"id":656083,"name":"Jaemsae","local":"Йямся","country":"FI","lat":61.864,"lon":25.19,"pop":19209,"tz":"Europe/Helsinki"},{"id":1806300,"name":"Jiangluo","local":"Jiangluo","country":"CN","lat":33.901,"lon":105.822,"pop":19204,"tz":"Asia/Shanghai"},{"id":3853491,"name":"Joaquin V. Gonzalez","local":"Joaquín V. González","country":"AR","lat":-25.114,"lon":-64.126,"pop":19185,"tz":"America/Argentina/Salta"},{"id":4241704,"name":"Jacksonville","local":"Джексонвилл","country":"US","lat":39.734,"lon":-90.229,"pop":19103,"tz":"America/Chicago"},{"id":13494699,"name":"Jalladiampet","local":"Jalladiampet","country":"IN","lat":12.92,"lon":80.208,"pop":19100,"tz":"Asia/Kolkata"},{"id":3526446,"name":"Jose Cardel","local":"José Cardel","country":"MX","lat":19.368,"lon":-96.37,"pop":19092,"tz":"America/Mexico_City"},{"id":3012162,"name":"Jouy-le-Moutier","local":"Жуи-ле-Мутье","country":"FR","lat":49.011,"lon":2.04,"pop":19087,"tz":"Europe/Paris"},{"id":1806079,"name":"Jiaogong","local":"Jiaogong","country":"CN","lat":33.565,"lon":104.646,"pop":19083,"tz":"Asia/Shanghai"},{"id":4160100,"name":"Jasmine Estates","local":"Джесмайн-Истейтс","country":"US","lat":28.293,"lon":-82.69,"pop":18989,"tz":"America/New_York"},{"id":12450916,"name":"Jiaping","local":"Jiaping","country":"CN","lat":28.992,"lon":106.348,"pop":18883,"tz":"Asia/Shanghai"},{"id":3526467,"name":"Jojutla","local":"Jojutla","country":"MX","lat":18.615,"lon":-99.18,"pop":18867,"tz":"America/Mexico_City"},{"id":4003908,"name":"Jocotepec","local":"Jocotepec","country":"MX","lat":20.286,"lon":-103.429,"pop":18852,"tz":"America/Mexico_City"},{"id":3680176,"name":"Juan de Acosta","local":"Juan de Acosta","country":"CO","lat":10.829,"lon":-75.033,"pop":18828,"tz":"America/Bogota"},{"id":8308627,"name":"Jwaneng","local":"Jwaneng","country":"BW","lat":-24.602,"lon":24.728,"pop":18784,"tz":"Africa/Gaborone"},{"id":13353433,"name":"Jadugora","local":"Jadugora","country":"IN","lat":22.654,"lon":86.356,"pop":18563,"tz":"Asia/Kolkata"},{"id":285603,"name":"Janub as Surrah","local":"Janūb as Surrah","country":"KW","lat":29.269,"lon":47.978,"pop":18496,"tz":"Asia/Kuwait"},{"id":1268846,"name":"Jogipet","local":"Jogipet","country":"IN","lat":17.836,"lon":78.068,"pop":18494,"tz":"Asia/Kolkata"},{"id":1906074,"name":"Jiuchao","local":"Jiuchao","country":"CN","lat":26.091,"lon":108.765,"pop":18314,"tz":"Asia/Shanghai"},{"id":3459495,"name":"Julio de Castilhos","local":"Júlio de Castilhos","country":"BR","lat":-29.227,"lon":-53.682,"pop":18226,"tz":"America/Sao_Paulo"},{"id":11549927,"name":"Justicia","local":"Justicia","country":"ES","lat":40.424,"lon":-3.697,"pop":18219,"tz":"Europe/Madrid"},{"id":1269441,"name":"Jalali","local":"Jalālī","country":"IN","lat":27.867,"lon":78.253,"pop":18177,"tz":"Asia/Kolkata"},{"id":1176218,"name":"Jand","local":"Jand","country":"PK","lat":33.433,"lon":72.019,"pop":18170,"tz":"Asia/Karachi"},{"id":3012313,"name":"Joinville-le-Pont","local":"Жоанвил льо Пон","country":"FR","lat":48.825,"lon":2.475,"pop":18154,"tz":"Europe/Paris"},{"id":8420197,"name":"Jianlong","local":"Jianlong","country":"CN","lat":29.359,"lon":106.185,"pop":18151,"tz":"Asia/Shanghai"},{"id":1160907,"name":"Jalq","local":"Jālq","country":"IR","lat":27.603,"lon":62.71,"pop":18098,"tz":"Asia/Tehran"},{"id":1269026,"name":"Jhalida","local":"Jhalidā","country":"IN","lat":23.365,"lon":85.976,"pop":18057,"tz":"Asia/Kolkata"},{"id":1269625,"name":"Jadcherla","local":"Jadcherla","country":"IN","lat":16.774,"lon":78.137,"pop":17958,"tz":"Asia/Kolkata"},{"id":3595171,"name":"Jocotenango","local":"Jocotenango","country":"GT","lat":14.578,"lon":-90.738,"pop":17918,"tz":"America/Guatemala"},{"id":769981,"name":"Jozefow","local":"Юзефув","country":"PL","lat":52.137,"lon":21.236,"pop":17910,"tz":"Europe/Warsaw"},{"id":3556077,"name":"Jobabo","local":"Jobabo","country":"CU","lat":20.969,"lon":-76.299,"pop":17804,"tz":"America/Havana"},{"id":3397108,"name":"Jucurutu","local":"Jucurutu","country":"BR","lat":-6.034,"lon":-37.02,"pop":17793,"tz":"America/Fortaleza"},{"id":13156906,"name":"Jagiroad","local":"Jagiroad","country":"IN","lat":26.12,"lon":92.198,"pop":17739,"tz":"Asia/Kolkata"},{"id":8403615,"name":"Jiuchi","local":"Jiuchi","country":"CN","lat":30.798,"lon":108.371,"pop":17705,"tz":"Asia/Shanghai"},{"id":3460204,"name":"Jaguaripe","local":"Jaguaripe","country":"BR","lat":-13.113,"lon":-38.896,"pop":17659,"tz":"America/Bahia"},{"id":2660221,"name":"Jona","local":"Йона","country":"CH","lat":47.23,"lon":8.839,"pop":17655,"tz":"Europe/Zurich"},{"id":5195674,"name":"Juniata Park","local":"Juniata Park","country":"US","lat":40.008,"lon":-75.109,"pop":17643,"tz":"America/New_York"},{"id":12450714,"name":"Jiayi","local":"Jiayi","country":"CN","lat":36.855,"lon":81.635,"pop":17612,"tz":"Asia/Urumqi"},{"id":1269183,"name":"Jarwal","local":"Jarwal","country":"IN","lat":27.163,"lon":81.542,"pop":17576,"tz":"Asia/Kolkata"},{"id":3397660,"name":"Jaicos","local":"Jaicós","country":"BR","lat":-7.359,"lon":-41.138,"pop":17527,"tz":"America/Fortaleza"},{"id":1269153,"name":"Jatara","local":"Jatāra","country":"IN","lat":25.01,"lon":79.049,"pop":17499,"tz":"Asia/Kolkata"},{"id":3397263,"name":"Joaquim Gomes","local":"Joaquim Gomes","country":"BR","lat":-9.133,"lon":-35.748,"pop":17386,"tz":"America/Maceio"},{"id":1806155,"name":"Jianshan","local":"Jianshan","country":"CN","lat":31.434,"lon":108.895,"pop":17334,"tz":"Asia/Shanghai"},{"id":1269439,"name":"Jalalpore","local":"Jalalpore","country":"IN","lat":20.949,"lon":72.898,"pop":17325,"tz":"Asia/Kolkata"},{"id":1269602,"name":"Jagalur","local":"Jagalūr","country":"IN","lat":14.52,"lon":76.339,"pop":17257,"tz":"Asia/Kolkata"},{"id":3397680,"name":"Jaguaretama","local":"Jaguaretama","country":"BR","lat":-5.613,"lon":-38.767,"pop":17232,"tz":"America/Fortaleza"},{"id":4004126,"name":"Jamay","local":"Jamay","country":"MX","lat":20.295,"lon":-102.709,"pop":17204,"tz":"America/Mexico_City"},{"id":3459440,"name":"Juquia","local":"Juquiá","country":"BR","lat":-24.321,"lon":-47.635,"pop":17154,"tz":"America/Sao_Paulo"},{"id":1269126,"name":"Jawad","local":"Jāwad","country":"IN","lat":24.599,"lon":74.863,"pop":17129,"tz":"Asia/Kolkata"},{"id":6317380,"name":"Jenipapo dos Vieiras","local":"Jenipapo dos Vieiras","country":"BR","lat":-5.371,"lon":-45.636,"pop":17076,"tz":"America/Fortaleza"},{"id":1268920,"name":"Jigani","local":"Jigani","country":"IN","lat":12.786,"lon":77.639,"pop":17036,"tz":"Asia/Kolkata"},{"id":933719,"name":"Janeng","local":"Janeng","country":"BW","lat":-25.417,"lon":25.55,"pop":16853,"tz":"Africa/Gaborone"},{"id":770157,"name":"Jedrzejow","local":"Енджеюв","country":"PL","lat":50.639,"lon":20.305,"pop":16792,"tz":"Europe/Warsaw"},{"id":1268929,"name":"Jhusi","local":"Jhūsi","country":"IN","lat":25.437,"lon":81.906,"pop":16642,"tz":"Asia/Kolkata"},{"id":4997500,"name":"Jenison","local":"Дженисон","country":"US","lat":42.907,"lon":-85.792,"pop":16538,"tz":"America/Detroit"},{"id":11522068,"name":"Jambai","local":"Jāmbai","country":"IN","lat":11.468,"lon":77.643,"pop":16522,"tz":"Asia/Kolkata"},{"id":1806368,"name":"Jiangjia","local":"Jiangjia","country":"CN","lat":29.393,"lon":106.819,"pop":16518,"tz":"Asia/Shanghai"},{"id":1710258,"name":"Jasaan","local":"Jasaan","country":"PH","lat":8.654,"lon":124.756,"pop":16435,"tz":"Asia/Manila"},{"id":1907976,"name":"Jutou","local":"Jutou","country":"CN","lat":34.821,"lon":105.034,"pop":16390,"tz":"Asia/Shanghai"},{"id":2645951,"name":"Johnstone","local":"Джонстон","country":"GB","lat":55.829,"lon":-4.516,"pop":16390,"tz":"Europe/London"},{"id":3466325,"name":"Jussara","local":"Jussara","country":"BR","lat":-11.044,"lon":-41.971,"pop":16354,"tz":"America/Bahia"},{"id":1269175,"name":"Jasidih","local":"Jasidih","country":"IN","lat":24.514,"lon":86.646,"pop":16338,"tz":"Asia/Kolkata"},{"id":3074204,"name":"Jicin","local":"Йичин","country":"CZ","lat":50.437,"lon":15.352,"pop":16328,"tz":"Europe/Prague"},{"id":1175712,"name":"Jiwani","local":"Jiwani","country":"PK","lat":25.049,"lon":61.746,"pop":16322,"tz":"Asia/Karachi"},{"id":1175678,"name":"Johi","local":"Джохи","country":"PK","lat":26.692,"lon":67.614,"pop":16311,"tz":"Asia/Karachi"},{"id":12358632,"name":"Jifeng","local":"Jifeng","country":"CN","lat":33.655,"lon":105.658,"pop":16273,"tz":"Asia/Shanghai"},{"id":3460136,"name":"Japaratuba","local":"Japaratuba","country":"BR","lat":-10.593,"lon":-36.94,"pop":16209,"tz":"America/Maceio"},{"id":1269449,"name":"Jalakandapuram","local":"Jalakandapuram","country":"IN","lat":11.698,"lon":77.873,"pop":16184,"tz":"Asia/Kolkata"},{"id":4701458,"name":"Jollyville","local":"Jollyville","country":"US","lat":30.443,"lon":-97.775,"pop":16151,"tz":"America/Chicago"},{"id":3460281,"name":"Jacupiranga","local":"Jacupiranga","country":"BR","lat":-24.692,"lon":-48.002,"pop":16097,"tz":"America/Sao_Paulo"},{"id":1175762,"name":"Jhol","local":"Jhol","country":"PK","lat":25.955,"lon":68.889,"pop":16067,"tz":"Asia/Karachi"},{"id":3526355,"name":"Juchitepec","local":"Juchitepec","country":"MX","lat":19.101,"lon":-98.879,"pop":16021,"tz":"America/Mexico_City"},{"id":656073,"name":"Janakkala","local":"Янаккала","country":"FI","lat":60.9,"lon":24.6,"pop":15995,"tz":"Europe/Helsinki"},{"id":3397546,"name":"Jatauba","local":"Jataúba","country":"BR","lat":-7.99,"lon":-36.496,"pop":15843,"tz":"America/Recife"},{"id":11185500,"name":"Jalda","local":"Jalda","country":"IN","lat":22.187,"lon":84.844,"pop":15789,"tz":"Asia/Kolkata"},{"id":1268863,"name":"Jodiya Bandar","local":"Jodiya Bandar","country":"IN","lat":22.717,"lon":70.283,"pop":15788,"tz":"Asia/Kolkata"},{"id":3526603,"name":"Jalpa de Mendez","local":"Jalpa de Méndez","country":"MX","lat":18.177,"lon":-93.064,"pop":15695,"tz":"America/Mexico_City"},{"id":4259640,"name":"Jasper","local":"Џаспер","country":"US","lat":38.391,"lon":-86.931,"pop":15451,"tz":"America/Indiana/Vincennes"},{"id":4003804,"name":"Juan Aldama","local":"Juan Aldama","country":"MX","lat":24.291,"lon":-103.393,"pop":15431,"tz":"America/Mexico_City"},{"id":5059836,"name":"Jamestown","local":"Џејмстаун","country":"US","lat":46.911,"lon":-98.708,"pop":15422,"tz":"America/Chicago"},{"id":7303641,"name":"Jelcz Laskowice","local":"Jelcz Laskowice","country":"PL","lat":51.021,"lon":17.316,"pop":15340,"tz":"Europe/Warsaw"},{"id":1735889,"name":"Julau","local":"Julau","country":"MY","lat":2.017,"lon":111.917,"pop":15333,"tz":"Asia/Kuching"},{"id":3397055,"name":"Jupi","local":"Jupi","country":"BR","lat":-8.712,"lon":-36.415,"pop":15329,"tz":"America/Recife"},{"id":3937486,"name":"Junin","local":"Junín","country":"PE","lat":-11.159,"lon":-75.993,"pop":15320,"tz":"America/Lima"},{"id":3097271,"name":"Jelcz","local":"Jelcz","country":"PL","lat":51.021,"lon":17.321,"pop":15308,"tz":"Europe/Warsaw"},{"id":10684812,"name":"Jugial","local":"Jugiāl","country":"IN","lat":32.368,"lon":75.678,"pop":15210,"tz":"Asia/Kolkata"},{"id":2753184,"name":"Julianadorp","local":"Julianadorp","country":"NL","lat":52.89,"lon":4.74,"pop":15135,"tz":"Europe/Amsterdam"},{"id":3460243,"name":"Jaguapita","local":"Jaguapitã","country":"BR","lat":-23.113,"lon":-51.532,"pop":15122,"tz":"America/Sao_Paulo"},{"id":161997,"name":"Jebel","local":"Jebel","country":"TM","lat":39.634,"lon":54.231,"pop":15056,"tz":"Asia/Ashgabat"},{"id":1139807,"name":"Jabal os Saraj","local":"Dzhabal’-Ussaradzh","country":"AF","lat":35.118,"lon":69.238,"pop":15032,"tz":"Asia/Kabul"},{"id":3370903,"name":"Jamestown","local":"Джеймстаун","country":"SH","lat":-15.925,"lon":-5.718,"pop":637,"tz":"Atlantic/St_Helena"}]