[{"id":1799962,"name":"Nanjing","names":{"en":"Nanjing","zh":"南京","ru":"Нанкин","es":"Nankín","fr":"Nankin","it":"Nanchino","fa":"نانجینگ","kk":"Нанкин","el":"Ναντσίνγκ","ko":"난징","vi":"Nam Kinh","ja":"南京市","ur":"نانجنگ","hi":"नानजिंग","uk":"Нанкін","tr":"Nankin","th":"หนานจิง","mr":"नांजिंग","ta":"நாஞ்சிங்","ar":"نانجينغ","pl":"Nankin","pt":"Nanquim","de":"Nanjing","az":"Nankin","hy":"Նանկին","ka":"ნანკინი","ky":"Нанкин","tt":"Нәнҗиң","uz":"Nankin"},"country":"CN","lat":32.06167,"lon":118.77778,"pop":9314685,"search_terms":["난징 시","nanchino","nanjing","nam kinh","ნანკინი","նանկին","نانجينغ","нәнҗиң","南京","nankin","หนานจิง","ναντσίνγκ","нанкін","nanquim","нанкин","난징","nankín","남경","наньцзин","نانجنگ","南京市","नानजिंग","نانجینگ","நாஞ்சிங்","नांजिंग"]},{"id":5128581,"name":"New York City","names":{"en":"New York","sv":"New York","es":"Nueva York","de":"New York City","ar":"نيويورك","bn":"নিউ ইয়র্ক সিটি","cs":"New York","el":"Νέα Υόρκη","fr":"New York","id":"Kota New York","it":"New York","ja":"ニューヨーク","ko":"뉴욕 시","nl":"New York","pl":"Nowy Jork","pt":"Nova Iorque","ro":"New York City","ru":"Нью-Йорк","th":"นครนิวยอร์ก","tl":"Lungsod ng New York","tr":"New York kenti","uk":"Нью-Йорк","vi":"Thành phố New York","zh":"紐約市","fa":"نیویورک","ka":"ნიუ-იორკი","ms":"Bandar Raya New York","ta":"நியூயார்க் நகரம்","ku":"New York City","ur":"نیویارک شہر","hi":"न्यूयॉर्क","hy":"Նյու Յորք"},"country":"US","lat":40.71427,"lon":-74.00597,"pop":8804190,"search_terms":["নিউ ইয়র্ক সিটি","the big apple","kota new york","νέα υόρκη","нью-йорк","new york","lungsod ng new york","マンハッタン","نيويورك","紐約市","nueva york","न्यूयॉर्क","nova iorque","뉴욕","նյու յորք","nowy jork","نیویارک شہر","thành phố new york","new york city","new york kenti","紐約","نیویورک","big apple","ნიუ-იორკი","นครนิวยอร์ก","뉴욕 시","ニューヨーク","bandar raya new york","நியூயார்க் நகரம்"]},{"id":184745,"name":"Nairobi","names":{"en":"Nairobi","de":"Nairobi","es":"Nairobi","ar":"نيروبي","fr":"Nairobi","id":"Nairobi","it":"Nairobi","ja":"ナイロビ","ko":"나이로비","ku":"Nairobî","nl":"Nairobi","pl":"Nairobi","pt":"Nairóbi","ro":"Nairobi","sv":"Nairobi","sw":"Nairobi","zh":"奈洛比","ru":"Найроби","cs":"Nairobi","tr":"Nairobi","el":"Ναϊρόμπι","am":"ናይሮቢ","fa":"نایروبی","th":"ไนโรบี","vi":"Nairobi","ka":"ნაირობი","ur":"نیروبی","bn":"নাইরোবি","uk":"Найробі","hy":"Նայրոբի","tg":"Найроби","tt":"Найроби","az":"Nayrobi","tk":"Naýrobi","ta":"நைரோபி","mr":"नैरोबी","kk":"Найроби","so":"Nayroobi","ky":"Найроби","ps":"نایروبی","te":"నైరోబి","tl":"Nairobi","uz":"Nayrobi","ha":"Nairobi","hi":"नैरोबी","ms":"Nairobi"},"country":"KE","lat":-1.28333,"lon":36.81667,"pop":4397073,"search_terms":["nairóbi","ናይሮቢ","nayrobi","ナイロビ","naýrobi","ναϊρόμπι","ნაირობი","nairobî","نيروبي","奈洛比","نیروبی","найробі","नैरोबी","నైరోబి","나이로비","նայրոբի","نایروبی","nayroobi","நைரோபி","nairobi","নাইরোবি","найроби","ไนโรบี"]},{"id":12908892,"name":"New Taipei City","names":{"en":"New Taipei City","zh":"新北市","cs":"Nová Tchaj-pej","de":"Neu-Taipeh","el":"Νέα Ταϊπέι","es":"Nueva Taipéi","fr":"Nouveau Taipei","it":"Nuova Taipei","ko":"신베이시","nl":"Nieuw Taipei","pl":"Nowe Tajpej","pt":"Nova Taipé","ru":"Новый Тайбэй","tr":"Yeni Taipei","uk":"Новий Тайбей"},"country":"TW","lat":25.06199,"lon":121.45703,"pop":4004367,"search_terms":["nuova taipei","新北市","nouveau taipei","новый тайбэй","신베이시","новий тайбей","nieuw taipei","neu-taipeh","xinbei city","new taipei city","nová tchaj-pej","nueva taipéi","new taipei","nova taipé","yeni taipei","nowe tajpej","νέα ταϊπέι"]},{"id":12747063,"name":"New Territories","names":{"en":"New Territories"},"country":"HK","lat":22.42441,"lon":114.11095,"pop":3984077,"search_terms":["new territories","new territory hong kong"]},{"id":1799869,"name":"Nanning","names":{"en":"Nanning","de":"Nanning","es":"Nanning","fr":"Nanning","ja":"南寧市","nl":"Nanning","pl":"Nanning","pt":"Nanning","vi":"Nam Ninh","zh":"南宁","id":"Nanning","ru":"Наньнин","th":"หนานหนิง","cs":"Nan-ning","uk":"Наньнін","fa":"نان‌نینگ","ko":"난닝 시","hi":"नाननींग","kk":"Наньнин","ar":"نانينغ","ur":"نانینگ","uz":"Nannin","az":"Nanninq"},"country":"CN","lat":22.81667,"lon":108.31667,"pop":3839800,"search_terms":["南宁","หนานหนิง","nanninq","نان‌نینگ","नाननींग","南寧市","نانینگ","nan-ning","난닝 시","наньнин","nanning","наньнін","نانينغ","nam ninh","nannin"]},{"id":1799397,"name":"Ningbo","names":{"en":"Ningbo","de":"Ningbo","es":"Ningbó","fr":"Ningbo","ja":"寧波市","nl":"Ningbo","pl":"Ningbo","pt":"Ningbo","ru":"Нинбо","sv":"Ningbo","id":"Ningbo","ko":"닝보 시","zh":"宁波","th":"หนิงปัว","uk":"Нінбо","vi":"Ninh Ba","ar":"نينغبو","az":"Ninbo","fa":"نانگبو","ur":"ننگبو"},"country":"CN","lat":29.87819,"lon":121.54945,"pop":3731203,"search_terms":["寧波市","ningbo","หนิงปัว","ninh ba","нінбо","ننگبو","نينغبو","نانگبو","нинбо","ninbo","ningbó","宁波","닝보 시"]},{"id":6619347,"name":"Navi Mumbai","names":{"en":"Navi Mumbai","bn":"নাওয়ি মুম্বাই","ta":"நவி மும்பை","ja":"ナビムンバイ","ur":"نوی ممبئی","hi":"नवी मुंबई","mr":"नवी मुंबई","fa":"بمبئی نو","ko":"나비뭄바이","ru":"Нави Мумбаи","zh":"新孟買","ps":"ناوي مومبای","pt":"Nova Bombaim","de":"Navi Mumbai"},"country":"IN","lat":19.03681,"lon":73.01582,"pop":2600000,"search_terms":["新孟買","marathi, maharashtra","ナビムンバイ","nova bombaim","нави мумбаи","نوی ممبئی","নাওয়ি মুম্বাই","بمبئی نو","नवी मुंबई","나비뭄바이","நவி மும்பை","ناوي مومبای","navi mumbai"]},{"id":1262180,"name":"Nagpur","names":{"en":"Nagpur","de":"Nagpur","fr":"Nagpur","hi":"नागपुर","nl":"Nagpur","pl":"Nagpur","pt":"Nagpur","ro":"Nagpur","sv":"Nagpur","ru":"Нагпур","id":"Nagpur","ja":"ナーグプル","ta":"நாக்பூர்","ar":"ناغبور","bn":"নাগপুর","cs":"Nágpur","el":"Ναγκπούρ","fa":"ناگپور","ka":"ნაგპური","ko":"나그푸르","mr":"नागपूर","te":"నాగపూర్","uk":"Наґпур","ur":"ناگپور","zh":"那格浦尔","ky":"Нагпур","ps":"ناگپور"},"country":"IN","lat":21.14631,"lon":79.08491,"pop":2405665,"search_terms":["nágpur","நாக்பூர்","ناگپور","नागपूर","ناغبور","нагпур","नागपुर","나그푸르","ナーグプル","nagpur","那格浦尔","నాగపూర్","নাগপুর","nāgpur","ναγκπούρ","ნაგპური","наґпур"]},{"id":1800163,"name":"Nanchang","names":{"en":"Nanchang","de":"Nanchang","fr":"Nanchang","ja":"南昌市","nl":"Nanchang","pl":"Nanchang","pt":"Nanchang","zh":"南昌","es":"Nanchang","id":"Nanchang","vi":"Nam Xương","ru":"Наньчан","uk":"Наньчан","ko":"난창 시","kk":"Наньчан","hi":"नानचांग","bn":"নানছাং","cs":"Nan-čchang","fa":"نانچانگ","ar":"نانتشانغ","ky":"Наньчан","ur":"نانچانگ","az":"Nançan"},"country":"CN","lat":28.68396,"lon":115.85306,"pop":2357839,"search_terms":["난창 시","南昌市","نانتشانغ","नानचांग","наньчан","nançan","نانچانگ","nam xương","নানছাং","nanchang","nan-čchang","南昌"]},{"id":1856057,"name":"Nagoya","names":{"en":"Nagoya","fr":"Nagoya","es":"Nagoya","pl":"Nagoja","de":"Nagoya","ar":"ناغويا","cs":"Nagoja","fa":"ناگویا، آیچی","id":"Nagoya","it":"Nagoya","ko":"나고야 시","nl":"Nagoya","pt":"Nagoia","ru":"Нагоя","sv":"Nagoya","th":"นะโงะยะ","vi":"Nagoya","zh":"名古屋市","ja":"名古屋市","az":"Naqoya","uk":"Нагоя"},"country":"JP","lat":35.18147,"lon":136.90641,"pop":2332176,"search_terms":["nagoya","나고야 시","なごやし","nagoja","nagoya city","名古屋","นะโงะยะ","ناگویا، آیچی","нагоя","nagoya-shi","ناغويا","nagoia","名古屋市","naqoya"]},{"id":1799722,"name":"Nantong","names":{"en":"Nantong","de":"Nantong","fr":"Nantong","pl":"Nantong","pt":"Nantong","zh":"南通","ru":"Наньтун","th":"หนานทง","cs":"Nan-tchung","ja":"南通市","ko":"난퉁 시","vi":"Nam Thông","fa":"نانتانگ","ur":"نانتونگ","uk":"Наньтун"},"country":"CN","lat":32.03028,"lon":120.87472,"pop":2273326,"search_terms":["nan-tchung","نانتانگ","nam thông","nantong","نانتونگ","南通市","наньтун","난퉁 시","南通","หนานทง"]},{"id":1800146,"name":"Nanchong","names":{"en":"Nanchong","ru":"Наньчун","zh":"南充","cs":"Nan-čchung","ja":"南充市","ko":"난충 시","vi":"Nam Sung","fa":"نانچونگ","ur":"نانچونگ"},"country":"CN","lat":30.79508,"lon":106.08473,"pop":1858875,"search_terms":["nan-čchung","наньчун","nam sung","난충 시","نانچونگ","南充市","nanchong","南充"]},{"id":1799629,"name":"Nanyang","names":{"en":"Nanyang","fr":"Nanyang","de":"Nanyang","ru":"Наньян","vi":"Nam Dương","cs":"Nan-jang","ja":"南陽市","ko":"난양 시","zh":"南阳市","az":"Nanyan","ur":"نانیانگ، ہینان"},"country":"CN","lat":33.00524,"lon":112.54659,"pop":1811812,"search_terms":["наньян","nam dương","南陽市","nan-jang","난양 시","nanyang","南阳","نانیانگ، ہینان","nanyan","南阳市"]},{"id":1496747,"name":"Novosibirsk","names":{"en":"Novosibirsk","de":"Nowosibirsk","fr":"Novossibirsk","pl":"Nowosybirsk","es":"Novosibirsk","cs":"Novosibirsk","el":"Νοβοσιμπίρσκ","id":"Novosibirsk","it":"Novosibirsk","ja":"ノヴォシビルスク","ko":"노보시비르스크","nl":"Novosibirsk","pt":"Novosibirsk","ro":"Novosibirsk","ru":"Новосибирск","sv":"Novosibirsk","uk":"Новосибірськ","mr":"नोवोसिबिर्स्क","tg":"Новосибирск","ar":"نوفوسيبيرسك","fa":"نووسیبیرسک","kk":"Новосібір","ka":"ნოვოსიბირსკი","hy":"Նովոսիբիրսկ","tt":"Новосибирск","th":"โนโวซีบีสค์","zh":"新西伯利亚","ky":"Новосибирск","ur":"نووسیبیرسک"},"country":"RU","lat":55.02259,"lon":82.93175,"pop":1612833,"search_terms":["nowosybirsk","novossibirsk","ノヴォシビルスク","노보시비르스크","новосибирск","نووسیبیرسک","novosibirsk","नोवोसिबिर्स्क","νοβοσιμπιρσκ","nowosibirsk","ნოვოსიბირსკი","โนโวซีบีสค์","νοβοσιμπίρσκ","новосібір","نوفوسيبيرسك","新西伯利亚","новосибірськ","նովոսիբիրսկ"]},{"id":1261731,"name":"Nashik","names":{"en":"Nashik","hi":"नाशीक","ru":"Насик","fr":"Nashik","ja":"ナーシク","ko":"나시크","fa":"ناسیک","bn":"নাশিক","ka":"ნაშიკი","mr":"नाशिक","ta":"நாசிக்","te":"నాసిక్","uk":"Нашік","ur":"ناسک","zh":"纳西克","ky":"Нашик","ps":"ناشک"},"country":"IN","lat":19.99727,"lon":73.79096,"pop":1486053,"search_terms":["нашік","नाशीक","ناشک","纳西克","నాసిక్","ناسیک","nashik","ナーシク","नासिक","নাশিক","नाशिक","насик","ნაშიკი","நாசிக்","나시크","ناسک","нашик"]},{"id":1262111,"name":"Najafgarh","names":{"en":"Najafgarh","hi":"नजफगढ़","ja":"ナジャフガル","bn":"নজফগড়","ur":"نجف گڑھ","ta":"நஜாப்கர்","nl":"Najafgarh","zh":"納嘉夫嘎爾"},"country":"IN","lat":28.60922,"lon":76.97982,"pop":1365000,"search_terms":["納嘉夫嘎爾","नजफगढ़","নজফগড়","najafgarh","நஜாப்கர்","ナジャフガル","نجف گڑھ"]},{"id":2427123,"name":"N'Djamena","names":{"en":"N'Djamena","de":"N’Djamena","es":"Yamena","ar":"انجمينا","fr":"Ndjamena","it":"N'Djamena","ja":"ンジャメナ","ko":"은자메나","nl":"Ndjamena","pl":"Ndżamena","pt":"N'Djamena","sv":"N'Djamena","ru":"Нджамена","sw":"N'Djamena","el":"Τζαμένα","am":"ንጃሜና","fa":"انجامنا","ur":"نجامینا"},"country":"TD","lat":12.10672,"lon":15.0444,"pop":1359526,"search_terms":["ንጃሜና","ndżamena","إنجامينا","indschamina","انجمينا","n'djamena","нджамена","τζαμένα","ンジャメナ","n’djamena","은자메나","ndjamena","نجامینا","نجامينا","yamena","أنجمينا","انجامنا"]},{"id":2440485,"name":"Niamey","names":{"en":"Niamey","de":"Niamey","es":"Niamey","fr":"Niamey","it":"Niamey","ja":"ニアメ","ko":"니아메","nl":"Niamey","pl":"Niamey","pt":"Niamey","sv":"Niamey","ru":"Ниамей","el":"Νιαμέι","hy":"Նիամեյ","sw":"Niamey","am":"ኒያሜ","ar":"نيامي","id":"Niamey","tg":"Ниамей","th":"นีอาเม","ta":"நியாமி","mr":"नियामे","ky":"Ниамей","fa":"نیامی","ur":"نیامی","kk":"Ниамей","ka":"ნიამეი","uk":"Ніамей","bn":"নিয়ামে","zh":"尼亞美"},"country":"NE","lat":13.51366,"lon":2.1098,"pop":1323691,"search_terms":["நியாமி","นีอาเม","ниамей","نيامي","نیامی","नियामे","নিয়ামে","νιαμέυ","尼亞美","ნიამეი","니아메","ніамей","niamey","նիամեյ","ニアメ","νιαμέι","ኒያሜ"]},{"id":520555,"name":"Nizhniy Novgorod","names":{"en":"Nizhny Novgorod","ru":"Нижний Новгород","de":"Nischni Nowgorod","fr":"Nijni Novgorod","sv":"Nizjnij Novgorod","uk":"Нижній Новгород"},"country":"RU","lat":56.32867,"lon":44.00205,"pop":1259013,"search_terms":["nizhniy novgorod","нижний новгород","нижній новгород","nizjnij novgorod","nischni nowgorod","nizhny novgorod","nijni novgorod"]},{"id":1799491,"name":"Neijiang","names":{"en":"Neijiang","pl":"Neijiang","fr":"Neijiang","nl":"Neijiang","zh":"内江市","cs":"Nej-ťiang","fa":"نایجیانگ","ja":"内江市","ko":"네이장 시","ur":"نائجیانگ","vi":"Nội Giang","ru":"Нэйцзян"},"country":"CN","lat":29.58354,"lon":105.06216,"pop":1251095,"search_terms":["네이장 시","نایجیانگ","neijiang","نائجیانگ","нэйцзян","内江市","nội giang","nej-ťiang"]},{"id":1261162,"name":"Nowrangapur","names":{"en":"Nowrangapur"},"country":"IN","lat":19.23114,"lon":82.54826,"pop":1220946,"search_terms":["nowrangapur"]},{"id":2377450,"name":"Nouakchott","names":{"en":"Nouakchott","de":"Nouakchott","es":"Nuakchot","ar":"نواكشوط","fr":"Nouakchott","id":"Nouakchott","it":"Nouakchott","ja":"ヌアクショット","ko":"누악쇼트","nl":"Nouakchott","pl":"Nawakszut","pt":"Nouakchott","sv":"Nouakchott","fa":"نواکشوت","ru":"Нуакшот","el":"Νουαξότ","hy":"Նուակշոտ","sw":"Nouakchott","am":"ኑዋክሾት","mr":"नवाकसुत","ka":"ნუაქშოტი","ky":"Нуакшот","cs":"Nuakšott","bn":"নুওয়াকশুত","ur":"نواکشوط","uk":"Нуакшот","ta":"நுவாக்சூத்","tr":"Nuakşot","az":"Nuakşot","th":"นูแอกชอต","kk":"Нуакшот","tg":"Нуакшот","so":"Nawakshot","zh":"努瓦克肖特","uz":"Nuakshot"},"country":"MR","lat":18.08581,"lon":-15.9785,"pop":1184530,"search_terms":["نواكشوط","نواکشوط","նուակշոտ","nuakchot","ኑዋክሾት","nawakshot","nawakszut","نواکشوت","ნუაქშოტი","nuakshot","nuakšott","นูแอกชอต","нуакшот","누악쇼트","நுவாக்சூத்","努瓦克肖特","ヌアクショット","নুওয়াকশুত","nuakşot","nouakchott","νουακσότ","नवाकसुत","νουαξότ"]},{"id":6611854,"name":"Nay Pyi Taw","names":{"en":"Nay Pyi Taw","pt":"Naipidau","ko":"네피도","de":"Naypyidaw","ru":"Нейпьидо","fr":"Naypyidaw","uk":"Найп’їдо"},"country":"MM","lat":19.745,"lon":96.12972,"pop":925000,"search_terms":["nay pyi taw","내피도","naypyidaw","нейпьидо","naipidau","найп’їдо","네피도","naypyitaw"]},{"id":3172394,"name":"Naples","names":{"en":"Naples","it":"Napoli","de":"Neapel","es":"Nápoles","ar":"نابولي","cs":"Neapol","fa":"ناپل","fr":"Naples","id":"Napoli","ja":"ナポリ","ka":"ნეაპოლი","ko":"나폴리","nl":"Napels","pl":"Neapol","pt":"Nápoles","ro":"Napoli","ru":"Неаполь","sv":"Neapel","zh":"那不勒斯","tr":"Napoli","hy":"Նեապոլ","hi":"नापोलि","vi":"Napoli","ta":"நாபொலி","bn":"নেপলস","el":"Νάπολη","az":"Neapol","mr":"नापोली","th":"เนเปิลส์","uk":"Неаполь","kk":"Неаполь","ur":"ناپولی"},"country":"IT","lat":40.85216,"lon":14.26811,"pop":909048,"search_terms":["नापोली","napule","nápoles","νάπολη","나폴리","নেপলস","neapol","நாபொலி","ناپل","नापोलि","naples","նեապոլ","napoli","ナポリ","ნეაპოლი","неаполь","neapole","ناپولی","napels","نابولي","neapel","เนเปิลส์","那不勒斯"]},{"id":3394023,"name":"Natal","names":{"en":"Natal","de":"Natal","fr":"Natal","id":"Natal","it":"Natal","nl":"Natal","pl":"Natal","pt":"Natal","ru":"Натал","sv":"Natal","tr":"Natal","es":"Natal","tg":"Натал"},"country":"BR","lat":-5.795,"lon":-35.20944,"pop":896708,"search_terms":["натал","natal"]},{"id":3522790,"name":"Naucalpan de Juarez","names":{"en":"Naucalpan de Juarez","es":"Naucalpan de Juárez","nl":"Naucalpan de Juárez","sv":"Naucalpan de Juárez","ru":"Наукальпан-де-Хуарес","de":"Municipio Naucalpan de Juárez","ar":"ناوكالبان دي خواريز","el":"Ναουκάλπαν","fa":"ناوکالپان د خوارز، استادو د مخیکو","ja":"ナウカルパン","ka":"ნაუკალპანი","zh":"瑙卡尔潘","ko":"나우칼판","ur":"کاوکالپان"},"country":"MX","lat":19.47851,"lon":-99.23963,"pop":834434,"search_terms":["наукальпан","naucalpan de juarez","municipio naucalpan de juárez","ნაუკალპანი","naucalpan de juárez","瑙卡尔潘","naucalpan","ναουκάλπαν","наукальпан-де-хуарес","ناوکالپان د خوارز، استادو د مخیکو","کاوکالپان","나우칼판","ناوكالبان دي خواريز","ナウカルパン"]},{"id":3456160,"name":"Nova Iguacu","names":{"en":"Nova Iguacu","es":"Nova Iguaçu","pl":"Nova Iguaçu","de":"Nova Iguaçu","fr":"Nova Iguaçu","it":"Nova Iguaçu","nl":"Nova Iguaçu","pt":"Nova Iguaçu","ro":"Nova Iguaçu","sv":"Nova Iguaçu","ru":"Нова-Игуасу","ja":"ノヴァ・イグアス","ka":"ნოვა-იგუასუ","kk":"Нова-Игуасу","ko":"노바이구아수","mr":"नोव्हा इग्वासु","uk":"Нова-Ігуасу","zh":"新伊瓜蘇"},"country":"BR","lat":-22.75917,"lon":-43.45111,"pop":823302,"search_terms":["ნოვა-იგუასუ","नोव्हा इग्वासु","nova iguaçu","нова-игуасу","nova iguacu","노바이구아수","нова-ігуасу","新伊瓜蘇","ノヴァ・イグアス"]},{"id":1261809,"name":"Narela","names":{"en":"Narela","hi":"narela","ur":"نیرلا","ta":"நரேலா","nl":"Narela"},"country":"IN","lat":28.85267,"lon":77.09288,"pop":800000,"search_terms":["narela","நரேலா","نیرلا"]},{"id":1855431,"name":"Niigata","names":{"en":"Niigata","de":"Niigata","fr":"Niigata","pl":"Niigata","cs":"Niigata","id":"Niigata","ja":"新潟市","ko":"니가타 시","pt":"Niigata","ru":"Ниигата","it":"Niigata"},"country":"JP","lat":37.92259,"lon":139.04125,"pop":797591,"search_terms":["ниигата","niigata","にいがた","니가타 시","新潟","にいがたし","新潟市","ニイガタ","ニイガタシ"]},{"id":1033356,"name":"Nampula","names":{"en":"Nampula","de":"Nampula","es":"Nampula","pt":"Nampula","pl":"Nampula","fr":"Nampula","it":"Nampula","ru":"Нампула","el":"Ναμπούλα","ja":"ナンプラ","ka":"ნამპულა","ko":"남풀라","uk":"Нампула","zh":"楠普拉","fa":"نامپولا","ur":"نامپولا"},"country":"MZ","lat":-15.11646,"lon":39.2666,"pop":770379,"search_terms":["楠普拉","نامپولا","ナンプラ","nampula","ναμπούλα","нампула","남풀라","ნამპულა"]},{"id":1513157,"name":"Namangan","names":{"en":"Namangan","ru":"Наманган","es":"Namangán","ko":"나망간","kk":"Наманған","ja":"ナマンガン","fa":"نمنگان","ar":"نمنكان","zh":"納曼干","th":"นามางกาน","ky":"Наманган","tr":"Nemengan","uk":"Наманган","ur":"نمنگان"},"country":"UZ","lat":40.9983,"lon":71.67257,"pop":713220,"search_terms":["納曼干","nemengan","ナマンガン","นามางกาน","наманған","namangan","наманган","namangán","نمنكان","나망간","نمنگان"]},{"id":4644585,"name":"Nashville","names":{"en":"Nashville","fr":"Nashville","pl":"Nashville","es":"Nashville","de":"Nashville","ar":"ناشفيل","fa":"نشویل","id":"Nashville","it":"Nashville","ja":"ナッシュビル","ka":"ნეშვილი","ko":"내슈빌","nl":"Nashville","pt":"Nashville","ru":"Нашвилл","sv":"Nashville","tg":"Нашвилл","bn":"ন্যাশভিল","mr":"नॅशव्हिल","th":"แนชวิลล์","ta":"நாஷ்வில்","el":"Νάσβιλ","kk":"Нашвилл","uk":"Нашвілл","hy":"Նեշվիլ","zh":"纳什维尔","az":"Neşvill","so":"Nashfile","ur":"نیشویل، ٹینیسی"},"country":"US","lat":36.16589,"lon":-86.78444,"pop":689447,"search_terms":["نشویل","แนชวิลล์","нашвілл","nashfile","neşvill","纳什维尔","nashville","ნეშვილი","நாஷ்வில்","내슈빌","նեշվիլ","ন্যাশভিল","ナッシュビル","ناشفيل","нашвилл","نیشویل، ٹینیسی","नॅशव्हिल","νάσβιλ"]},{"id":4645421,"name":"New South Memphis","names":{"en":"New South Memphis"},"country":"US","lat":35.08676,"lon":-90.05676,"pop":641608,"search_terms":["new south memphis"]},{"id":901344,"name":"Ndola","names":{"en":"Ndola","fr":"Ndola","pl":"Ndola","de":"Ndola","id":"Ndola","ru":"Ндола","sv":"Ndola","es":"Ndola","pt":"Ndola","uk":"Ндола","ka":"ნდოლა","ar":"ندولا","ko":"은돌라","ja":"ンドラ","el":"Ντόλα","zh":"恩多拉","ky":"Ндола","ur":"ندولا"},"country":"ZM","lat":-12.95867,"lon":28.63659,"pop":627503,"search_terms":["ndola","ンドラ","ნდოლა","ндола","ندولا","ντόλα","은돌라","恩多拉"]},{"id":3489297,"name":"New Kingston","names":{"en":"New Kingston"},"country":"JM","lat":18.00747,"lon":-76.78319,"pop":583958,"search_terms":["new kingston"]},{"id":1572151,"name":"Nha Trang","names":{"en":"Nha Trang","fr":"Nha Trang","pl":"Nha Trang","de":"Nha Trang","ja":"ニャチャン","pt":"Nha Trang","sv":"Nha Trang","vi":"Nha Trang","es":"Nha Trang","ru":"Нячанг","uk":"Нячанг","fa":"نها ترنگ","th":"ญาจาง","ko":"냐짱","zh":"芽莊市","ar":"نها ترانج"},"country":"VN","lat":12.24507,"lon":109.19432,"pop":579000,"search_terms":["냐짱","芽莊市","нячанг","nha trang","ニャチャン","نها ترنگ","نها ترانج","ญาจาง","나트랑"]},{"id":184622,"name":"Nakuru","names":{"en":"Nakuru","de":"Nakuru","pl":"Nakuru","es":"Nakuru","sw":"Nakuru","ru":"Накуру","fa":"ناکورو، کنیا","ja":"ナクル","ka":"ნაკურუ","ko":"나쿠루","uk":"Накуру","zh":"纳库鲁","ur":"ناکورو"},"country":"KE","lat":-0.30719,"lon":36.07225,"pop":570674,"search_terms":["nakuru","ナクル","ناکورو، کنیا","나쿠루","纳库鲁","ნაკურუ","накуру","ناکورو"]},{"id":369004,"name":"Nyala","names":{"en":"Nyala","ar":"نيالا","fa":"نیاله","ja":"ニャラ","ko":"니알라","uk":"Ньяла","pl":"Nijala","pt":"Niala","ru":"Ньяла","zh":"尼亚拉","de":"Nyala"},"country":"SD","lat":12.04888,"lon":24.88069,"pop":565734,"search_terms":["nyala","ньяла","nijala","ニャラ","نيالا","نیاله","니알라","尼亚拉","niala"]},{"id":98854,"name":"Nasiriyah","names":{"en":"Nasiriyah","de":"Nasiriya","es":"Nasiriya","it":"Nasiriya","nl":"Nasiriyah","ar":"الناصرية","ja":"ナーシリーヤ","sv":"An-Nasiriya","pl":"Nasirijja","ru":"Насирия"},"country":"IQ","lat":31.05799,"lon":46.25726,"pop":558400,"search_terms":["nasiriya","ナーシリーヤ","الناصرية","nasirijja","الناصريه","насирия","nasiriyah","an-nasiriya"]},{"id":1261977,"name":"Nanded","names":{"en":"Nanded","fr":"Nanded","zh":"楠代德","th":"นันเดด","ta":"நான்தேட்","ru":"Нандед","ja":"ナーンデード","mr":"नांदेड","hi":"नांदेड़","ko":"난데드","fa":"ناندید","ps":"ننديد","ur":"ناندیڑ"},"country":"IN","lat":19.16023,"lon":77.31497,"pop":550564,"search_terms":["楠代德","नांदेड़","nanded","นันเดด","नांदेड","நாந்தேடு","нандед","ناندیڑ","ナーンデード","нандер","ناندید","ننديد","난데드","நான்தேட்","นันเทฑ"]},{"id":1261529,"name":"Nellore","names":{"en":"Nellore","hi":"नेल्लौर","fa":"نلور","ta":"நெல்லூர்","ar":"نيلور","te":"నెల్లూరు","mr":"नेल्लोर","pl":"Nellur","ru":"Неллуру","zh":"內洛爾","ja":"ネルール","ps":"نيلوری","ur":"نیلور"},"country":"IN","lat":14.44992,"lon":79.98697,"pop":547621,"search_terms":["неллуру","nellore","nellur","నెల్లూరు","ネルール","نيلوری","नेल्लौर","نيلور","內洛爾","नेल्लोर","نلور","نیلور","நெல்லூர்"]},{"id":1496990,"name":"Novokuznetsk","names":{"en":"Novokuznetsk","de":"Nowokusnezk","cs":"Novokuzněck","ja":"ノヴォクズネツク","ko":"노보쿠즈네츠크","nl":"Novokoeznetsk","sv":"Novokuznetsk","pl":"Nowokuźnieck","pt":"Novokuznetsk","ru":"Новокузнецк","fr":"Novokouznetsk","it":"Novokuzneck","ar":"نوفوكوزنتسك","uk":"Новокузнецьк","el":"Νοβοκουζνέτσκ","ro":"Novokuznețk","tg":"Новокузнетск","fa":"نووکوزنتسک","zh":"新库兹涅茨克","ur":"نووکوزنتسک"},"country":"RU","lat":53.75752,"lon":87.13599,"pop":539616,"search_terms":["novokuzneck","novokuznețk","novokuznetsk","νοβοκουζνέτσκ","نووکوزنتسک","新库兹涅茨克","nowokuźnieck","nowokusnezk","노보쿠즈네츠크","новокузнецк","novokoeznetsk","новокузнетск","novokuzněck","نوفوكوزنتسك","novokouznetsk","ノヴォクズネツク","новокузнецьк"]},{"id":10943053,"name":"Nansana","names":{"en":"Nansana"},"country":"UG","lat":0.36389,"lon":32.52861,"pop":532800,"search_terms":["nansana"]},{"id":2861650,"name":"Nuernberg","names":{"en":"Nuremberg","es":"Nuremberg","de":"Nürnberg","pl":"Norymberga","fr":"Nuremberg","cs":"Norimberk","el":"Νυρεμβέργη","id":"Nürnberg","it":"Norimberga","ja":"ニュルンベルク","ka":"ნიურნბერგი","ko":"뉘른베르크","nl":"Neurenberg","pt":"Nuremberga","ro":"Nürnberg","ru":"Нюрнберг","sv":"Nürnberg","th":"นูเรมเบิร์ก","tr":"Nuremberg","vi":"Nürnberg","kk":"Нюрнберг","mr":"न्युर्नबर्ग","uk":"Нюрнберг","tl":"Nuremberg","ms":"Nuremberg","az":"Nürnberq","ta":"நியூரம்பெர்க்","ar":"نورنبيرغ","fa":"نورنبرگ","zh":"纽伦堡"},"country":"DE","lat":49.45421,"lon":11.07752,"pop":515543,"search_terms":["norymberga","นูเรมเบิร์ก","纽伦堡","நியூரம்பெர்க்","ნიურნბერგი","نورنبرگ","نورنبيرغ","เนือร์นแบร์ก","nürnberq","núremberg","neurenberg","ニュルンベルク","nuremberg","nuernberg","νυρεμβεργη","нюрнберг","norimberga","न्युर्नबर्ग","νυρεμβέργη","뉘른베르크","nürnberg","norimberk","nuremberga"]},{"id":523750,"name":"Naberezhnyye Chelny","names":{"en":"Naberezhnye Chelny","de":"Nabereschnyje Tschelny","cs":"Naberežnyje Čelny","ko":"나베레주니예첼니","nl":"Naberezjnye Tsjelny","pt":"Naberejnye Chelny","tt":"Яр Чаллы","ru":"Набережные Челны"},"country":"RU","lat":55.73718,"lon":52.41961,"pop":509870,"search_terms":["яр чаллы","나베레주니예첼니","nabereschnyje tschelny","나베레즈니예첼니","naberežnyje čelny","naberejnye chelny","yar çallı","naberezhnyye chelny","набережные челны","naberezjnye tsjelny","naberezhnye chelny"]},{"id":2155472,"name":"Newcastle","names":{"en":"Newcastle","pl":"Newcastle","de":"Newcastle","es":"Newcastle","fr":"Newcastle","id":"Newcastle","ja":"ニューカッスル","nl":"Newcastle","pt":"Newcastle","sv":"Newcastle","ru":"Ньюкасл","ko":"뉴캐슬","uk":"Ньюкасл","fa":"نیوکاسل، نیو ساوت ولز","ka":"ნიუკასლი","zh":"纽卡斯尔","ar":"نيوكاسل","kk":"Ньюкасл","mr":"न्यूकॅसल","ta":"நியூகாசில்","ur":"نیو کیسل، نیو ساؤتھ ویلز"},"country":"AU","lat":-32.92953,"lon":151.7801,"pop":508437,"search_terms":["纽卡斯尔","نیو کیسل، نیو ساؤتھ ویلز","நியூகாசில்","نیوکاسل، نیو ساوت ولز","newcastle","ニューカッスル","ньюкасл","نيوكاسل","ნიუკასლი","न्यूकॅसल","뉴캐슬"]},{"id":103630,"name":"Najran","names":{"en":"Najran","ar":"نجران"},"country":"SA","lat":17.49326,"lon":44.12766,"pop":505652,"search_terms":["نجران","najran"]},{"id":1855207,"name":"Nishinomiya","names":{"en":"Nishinomiya","de":"Nishinomiya","ja":"西宮市","nl":"Nishinomiya","pt":"Nishinomiya","sv":"Nishinomiya","pl":"Nishinomiya","es":"Nishinomiya","ru":"Нисиномия"},"country":"JP","lat":34.71562,"lon":135.33199,"pop":485587,"search_terms":["西宮市","西宮","нисиномия","西宮浜","nishinomiya"]},{"id":98860,"name":"Najaf","names":{"en":"Najaf","de":"Nadschaf","ar":"النجف","fa":"نجف","fr":"Nadjaf","id":"Najaf","ja":"ナジャフ","nl":"Najaf","pt":"An-Najaf","ru":"Эн-Наджаф","sv":"Najaf","es":"Nayaf","pl":"An-Nadżaf","it":"Najaf","zh":"納杰夫","az":"Nəcəf","cs":"Nadžaf","el":"Νατζάφ","hi":"नजफ़","ka":"ნაჯაფი","ko":"나자프","ta":"நஜாப்","tr":"Necef","uk":"Ан-Наджаф","ur":"نجف"},"country":"IQ","lat":32.02594,"lon":44.34625,"pop":482576,"search_terms":["ნაჯაფი","نجف","nadschaf","ан-наджаф","necef","an-nadżaf","эн-наджаф","νατζάφ","النجف الاشرف","ナジャフ","नजफ़","나자프","納杰夫","nəcəf","najaf","an-najaf","nadjaf","nadžaf","nayaf","النجف","நஜாப்"]},{"id":1799846,"name":"Nanping","names":{"en":"Nanping","de":"Nanping","ru":"Наньпин","zh":"南平市","cs":"Nan-pching","ja":"南平市","ko":"난핑 시","vi":"Nam Bình","fa":"نانپینگ","ur":"نانپنگ"},"country":"CN","lat":26.645,"lon":118.17361,"pop":467875,"search_terms":["نانپینگ","nanping","南平市","난핑 시","nam bình","南平","наньпин","نانپنگ","nan-pching"]},{"id":330186,"name":"Nazret","names":{"en":"Nazret"},"country":"ET","lat":8.55,"lon":39.26667,"pop":456900,"search_terms":["nazret"]},{"id":3456283,"name":"Niteroi","names":{"en":"Niteroi","de":"Niterói","fr":"Niterói","it":"Niterói","nl":"Niterói","pt":"Niterói","es":"Niterói","pl":"Niterói","sv":"Niterói","ja":"ニテロイ","ru":"Нитерой"},"country":"BR","lat":-22.88333,"lon":-43.10361,"pop":456456,"search_terms":["ニテロイ","niteroi","niterói","нитерой"]},{"id":1873757,"name":"Namp'o","names":{"en":"Namp'o","ko":"남포","ru":"Нампхо"},"country":"KP","lat":38.7375,"lon":125.40778,"pop":455000,"search_terms":["namp'o","namp’o","남포","нампхо"]},{"id":1573517,"name":"Nam GJinh","names":{"en":"Nam Định","ru":"Намдинь","vi":"Thành Phố Nam Định"},"country":"VN","lat":20.43389,"lon":106.17729,"pop":448225,"search_terms":["nam định","намдинь","nam gjinh","thành phố nam định"]},{"id":1806097,"name":"Ningde","names":{"en":"Ningde","zh":"宁德市"},"country":"CN","lat":26.66167,"lon":119.52278,"pop":429260,"search_terms":["宁德市","ningde"]},{"id":3522551,"name":"Nuevo Laredo","names":{"en":"Nuevo Laredo","de":"Nuevo Laredo","es":"Nuevo Laredo","nl":"Nuevo Laredo","pl":"Nuevo Laredo","sv":"Nuevo Laredo","ru":"Нуэво-Ларедо","ja":"ヌエボ・ラレド","ka":"ნუევო-ლარედო","fa":"نوئوو لاردو","pt":"Novo Laredo","zh":"新拉雷多","ko":"누에보라레도","ur":"نوئوو لاریدو"},"country":"MX","lat":27.47629,"lon":-99.51639,"pop":416055,"search_terms":["نوئوو لاردو","nuevo laredo","ヌエボ・ラレド","нуэво-ларедо","누에보라레도","ნუევო-ლარედო","新拉雷多","novo laredo","نوئوو لاریدو"]},{"id":1856177,"name":"Nagasaki","names":{"en":"Nagasaki","pl":"Nagasaki","de":"Nagasaki","es":"Nagasaki","ar":"ناغاساكي","cs":"Nagasaki","fa":"ناگازاکی","fr":"Nagasaki","hi":"नागासाकी","id":"Nagasaki","it":"Nagasaki","ja":"長崎市","ko":"나가사키 시","nl":"Nagasaki","pt":"Nangasaque","ru":"Нагасаки","sv":"Nagasaki","ka":"ნაგასაკი","ro":"Nagasaki","vi":"Nagasaki"},"country":"JP","lat":32.75,"lon":129.88333,"pop":409118,"search_terms":["ناگازاکی","nagasaki","나가사키 시","nangasaque","нагасаки","ნაგასაკი","長崎","ناجازاكي","ナガサキ","nagasakishi","ながさき","ながさきし","長崎市","ナガサキシ","नागासाकी","nagasaki-shi","ناغاساكي"]},{"id":971421,"name":"Newcastle","names":{"en":"Newcastle"},"country":"ZA","lat":-27.75796,"lon":29.9318,"pop":404838,"search_terms":["newcastle"]},{"id":520494,"name":"Nizhny Tagil","names":{"en":"Nizhny Tagil","ru":"Нижний Тагил"},"country":"RU","lat":57.91944,"lon":59.965,"pop":381116,"search_terms":["нижний тагил","nizhny tagil"]},{"id":1856215,"name":"Nagano","names":{"en":"Nagano","ja":"長野","ru":"Нагано"},"country":"JP","lat":36.65,"lon":138.18333,"pop":372760,"search_terms":["ながの","長野","ナガノ","ナガノシ","長野市","ながのし","nagano","нагано"]},{"id":7483813,"name":"Natore","names":{"en":"Natore","bn":"Nātor","ru":"Натор"},"country":"BD","lat":24.41112,"lon":88.98673,"pop":369138,"search_terms":["natore","nātor","натор"]},{"id":1855612,"name":"Nara-shi","names":{"en":"Nara-shi","fr":"Nara","pl":"Nara","de":"Nara","es":"Nara","ar":"نارا","cs":"Nara","it":"Nara","ko":"나라 시","nl":"Nara","pt":"Nara","ru":"Нара","vi":"Nara","zh":"奈良市","sv":"Nara","uk":"Нара","ja":"奈良"},"country":"JP","lat":34.68505,"lon":135.80485,"pop":367353,"search_terms":["нара","나라 시","نارا","nara","奈良市","奈良","nara-shi"]},{"id":1169116,"name":"Nawabshah","names":{"en":"Nawabshah"},"country":"PK","lat":26.23939,"lon":68.40369,"pop":363138,"search_terms":["nawabshah"]},{"id":4335045,"name":"New Orleans","names":{"en":"New Orleans","de":"New Orleans","es":"Nueva Orleans","ar":"نيو أورلينز","id":"New Orleans","it":"New Orleans","ja":"ニューオーリンズ","ko":"뉴올리언스","nl":"New Orleans","pl":"Nowy Orlean","pt":"Nova Orleães","ru":"Новый Орлеан","sv":"New Orleans","ta":"நியூ ஓர்லென்ஸ்","vi":"New Orleans","cs":"New Orleans","ro":"New Orleans","ka":"ახალი ორლეანი","mr":"न्यू ऑर्लिन्स","fa":"نیواورلئان، لوئیزیانا","el":"Νέα Ορλεάνη","uk":"Новий Орлеан","bn":"নিউ অরলিন্স","hi":"न्यू ओर्लियंस","th":"นิวออร์ลีนส์","az":"Nyu-Orlean","hy":"Նոր Օռլեան","zh":"新奥尔良","tl":"Bagong Orleans","ky":"Жаңы орлеан"},"country":"US","lat":29.95465,"lon":-90.07507,"pop":362701,"search_terms":["nyu-orlean","new orleans louisiana","new orleans","bagong orleans","νέα ορλεάνη","নিউ অরলিন্স","nova orleães","ニューオーリンズ","новий орлеан","นิวออร์ลีนส์","न्यू ऑर्लिन्स","न्यू ओर्लियंस","நியூ ஓர்லென்ஸ்","نیواورلئان، لوئیزیانا","новый орлеан","新奥尔良","nowy orlean","نيو أورلينز","뉴올리언스","նոր օռլեան","nueva orleans","ახალი ორლეანი","жаңы орлеан"]},{"id":1799823,"name":"Nanqiao","names":{"en":"Nanqiao"},"country":"CN","lat":30.91611,"lon":121.44944,"pop":361185,"search_terms":["nanqiao"]},{"id":3673899,"name":"Neiva","names":{"en":"Neiva","ru":"Нейва"},"country":"CO","lat":2.93001,"lon":-75.27973,"pop":357392,"search_terms":["neiva","нейва"]},{"id":8715035,"name":"Nakano","names":{"en":"Nakano","ja":"中野","ar":"ناكانو","fa":"ناکانو، توکیو","ka":"ნაკანო","ko":"나카노 구","th":"นะกะโนะ","uk":"Район Накано","ur":"ناکانو، ٹوکیو","ru":"Накано","zh":"中野區"},"country":"JP","lat":35.70449,"lon":139.66946,"pop":344880,"search_terms":["накано","なかの","中野區","中野","ناكانو","ナカノ","นะกะโนะ","район накано","中野区","nakano city","ناکانو، ٹوکیو","ნაკანო","ناکانو، توکیو","나카노 구","nakano"]},{"id":2990440,"name":"Nice","names":{"en":"Nice","de":"Nizza","es":"Niza","ar":"نيس","fr":"Nice","id":"Nice","it":"Nizza","ja":"ニース","nl":"Nice","pl":"Nicea","pt":"Nice","ro":"Nisa","ru":"Ницца","sv":"Nice","zh":"尼斯","hi":"नीस","ka":"ნიცა","fa":"نیس","hy":"Նիցցա","bn":"নিস","th":"นิส","az":"Nis","te":"నీస్","ta":"நீஸ்","kk":"Ницца","mr":"नीस","ko":"니스","el":"Νίκαια","uk":"Ніцца","ky":"Ницца","ur":"نیس"},"country":"FR","lat":43.70313,"lon":7.26608,"pop":342669,"search_terms":["ніцца","nizza","nisa","niza","नीस","ニース","尼斯","நீஸ்","ნიცა","نیس","նիցցա","نيس","nicea","নিস","నీస్","니스","nis","นิส","ницца","νίκαια","nice","նիս"]},{"id":601294,"name":"Nukus","names":{"en":"Nukus","fr":"Noukous","de":"Nukus","pl":"Nukus","fa":"نوکاث","it":"Nukus","ja":"ヌクス","ko":"누쿠스","nl":"Nukus","ru":"Нукус","sv":"Nukus","tr":"Nukus","es":"Nukus","kk":"Нүкіс","ky":"Нукус","uk":"Нукус","zh":"努库斯","ar":"نوكاث","hy":"Նուկուս","tg":"Нукус","th":"นูกุส","tk":"Nökis","ur":"نوکاث"},"country":"UZ","lat":42.45861,"lon":59.60576,"pop":332500,"search_terms":["نوکاث","努库斯","نوكاث","нукус","ヌクス","նուկուս","누쿠스","нүкіс","noukous","นูกุส","nukus","nökis"]},{"id":2990969,"name":"Nantes","names":{"en":"Nantes","de":"Nantes","es":"Nantes","ar":"نانت","fr":"Nantes","id":"Nantes","it":"Nantes","ja":"ナント","nl":"Nantes","pl":"Nantes","ro":"Nantes","sv":"Nantes","zh":"南特","pt":"Nantes","ru":"Нант","hi":"नांत","tr":"Nantes","el":"Νάντη"},"country":"FR","lat":47.21725,"lon":-1.55336,"pop":325070,"search_terms":["νάντη","نانت","南特","ナント","नांत","нант","nantes"]},{"id":2641170,"name":"Nottingham","names":{"en":"Nottingham","de":"Nottingham","es":"Nottingham","ar":"نوتنغهام","fr":"Nottingham","id":"Nottingham","it":"Nottingham","nl":"Nottingham","pl":"Nottingham","pt":"Nottingham","ru":"Ноттингем","sv":"Nottingham","tr":"Nottingham","zh":"诺丁汉","ja":"ノッティンガム","cs":"Nottingham","ro":"Nottingham","tg":"Ноттингҳам"},"country":"GB","lat":52.9536,"lon":-1.15047,"pop":323632,"search_terms":["ノッティンガム","ноттингем","ноттингҳам","諾定咸","nottingham","نوتنغهام","诺丁汉"]},{"id":1261481,"name":"New Delhi","names":{"en":"New Delhi","de":"Neu-Delhi","es":"Nueva Delhi","ar":"دلهي الجديدة","bn":"নয়া দিল্লী","fr":"New Delhi","id":"New Delhi","it":"Nuova Delhi","ko":"뉴델리","ro":"Нев Дели","nl":"New Delhi","pl":"New Delhi","pt":"Nova Deli","ru":"Нью-Дели","sv":"New Delhi","ta":"புது தில்லி","tr":"Yeni Delhi","ja":"ニューデリー","th":"นิวเดลี","el":"Νέο Δελχί","am":"ኒው ዴሊ","hy":"Նյու Դելի","cs":"Nové Dillí","ka":"ნიუ-დელი","sw":"New Delhi","vi":"New Delhi","hi":"नई दिल्ली","zh":"新德里"},"country":"IN","lat":28.62137,"lon":77.2148,"pop":317797,"search_terms":["yeni delhi","นิวเดลี","new delhi","新德里","nuova delhi","புது தில்லி","nueva delhi","neu-delhi","دلهي الجديدة","نيودلهي","nové dillí","ニューデリー","нью-дели","ნიუ-დელი","নয়া দিল্লী","뉴델리","नई दिल्ली","նյու դելի","νέο δελχί","ኒው ዴሊ","нев дели","nova deli"]},{"id":1856035,"name":"Naha","names":{"en":"Naha","fr":"Naha","es":"Naha","de":"Naha","pl":"Naha","cs":"Naha","id":"Naha","it":"Naha","ja":"那覇市","ko":"나하 시","nl":"Naha","pt":"Naha","sv":"Naha","zh":"那霸市","ru":"Наха"},"country":"JP","lat":26.213,"lon":127.67851,"pop":317625,"search_terms":["나하 시","наха","なはし","なは","那覇市","naha","ナハ","那霸市","那覇","ナハシ"]},{"id":7799991,"name":"New Cairo","names":{"en":"New Cairo","ar":"القاهرة الجديدة"},"country":"EG","lat":30.03,"lon":31.47,"pop":313139,"search_terms":["new cairo","القاهرة الجديدة"]},{"id":1261258,"name":"Nizamabad","names":{"en":"Nizamabad","te":"నిజామాబాద్"},"country":"IN","lat":18.67154,"lon":78.0988,"pop":311152,"search_terms":["nizamabad","నిజామాబాద్"]},{"id":1572532,"name":"Nghi Son","names":{"en":"Nghi Son"},"country":"VN","lat":19.32746,"lon":105.82145,"pop":302210,"search_terms":["nghi son"]},{"id":2641673,"name":"Newcastle upon Tyne","names":{"en":"Newcastle upon Tyne","de":"Newcastle upon Tyne","es":"Newcastle-upon-Tyne","ar":"نيوكاسل أبون تاين","fa":"نیوکاسل","fr":"Newcastle-upon-Tyne","id":"Newcastle upon Tyne","it":"Newcastle upon Tyne","ja":"ニューカッスル・アポン・タイン","nl":"Newcastle upon Tyne","pl":"Newcastle upon Tyne","pt":"Newcastle upon Tyne","sv":"Newcastle-upon-Tyne","ru":"Ньюкасл","tr":"Newcastle upon Tyne","cs":"Newcastle","ro":"Newcastle-upon-Tyne","vi":"Newcastle trên sông Tyne","az":"Nyukasl apon Tayn","th":"นิวคาสเซิลอะพอนไทน์","el":"Νιούκασλ","bn":"নিউক্যাসল আপন ট্যাইন","mr":"न्यूकॅसल अपॉन टाईन","ko":"뉴캐슬어폰타인","ka":"ნიუკასლ-აპონ-ტაინი","uk":"Ньюкасл-апон-Тайн","zh":"泰恩河畔纽卡斯尔"},"country":"GB","lat":54.97328,"lon":-1.61396,"pop":300125,"search_terms":["νιούκασλ","newcastle trên sông tyne","newcastle upon tyne","न्यूकॅसल अपॉन टाईन","newcastle","뉴캐슬어폰타인","ნიუკასლ-აპონ-ტაინი","泰恩河畔纽卡斯尔","ньюкасл","ニューカッスル・アポン・タイン","nyukasl apon tayn","নিউক্যাসল আপন ট্যাইন","نيوكاسل أبون تاين","ньюкасл-апон-тайн","นิวคาสเซิลอะพอนไทน์","نیوکاسل","newcastle-upon-tyne","newcastle-on-tyne"]},{"id":7279746,"name":"Noida","names":{"en":"Noida","fa":"نویدا","ta":"நொய்டா","hi":"नोएडा","uk":"Нойда","te":"నోయిడా","mr":"नोएडा","ru":"Ноида","zh":"诺伊达","ps":"نويډا","ur":"نوئیڈا"},"country":"IN","lat":28.58,"lon":77.33,"pop":293908,"search_terms":["诺伊达","نويډا","ноида","నోయిడా","نویدا","noida","நொய்டா","نوئیڈا","нойда","नोएडा"]},{"id":5101798,"name":"Newark","names":{"en":"Newark","es":"Newark","pl":"Newark","fr":"Newark","de":"Newark","id":"Newark","it":"Newark","ja":"ニューアーク","ka":"ნიუარკი","nl":"Newark","pt":"Newark","ru":"Ньюарк","sv":"Newark","ta":"நுவார்க்","te":"నెవార్క్","uk":"Ньюарк","mr":"न्यूअर्क","hi":"न्यूर्क","ko":"뉴어크","el":"Νιούαρκ","fa":"نیوآرک، نیوجرسی","ar":"نيوآرك","th":"นวร์ก","kk":"Ньюарк","zh":"紐華克","hy":"Նյուարկ","ur":"نیوآرک، نیو جرسی"},"country":"US","lat":40.73566,"lon":-74.17237,"pop":281944,"search_terms":["ニューアーク","紐華克","newark","न्यूअर्क","نیوآرک، نیوجرسی","நுவார்க்","նյուարկ","νιούαρκ","ნიუარკი","न्यूर्क","뉴어크","نیوآرک، نیو جرسی","ньюарк","นวร์ก","نيوآرك","నెవార్క్"]},{"id":3522732,"name":"Nicolas Romero","names":{"en":"Nicolas Romero","fa":"نیکولاس رومرو، مکزیکو","zh":"尼古拉斯羅梅羅"},"country":"MX","lat":19.64177,"lon":-99.3068,"pop":281799,"search_terms":["نیکولاس رومرو، مکزیکو","ciudad nicolás romero","nicolas romero","尼古拉斯羅梅羅"]},{"id":1185117,"name":"Narsingdi","names":{"en":"Narsingdi"},"country":"BD","lat":23.92298,"lon":90.71768,"pop":281080,"search_terms":["narsingdi"]},{"id":1671467,"name":"Neihu","names":{"en":"Neihu","zh":"內湖","fr":"District de Neihu","it":"Distretto di Neihu","id":"Distrik Neihu","ja":"内湖区","ko":"네이후 구","vi":"Nội Hồ","ru":"Нэйху"},"country":"TW","lat":25.0815,"lon":121.58809,"pop":274538,"search_terms":["內湖區","district de neihu","内湖区","neihu district","內湖","neihu","네이후 구","nội hồ","нэйху","distretto di neihu","distrik neihu"]},{"id":1193745,"name":"Nagar Naluakot","names":{"en":"Nagar Naluakot","bn":"সুটরিয়া"},"country":"BD","lat":24.15608,"lon":90.7728,"pop":273000,"search_terms":["nogor noluakot","nagar naluakot","সুটরিয়া","নগর নলুয়াকোট"]},{"id":1856199,"name":"Nagaoka","names":{"en":"Nagaoka","ru":"Нагаока","ar":"ناغاوكا","fa":"ناگائوکا، نیگاتا","ja":"長岡市","ko":"나가오카 시","tg":"Нагаока","th":"นะงะโอะกะ","uk":"Наґаока","zh":"長岡市","ka":"ნაგაოკა","ur":"ناگاوکا، نیگاتا"},"country":"JP","lat":37.45,"lon":138.85,"pop":266936,"search_terms":["ნაგაოკა","ناغاوكا","наґаока","나가오카 시","ناگاوکا، نیگاتا","нагаока","長岡","นะงะโอะกะ","ناگائوکا، نیگاتا","nagaoka","長岡市"]},{"id":4004886,"name":"Nogales","names":{"en":"Nogales","de":"Nogales","es":"Nogales","fa":"نوگالس، سونورا","ru":"Ногалес","zh":"諾加萊斯","ur":"نوگالیس، سونورا"},"country":"MX","lat":31.30862,"lon":-110.94217,"pop":264782,"search_terms":["nogales","نوگالس، سونورا","los nogales","نوگالیس، سونورا","ногалес","heroica nogales","諾加萊斯"]},{"id":1799471,"name":"Nianbo","names":{"en":"Nianbo"},"country":"CN","lat":36.48,"lon":102.41639,"pop":260184,"search_terms":["haidong","nianbo"]},{"id":2185964,"name":"North Shore","names":{"en":"North Shore","de":"North Shore","el":"Βόρεια Ακτή","zh":"北岸市","ru":"Норт-Шор"},"country":"NZ","lat":-36.8,"lon":174.75,"pop":258697,"search_terms":["норт-шор","north shore","βόρεια ακτή","北岸市"]},{"id":1800234,"name":"Nada","names":{"en":"Nada"},"country":"CN","lat":19.52134,"lon":109.57895,"pop":256652,"search_terms":["nada","danzhou"]},{"id":3878431,"name":"Nunoa","names":{"en":"Nunoa","ru":"Нуньоа","ko":"뉴뇨아","zh":"紐尼奧阿"},"country":"CL","lat":-33.44735,"lon":-70.58279,"pop":255823,"search_terms":["nunoa","뉴뇨아","紐尼奧阿","нуньоа"]},{"id":3456068,"name":"Novo Hamburgo","names":{"en":"Novo Hamburgo","es":"Novo Hamburgo","de":"Novo Hamburgo","id":"Novo Hamburgo","pt":"Novo Hamburgo","sv":"Novo Hamburgo","ja":"ノヴォ・アンブルゴ","kk":"Нову-Амбургу","ko":"노부암부르구","th":"โนวูอัมบูร์กู","ru":"Нову-Амбургу","zh":"新漢堡"},"country":"BR","lat":-29.67833,"lon":-51.13056,"pop":253841,"search_terms":["ノヴォ・アンブルゴ","新漢堡","novo hamburgo","нову-амбургу","โนวูอัมบูร์กู","노부암부르구"]},{"id":1262131,"name":"Naihati","names":{"en":"Naihati"},"country":"IN","lat":22.89396,"lon":88.41521,"pop":253221,"search_terms":["naihati"]},{"id":787657,"name":"Nis","names":{"en":"Nis","es":"Niš","de":"Niš","fr":"Niš","it":"Niš","nl":"Niš","pl":"Nisz","ru":"Ниш","sv":"Niš"},"country":"RS","lat":43.32472,"lon":21.90333,"pop":250000,"search_terms":["nisz","nis","niš","ниш"]},{"id":1697846,"name":"Navotas","names":{"en":"Navotas"},"country":"PH","lat":14.66667,"lon":120.95,"pop":249463,"search_terms":["navotas"]},{"id":2641430,"name":"Northampton","names":{"en":"Northampton","de":"Northampton","es":"Northampton","fr":"Northampton","nl":"Northampton","sv":"Northampton","ru":"Нортгемптон","id":"Northampton","it":"Northampton","az":"Norsempton","ja":"ノーザンプトン","uk":"Нортгемптон","fa":"نورث‌همپتون","el":"Νορθάμπτον","ko":"노샘프턴","zh":"北安普顿","ar":"نورثامبتون","hy":"Նորթհեմփթոն","ur":"نارتھیمپٹن"},"country":"GB","lat":52.25,"lon":-0.88333,"pop":245899,"search_terms":["norsempton","նորթհեմփթոն","北安普顿","northampton","ノーザンプトン","нортгемптон","نورثامبتون","νορθάμπτον","نورث‌همپتون","نارتھیمپٹن","노샘프턴"]},{"id":1497543,"name":"Nizhnevartovsk","names":{"en":"Nizhnevartovsk","de":"Nischnewartowsk","ja":"ニジネヴァルトフスク","ko":"니즈네바르톱스크","pl":"Niżniewartowsk","nl":"Nizjnevartovsk","ru":"Нижневартовск","es":"Nizhnevártovsk","fr":"Nijnevartovsk","it":"Nižnevartovsk","az":"Nijnevartovsk","uk":"Нижньовартовськ","ar":"نيجنفارتوفسك","fa":"نیژنوارتوفسک","tt":"Түбән Варта","ro":"Nijnevartovsk","sv":"Nizjnevartovsk","zh":"下瓦爾托夫斯克","tr":"Nijnevartovsk"},"country":"RU","lat":60.9344,"lon":76.5531,"pop":244937,"search_terms":["nizhnevartovsk","nijnevartovsk","نیژنوارتوفسک","ニジネヴァルトフスク","nischnewartowsk","нижневартовск","nizhnevártovsk","下瓦爾托夫斯克","nižnevartovsk","니즈네바르톱스크","niżniewartowsk","нижньовартовськ","نيجنفارتوفسك","түбән варта","nizjnevartovsk"]},{"id":518255,"name":"Novorossiysk","names":{"en":"Novorossiysk","de":"Noworossijsk","es":"Novorossiysk","el":"Νοβορωσίσκ","ko":"노보로시스크","pl":"Noworosyjsk","nl":"Novorossiejsk","it":"Novorossijsk","ru":"Новороссийск"},"country":"RU","lat":44.73188,"lon":37.76176,"pop":241856,"search_terms":["novorossiysk","novorossiejsk","noworosyjsk","noworossijsk","νοβορωσίσκ","노보로시스크","novorossijsk","новороссийск"]},{"id":1035025,"name":"Nacala","names":{"en":"Nacala","ru":"Город-де-Накала"},"country":"MZ","lat":-14.56257,"lon":40.68538,"pop":239808,"search_terms":["nacala-porto","nacala","cidade de nacala","город-де-накала"]},{"id":523523,"name":"Nalchik","names":{"en":"Nalchik","ru":"Нальчик","de":"Naltschik"},"country":"RU","lat":43.49806,"lon":43.61889,"pop":239300,"search_terms":["naltschik","нальчик","nalchik","nal'chik"]},{"id":6697563,"name":"Neyagawa","names":{"en":"Neyagawa","ja":"寝屋川市"},"country":"JP","lat":34.76615,"lon":135.62759,"pop":238549,"search_terms":["寝屋川市","寝屋川","neyagawa"]},{"id":1185159,"name":"Nagarpur","names":{"en":"Nagarpur"},"country":"BD","lat":24.05783,"lon":89.87696,"pop":238422,"search_terms":["nagarpur"]},{"id":2224827,"name":"Ngaoundere","names":{"en":"Ngaoundere","fr":"Ngaoundéré","ja":"ヌガウンデレ","ko":"응가운데레","ru":"Нгаундере","zh":"恩冈代雷","kk":"Нгаундере","ur":"نگاؤندیرے"},"country":"CM","lat":7.32765,"lon":13.58472,"pop":238196,"search_terms":["응가운데레","恩冈代雷","нгаундере","ヌガウンデレ","ngaoundéré","نگاؤندیرے","ngaoundere"]},{"id":4776222,"name":"Norfolk","names":{"en":"Norfolk","pl":"Norfolk","de":"Norfolk","ja":"ノーフォーク","nl":"Norfolk","pt":"Norfolk","sv":"Norfolk","fr":"Norfolk","ru":"Норфолк","uk":"Норфолк","ko":"노퍽","fa":"نورفوک، ویرجینیا","ar":"نورفولك","zh":"諾福克","ka":"ნორფოლკი","ur":"نارفوک، ورجینیا"},"country":"US","lat":36.84681,"lon":-76.28522,"pop":238005,"search_terms":["نورفوک، ویرجینیا","نورفولك","ノーフォーク","노퍽","ნორფოლკი","норфолк","諾福克","norfolk","نارفوک، ورجینیا"]},{"id":418606,"name":"Najafabad","names":{"en":"Najafabad","ru":"Наджафабад","fa":"نجف آباد"},"country":"IR","lat":32.63464,"lon":51.36525,"pop":235281,"search_terms":["نجف آباد","наджафабад","najafabad"]},{"id":5509403,"name":"North Las Vegas","names":{"en":"North Las Vegas","fr":"North Las Vegas","nl":"North Las Vegas","pt":"North Las Vegas","de":"North Las Vegas","sv":"North Las Vegas","ar":"نورث لاس فيغاس","ja":"ノースラスベガス","ko":"노스라스베이거스","vi":"Bắc Las Vegas","ru":"Норт-Лас-Вегас","zh":"北拉斯維加斯","fa":"لاس وگاس شمالی، نوادا","uk":"Норт-Лас-Вегас","ur":"نارتھ لاس ویگاس، نیواڈا"},"country":"US","lat":36.19886,"lon":-115.1175,"pop":234807,"search_terms":["ノースラスベガス","لاس وگاس شمالی، نوادا","bắc las vegas","نارتھ لاس ویگاس، نیواڈا","北拉斯維加斯","норт-лас-вегас","노스라스베이거스","north las vegas","نورث لاس فيغاس"]},{"id":521118,"name":"Nizhnekamsk","names":{"en":"Nizhnekamsk","de":"Nischnekamsk","ko":"니즈네캄스크","pl":"Niżniekamsk","nl":"Nizjnekamsk","ru":"Нижнекамск","fr":"Nijnekamsk","it":"Nižnekamsk","cs":"Nižněkamsk","az":"Nijnekamsk","uk":"Нижньокамськ","tr":"Tübenkama","ja":"ニジネカムスク","ar":"نيجنكامسك","ro":"Nijnekamsk","tt":"Түбән Кама","fa":"نیژنکامسک","sv":"Nizjnekamsk","zh":"下卡姆斯克"},"country":"RU","lat":55.63794,"lon":51.81502,"pop":234297,"search_terms":["tübən kama","nižnekamsk","түбән кама","nizhnekamsk","نيجنكامسك","ニジネカムスク","нижньокамськ","niżniekamsk","нижнекамск","نیژنکامسک","nižněkamsk","니즈네캄스크","nischnekamsk","下卡姆斯克","nizjnekamsk","nijnekamsk","tübenkama"]},{"id":3843123,"name":"Neuquen","names":{"en":"Neuquen","es":"Ciudad de Neuquén","pl":"Neuquén","fr":"Neuquén","id":"Neuquén","nl":"Neuquén","pt":"Neuquén","ru":"Неукен","fa":"نئوکن","ka":"ნეუკენი","ja":"ネウケン","uk":"Неукен","zh":"内乌肯","ko":"네우켄","ar":"نيوكوين","hi":"न्यूक्वीन","hy":"Նեուկեն","ur":"نیوکوین"},"country":"AR","lat":-38.95078,"lon":-68.0592,"pop":231198,"search_terms":["ნეუკენი","ciudad de neuquén","неукен","نیوکوین","neuquén","نئوکن","内乌肯","네우켄","نيوكوين","न्यूक्वीन","ネウケン","նեուկեն","neuquen"]},{"id":1571951,"name":"Ninh Hoa","names":{"en":"Ninh Hoa"},"country":"VN","lat":12.49187,"lon":109.12495,"pop":230566,"search_terms":["ninh hoa"]},{"id":294071,"name":"Netanya","names":{"en":"Netanya","de":"Netanja","es":"Netanya","cs":"Netanja","fr":"Netanya","nl":"Netanya","pl":"Netanja","ru":"Нетания","sv":"Netanya","tl":"Ntanya","ro":"Netania","fa":"نتانیا","ko":"네타냐","el":"Νετάνια","ja":"ネタニヤ","ar":"نتانيا","uk":"Нетанья","zh":"内坦亚","ta":"நத்தானியா","th":"นาตาเนีย","ur":"نتانیا","hi":"नेतान्या","pt":"Netanya","hy":"Նեթանյա","id":"Netanya","mr":"नेटानिया","ms":"Netanya","it":"Netanya","vi":"Netanya","az":"Netanya","bn":"নেতানিয়া","ka":"ნათანია","sw":"Netanya","te":"నతన్య","tr":"Netanya"},"country":"IL","lat":32.33291,"lon":34.85992,"pop":228204,"search_terms":["ნათანია","нетанья","নেতানিয়া","netanya","نتانیا","நத்தானியா","नेतान्या","नेटानिया","네타냐","նեթանյա","ntanya","نتانيا","ネタニヤ","నతన్య","нетания","内坦亚","νετάνια","netanja","netania","นาตาเนีย"]},{"id":3571824,"name":"Nassau","names":{"en":"Nassau","de":"Nassau","es":"Nasáu","fr":"Nassau","id":"Nassau","it":"Nassau","ja":"ナッソー","ko":"나사우","nl":"Nassau","pl":"Nassau","pt":"Nassau","ro":"Nassau","sv":"Nassau","ru":"Нассау","el":"Νασσάου","am":"ናሶ","ka":"ნასაუ","fa":"ناسائو","uk":"Нассау","ur":"نساؤ","hy":"Նասաու","ar":"ناساو","th":"แนสซอ","mr":"नासाउ","zh":"拿骚","bn":"নাসাউ","ky":"Нассау","ta":"நேசோ"},"country":"BS","lat":25.05823,"lon":-77.34306,"pop":227940,"search_terms":["нассау","ナッソー","แนสซอ","νασσάου","nasáu","ناسائو","நேசோ","나사우","拿骚","나소","nassau","ናሶ","ნასაუ","নাসাউ","ناساو","नासाउ","նասաու","نساؤ"]},{"id":2864072,"name":"Neue Neustadt","names":{"en":"Neue Neustadt","de":"Neue Neustadt","ru":"Нойштадт"},"country":"DE","lat":52.15,"lon":11.63333,"pop":226851,"search_terms":["нойштадт","neue neustadt"]},{"id":2416969,"name":"Nzerekore","names":{"en":"Nzerekore","de":"Nzérékoré","fr":"Nzérékoré","ru":"Нзерекоре","hy":"Նզերեկորե","ja":"ンゼレコレ","ko":"은제레코레","uk":"Нзерекоре","ur":"نزیریکورے"},"country":"GN","lat":7.75624,"lon":-8.8179,"pop":226426,"search_terms":["은제레코레","нзерекоре","նզերեկորե","nzerekore","نزیریکورے","ンゼレコレ","nzérékoré"]},{"id":1262292,"name":"Nadiad","names":{"en":"Nadiad"},"country":"IN","lat":22.69385,"lon":72.86157,"pop":225071,"search_terms":["nadiad"]},{"id":1262204,"name":"Nagercoil","names":{"en":"Nagercoil","ro":"Nagercoil","sv":"Nagercoil","pl":"Nagarkoil","de":"Nagarkovil","id":"Nagercoil","pt":"Nagercoil","ta":"நாகர்கோவில்"},"country":"IN","lat":8.17899,"lon":77.43227,"pop":224849,"search_terms":["நாகர்கோவில்","nagarkovil","nagercoil","nagarkoil"]},{"id":1185155,"name":"Narayanganj","names":{"en":"Narayanganj"},"country":"BD","lat":23.61352,"lon":90.50298,"pop":223622,"search_terms":["narayanganj"]},{"id":1680116,"name":"NIA Valencia","names":{"en":"NIA Valencia","ru":"Валенсия","de":"Valencia City","id":"Kota Valencia","ko":"발렌시아","zh":"巴伦西亚城","tl":"Lungsod ng Valencia"},"country":"PH","lat":7.90639,"lon":125.09417,"pop":223620,"search_terms":["lungsod ng valencia","nia valencia","발렌시아","valencia city","巴伦西亚城","kota valencia","валенсия"]},{"id":122285,"name":"Neyshabur","names":{"en":"Neyshabur","fr":"Nichapur","es":"Nishapur","de":"Nischapur","ar":"نيسابور","it":"Nishapur","ja":"ニシャプー","nl":"Neyshabur","ru":"Нишапур","tg":"Нишопур","tk":"Nişabur","ur":"نیشاپور","fa":"نیشابور"},"country":"IR","lat":36.21329,"lon":58.79575,"pop":220929,"search_terms":["nichapur","нишапур","نیشاپور","nishapur","нишопур","nischapur","neyshabur","نیشابور","nişabur","نيسابور","ニシャプー"]},{"id":3194360,"name":"Novi Sad","names":{"en":"Novi Sad","de":"Novi Sad","es":"Novi Sad","fr":"Novi Sad","it":"Novi Sad","nl":"Novi Sad","pl":"Nowy Sad","ro":"Novi Sad","ru":"Нови-Сад","sv":"Novi Sad","cs":"Novi Sad","ar":"نوفي ساد","uk":"Новий Сад","ku":"Novî Sad","fa":"نووی ساد","mr":"नोव्ही साद","ko":"노비사드","el":"Νόβι Σαντ","ja":"ノヴィ・サド","th":"นอวีซาด","zh":"诺威萨","ur":"نووی ساد","hy":"Նովի Սադ","ka":"ნოვი-სადი","tt":"Нови-Сад"},"country":"RS","lat":45.25167,"lon":19.83694,"pop":215400,"search_terms":["नोव्ही साद","nowy sad","นอวีซาด","诺威萨","노비사드","novî sad","новий сад","νόβι σαντ","նովի սադ","نووی ساد","ノヴィ・サド","ნოვი-სადი","novi sad","نوفي ساد","нови-сад"]},{"id":122438,"name":"Nazarabad","names":{"en":"Nazarabad","fa":"نظر آباد","sv":"Nazarabad"},"country":"IR","lat":35.95411,"lon":50.60607,"pop":213388,"search_terms":["نَظَرابادِ بُزُرگ","nazarabad","نظر آباد"]},{"id":1261927,"name":"Nandyal","names":{"en":"Nandyal"},"country":"IN","lat":15.47799,"lon":78.4836,"pop":211424,"search_terms":["nandyal"]},{"id":1850692,"name":"Nishi-Tokyo-shi","names":{"en":"Nishi-Tokyo-shi","ja":"西東京市"},"country":"JP","lat":35.72526,"lon":139.5383,"pop":207388,"search_terms":["田無市","西東京市","nishi-tokyo-shi","西東京","保谷市"]},{"id":1261913,"name":"Nangloi Jat","names":{"en":"Nangloi Jat"},"country":"IN","lat":28.67957,"lon":77.06799,"pop":205596,"search_terms":["nangloi jat"]},{"id":8544703,"name":"Nanchuan","names":{"en":"Nanchuan","zh":"东城"},"country":"CN","lat":29.15201,"lon":107.10335,"pop":204775,"search_terms":["东城","nanchuan","南川区"]},{"id":146268,"name":"Nicosia","names":{"en":"Nicosia","el":"Λευκωσία","de":"Nikosia","es":"Nicosia","ar":"نيقوسيا","fr":"Nicosie","id":"Nikosia","it":"Nicosia","ja":"ニコシア","ko":"니코시아","nl":"Nicosia","pl":"Nikozja","pt":"Nicósia","ro":"Nicosia","ru":"Никосия","sv":"Nicosia","tr":"Lefkoşa","hy":"Նիկոսիա","tg":"Никосия","am":"ሌፍኮዚያ","cs":"Nikósie","hi":"निकोसिया","th":"นิโคเซีย","mr":"निकोसिया","ta":"நிக்கோசியா","sw":"Nikosia","fa":"نیکوزیا","ur":"نیکوسیا","ka":"ნიქოზია","uk":"Нікосія","bn":"নিকোসিয়া","tt":"Никосия","az":"Nikosiya","kk":"Никосия","ky":"Лефкоша","zh":"尼科西亚","uz":"Nikosiya"},"country":"CY","lat":35.17284,"lon":33.35397,"pop":200452,"search_terms":["நிக்கோசியா","nikosia","нікосія","nicosia","лефкоша","নিকোসিয়া","nikozja","nicósia","lefkoşa","نيقوسيا","nicosia (lefkosia)","նիկոսիա","ნიქოზია","λευκωσία","lefkosía","니코시아","nikósie","nikosiya","นิโคเซีย","尼科西亚","никосия","nicosie","ニコシア","نیکوزیا","نیکوسیا","निकोसिया","ሌፍኮዚያ"]},{"id":6672634,"name":"Nasim Shahr","names":{"en":"Nasim Shahr","fa":"اکبر آباد"},"country":"IR","lat":35.56504,"lon":51.16332,"pop":200393,"search_terms":["اکبر آباد","nasim shahr","نسيم شهر"]},{"id":13405749,"name":"Nasimshahr","names":{"en":"Nasimshahr"},"country":"IR","lat":35.56528,"lon":51.1583,"pop":200393,"search_terms":["nasimshahr"]},{"id":1856184,"name":"Nagareyama","names":{"en":"Nagareyama","fr":"Nagareyama","nl":"Nagareyama","pt":"Nagareyama","ja":"流山","ar":"ناغاره ياما","fa":"ناگاریاما، چیبا","ko":"나가레야마 시","tg":"Нагареяма","th":"นะงะเระยะมะ","uk":"Наґареяма","ur":"ناگارییاما، چیبا","ru":"Нагареяма","zh":"流山市"},"country":"JP","lat":35.8563,"lon":139.90266,"pop":200136,"search_terms":["นะงะเระยะมะ","наґареяма","nagareyama","ناغاره ياما","流山市","流山","ناگاریاما، چیبا","нагареяма","ناگارییاما، چیبا","나가레야마 시"]},{"id":13512708,"name":"Nyingchi","names":{"en":"Nyingchi"},"country":"CN","lat":29.64885,"lon":94.35509,"pop":200000,"search_terms":["nyingchi"]},{"id":184707,"name":"Naivasha","names":{"en":"Naivasha","ru":"Найваша","fa":"نایواشا، کنیا","ka":"ნაივაშა","zh":"奈瓦沙","de":"Naivasha","pt":"Naivasha","fr":"Naivasha","uk":"Найваша","id":"Naivasha","ur":"نایواشا","sv":"Naivasha","sw":"Naivasha","it":"Naivasha","es":"Naivasha","cs":"Naivasha","ar":"نايفاشا","vi":"Naivasha","ja":"ナイバシャ","pl":"Naivasha","ro":"Naivasha","nl":"Naivasha"},"country":"KE","lat":-0.71383,"lon":36.43261,"pop":198444,"search_terms":["ნაივაშა","ナイバシャ","نايفاشا","奈瓦沙","نایواشا","naivasha","نایواشا، کنیا","найваша"]},{"id":2328765,"name":"Nnewi","names":{"en":"Nnewi","pl":"Nnewi","ru":"Ннюви"},"country":"NG","lat":6.01962,"lon":6.91729,"pop":193987,"search_terms":["nnewi","ннюви"]},{"id":3456223,"name":"Nossa Senhora do Socorro","names":{"en":"Nossa Senhora do Socorro"},"country":"BR","lat":-10.855,"lon":-37.12611,"pop":192330,"search_terms":["nossa senhora do socorro"]},{"id":3456166,"name":"Nova Friburgo","names":{"en":"Nova Friburgo","de":"Nova Friburgo","pl":"Nova Friburgo","fr":"Nova Friburgo","pt":"Nova Friburgo","sv":"Nova Friburgo","es":"Nueva Friburgo","kk":"Нова-Фрибургу","ru":"Нова-Фрибургу","zh":"新弗里堡"},"country":"BR","lat":-22.28194,"lon":-42.53111,"pop":191158,"search_terms":["新弗里堡","нова-фрибургу","nueva friburgo","nova friburgo"]},{"id":1854902,"name":"Numazu","names":{"en":"Numazu","pl":"Numazu","fr":"Numazu","de":"Numazu","ja":"沼津市","pt":"Numazu","zh":"沼津市","ar":"نامازو","fa":"نومازو، شیزوئوکا","ko":"누마즈 시","tg":"Нумазу","th":"นุมะซุ","tl":"Numasu","uk":"Нумадзу","ru":"Нумадзу","ur":"نومازو، شیزوکا"},"country":"JP","lat":35.1,"lon":138.86667,"pop":189486,"search_terms":["누마즈 시","沼津市","numasu","نامازو","นุมะซุ","нумадзу","沼津","numazu","нумазу","نومازو، شیزوئوکا","نومازو، شیزوکا"]},{"id":4776024,"name":"Newport News","names":{"en":"Newport News","ru":"Ньюпорт-Ньюс"},"country":"US","lat":36.98038,"lon":-76.42975,"pop":186247,"search_terms":["newport news","ньюпорт-ньюс"]},{"id":6087029,"name":"Nepean","names":{"en":"Nepean","ru":"Непин","fr":"Nepean"},"country":"CA","lat":45.33619,"lon":-75.7225,"pop":180000,"search_terms":["непин","nepean"]},{"id":1261473,"name":"Neyveli","names":{"en":"Neyveli","ta":"நெய்வேலி","te":"నైవేలి","ur":"نیوالی","zh":"内伊韦利"},"country":"IN","lat":11.60877,"lon":79.4994,"pop":179150,"search_terms":["நெய்வேலி","నైవేలి","نیوالی","内伊韦利","neyveli"]},{"id":227812,"name":"Njeru","names":{"en":"Njeru"},"country":"UG","lat":0.44166,"lon":33.17917,"pop":178800,"search_terms":["njeru"]},{"id":2750053,"name":"Nijmegen","names":{"en":"Nijmegen","de":"Nimwegen","es":"Nimega","cs":"Nijmegen","fr":"Nimègue","it":"Nimega","nl":"Nijmegen","pl":"Nijmegen","pt":"Nimegue","ro":"Nijmegen","sv":"Nijmegen","ja":"ナイメーヘン","id":"Nijmegen","uk":"Неймеген","ko":"네이메헌","hy":"Նեյմեյխեն","fa":"نیمیخن","el":"Ναϊμέχεν","ka":"ნეიმეგენი","am":"ኔመሕን","th":"เนเมเกน","ar":"نايميخن","ru":"Неймеген","zh":"奈梅亨"},"country":"NL","lat":51.8425,"lon":5.85278,"pop":177359,"search_terms":["네이메헌","ኔመሕን","nimègue","nimega","nimegue","nimwegen","неймеген","奈梅亨","เนเมเกน","ナイメーヘン","ნეიმეგენი","نايميخن","նեյմեյխեն","نیمیخن","nijmegen","ναϊμέχεν"]},{"id":2541479,"name":"Nador","names":{"en":"Nador","de":"Nador","es":"Nador","fr":"Nador","it":"Nador","nl":"Nador","pl":"Nador","ar":"الناظور","fa":"ناظور","ru":"Надор","zh":"納祖爾","th":"นาดอร์","ko":"나도르","ur":"ناظور"},"country":"MA","lat":35.16813,"lon":-2.93352,"pop":176600,"search_terms":["納祖爾","nador","นาดอร์","الناظور","надор","ناظور","나도르"]},{"id":11612347,"name":"Narashino","names":{"en":"Narashino","ja":"習志野"},"country":"JP","lat":35.68184,"lon":140.04152,"pop":176197,"search_terms":["narashino","習志野"]},{"id":1698829,"name":"Naga","names":{"en":"Naga","ru":"Наги","ja":"ナガ","ko":"나가","tl":"Lungsod ng Naga","id":"Kota Naga","ur":"ناگا، کامارینز جنوبی"},"country":"PH","lat":13.61917,"lon":123.18139,"pop":174931,"search_terms":["lungsod ng naga","ناگا، کامارینز جنوبی","kota naga","naga","나가","ナガ","наги"]},{"id":1261653,"name":"Navsari","names":{"en":"Navsari"},"country":"IN","lat":20.94237,"lon":72.92467,"pop":171109,"search_terms":["navsari"]},{"id":1855189,"name":"Nishio","names":{"en":"Nishio","ru":"Нисио","ar":"نيشيو","fa":"نیشیو، آیچی","ja":"西尾市","kk":"Нисио","ko":"니시오 시","tg":"Нишио","tl":"Nisyio","uk":"Нісіо","zh":"西尾市","ur":"نیشیو، ایچی"},"country":"JP","lat":34.86667,"lon":137.05,"pop":169984,"search_terms":["نيشيو","нисио","니시오 시","نیشیو، آیچی","نیشیو، ایچی","西尾市","西尾","нишио","nishio","nisyio","нісіо"]},{"id":518970,"name":"Novocherkassk","names":{"en":"Novocherkassk","de":"Nowotscherkassk","fr":"Novotcherkassk","pl":"Nowoczerkask","sv":"Novotjerkassk","ru":"Новочеркасск","it":"Novočerkassk","nl":"Novotsjerkassk","ja":"ノヴォチェルカッスク","ar":"نوفوتشركاسك","cs":"Novočerkassk","fa":"نووچرکاسک","uk":"Новочеркаськ","tr":"Novoçerkassk","ko":"노보체르카스크","az":"Novoçerkassk","ka":"ნოვოჩერკასკი","zh":"新切爾卡斯克"},"country":"RU","lat":47.4222,"lon":40.09373,"pop":166974,"search_terms":["новочеркасск","novočerkassk","novoçerkassk","ノヴォチェルカッスク","노보체르카스크","新切爾卡斯克","новочеркаськ","nowotscherkassk","novotcherkassk","novotjerkassk","ნოვოჩერკასკი","novocherkassk","nowoczerkask","novotsjerkassk","نووچرکاسک","نوفوتشركاسك"]},{"id":6252065,"name":"Nou Barris","names":{"en":"Nou Barris","es":"Distrito Nou Barris"},"country":"ES","lat":41.44163,"lon":2.17727,"pop":166310,"search_terms":["distrito de nou barris","nou barris","distrito nou barris"]},{"id":6941099,"name":"Nepalgunj","names":{"en":"Nepalgunj","ru":"Непалгун"},"country":"NP","lat":28.05,"lon":81.61667,"pop":166258,"search_terms":["nepalgunj","непалгун"]},{"id":6822138,"name":"Niiza","names":{"en":"Niiza","ja":"新座","ar":"نيزا","fa":"نی‌ایزا، سایتاما","ko":"니자 시","tg":"Нииза","tl":"Niisa","uk":"Ніїдза","ru":"Ниидза","zh":"新座市"},"country":"JP","lat":35.82088,"lon":139.55791,"pop":166017,"search_terms":["新座市","нииза","新座","ніїдза","ниидза","ニイザ","نی‌ایزا، سایتاما","niisa","نيزا","니자 시","niiza","にいざ"]},{"id":2864695,"name":"Neukoelln","names":{"en":"Neukoelln","de":"Neukölln"},"country":"DE","lat":52.47719,"lon":13.43126,"pop":164636,"search_terms":["neukölln","neukoelln","berlin-neukölln"]},{"id":523064,"name":"Nazran","names":{"en":"Nazran","de":"Nasran","ko":"나즈란","ru":"Назрань","pl":"Nazrań","nl":"Nazran","az":"Nazran","ar":"نازران","cs":"Nazraň","fr":"Nazran","ka":"ნაზრანი","uk":"Назрань"},"country":"RU","lat":43.22597,"lon":44.77323,"pop":164131,"search_terms":["назрань","nazran'","나즈란","nazran","nazrań","نازران","ნაზრანი","nazraň","назра́нь","nasran"]},{"id":1799389,"name":"Ning'er","names":{"en":"Ning'er","zh":"宁洱"},"country":"CN","lat":23.04053,"lon":101.03683,"pop":162711,"search_terms":["ning'er","宁洱"]},{"id":2223763,"name":"Nkongsamba","names":{"en":"Nkongsamba","de":"Nkongsamba","fr":"Nkongsamba","pt":"Nkongsamba","pl":"Nkongsamba","ru":"Нконгсамба"},"country":"CM","lat":4.9547,"lon":9.9404,"pop":162309,"search_terms":["nkongsamba","нконгсамба"]},{"id":2239076,"name":"N'dalatando","names":{"en":"N'dalatando"},"country":"AO","lat":-9.29782,"lon":14.91162,"pop":161584,"search_terms":["n'dalatando"]},{"id":2641598,"name":"Newport","names":{"en":"Newport","ru":"Ньюпорт","ar":"نيوبورت","hi":"न्यूपोर्ट","el":"Νιούπορτ","th":"นิวพอร์ต","ko":"뉴포트","ja":"ニューポート","fa":"نیوپورت","uk":"Ньюпорт","hy":"Նյուպորտ","zh":"纽波特","az":"Nyuport","kk":"Ньюпорт","ur":"نیوپورٹ، ویلز","de":"Newport (Wales)"},"country":"GB","lat":51.58774,"lon":-2.99835,"pop":161506,"search_terms":["νιούπορτ","นิวพอร์ต","newport (wales)","نيوبورت","ньюпорт","뉴포트","纽波特","նյուպորտ","न्यूपोर्ट","نیوپورت","نیوپورٹ، ویلز","nyuport","newport","ニューポート"]},{"id":700022,"name":"Nyzhnyodniprovsk","names":{"en":"Nyzhnyodniprovsk","ru":"Нижнеднепровск","uk":"Nyzhnodniprovsk-Vuzol"},"country":"UA","lat":48.47546,"lon":35.1167,"pop":160123,"search_terms":["nyzhnyodniprovsk","нижньодніпровськ","нижнеднепровск","nyzhnodniprovsk-vuzol","нижньодніпровськ-вузол"]},{"id":6087790,"name":"Newton","names":{"en":"Newton"},"country":"CA","lat":49.13333,"lon":-122.85,"pop":159390,"search_terms":["surrey newton","newton"]},{"id":1608258,"name":"Nong Chok","names":{"en":"Nong Chok","th":"หนองจอก"},"country":"TH","lat":13.85585,"lon":100.86216,"pop":157138,"search_terms":["nong chok","หนองจอก"]},{"id":2035644,"name":"Nanpiao","names":{"en":"Nanpiao","zh":"南票"},"country":"CN","lat":41.09822,"lon":120.74792,"pop":157044,"search_terms":["南票","nanpiao"]},{"id":330118,"name":"Nek'emte","names":{"en":"Nek'emte"},"country":"ET","lat":9.08333,"lon":36.55,"pop":156000,"search_terms":["nek'emte"]},{"id":1262067,"name":"Nalgonda","names":{"en":"Nalgonda","hi":"नलगोंडा","pt":"Nalgonda","sv":"Nalgonda","ta":"நல்கொண்டா","te":"నల్గొండ","ru":"Налгонда","ar":"نالجوندا","zh":"纳尔戈恩达","mr":"नालगोंडा"},"country":"IN","lat":17.05439,"lon":79.26707,"pop":154326,"search_terms":["नालगोंडा","நல்கொண்டா","నల్గొండ","نالجوندا","nalgonda","नलगोंडा","纳尔戈恩达","налгонда"]},{"id":1855078,"name":"Noda","names":{"en":"Noda","ru":"Нода","ja":"野田","fr":"Noda-Shi","ar":"نودا","fa":"نودا، چیبا","ko":"노다 시","tg":"Нода","th":"โนะดะ","uk":"Нода","ur":"نودا، چیبا","zh":"野田市"},"country":"JP","lat":35.94897,"lon":139.86793,"pop":154114,"search_terms":["نودا، چیبا","noda-shi","нода","노다 시","野田市","نودا","noda","野田","โนะดะ"]},{"id":2864118,"name":"Neuss","names":{"en":"Neuss","de":"Neuss","fr":"Neuss","nl":"Neuss","sv":"Neuss","pl":"Neuss","it":"Neuss","es":"Neuss","pt":"Neuss","ru":"Нойс","ar":"نويس","ja":"ノイス","ka":"ნოისი","kk":"Нойс","ko":"노이스","uk":"Нойс","zh":"诺伊斯","fa":"نویس"},"country":"DE","lat":51.19807,"lon":6.68504,"pop":152457,"search_terms":["نويس","노이스","neuss","诺伊斯","ノイス","нойс","ნოისი","نویس"]},{"id":1608236,"name":"Nong Khaem","names":{"en":"Nong Khaem","th":"หนองแขม"},"country":"TH","lat":13.70528,"lon":100.34923,"pop":150218,"search_terms":["nong khaem","หนองแขม"]},{"id":2990363,"name":"Nimes","names":{"en":"Nimes","de":"Nîmes","es":"Nimes","fr":"Nîmes","it":"Nîmes","ja":"ニーム","nl":"Nîmes","pl":"Nîmes","ro":"Nîmes","ru":"Ним","sv":"Nîmes","zh":"尼姆","pt":"Nîmes","kk":"Ним","fa":"نیم","ar":"نيم","ka":"ნიმი","hy":"Նիմ","el":"Νιμ","ko":"님","uk":"Нім","th":"นีม","ur":"نیم"},"country":"FR","lat":43.83665,"lon":4.35788,"pop":148236,"search_terms":["νιμ","nimes","نیم","ним","نيم","นีม","նիմ","nîmes","ნიმი","님","尼姆","ニーム","нім"]},{"id":3456290,"name":"Nilopolis","names":{"en":"Nilopolis","kk":"Нилополис","ru":"Нилополис","zh":"尼洛波利斯"},"country":"BR","lat":-22.8075,"lon":-43.41389,"pop":147281,"search_terms":["nilopolis","尼洛波利斯","нилополис"]},{"id":4903279,"name":"Naperville","names":{"en":"Naperville","pt":"Naperville","sv":"Naperville","fr":"Naperville","ko":"네이퍼빌","ar":"نابرفيل","ja":"ネイパービル","ru":"Нейпервилл","zh":"內珀維爾","fa":"ناپرس‌ویل، ایلینوی","uk":"Непервілл","ur":"نیپرویل، الینوائے"},"country":"US","lat":41.78586,"lon":-88.14729,"pop":147100,"search_terms":["네이퍼빌","нейпервилл","نابرفيل","непервілл","內珀維爾","naperville","ネイパービル","نیپرویل، الینوائے","ناپرس‌ویل، ایلینوی"]},{"id":2019528,"name":"Nakhodka","names":{"en":"Nakhodka","de":"Nachodka","fr":"Nahodka","ja":"ナホトカ","ko":"나홋카","pl":"Nachodka","id":"Nakhodka","es":"Najodka","cs":"Nachodka","nl":"Nachodka","uk":"Находка","ru":"Находка","it":"Nachodka","fa":"ناخودکا","az":"Naxodka","ar":"ناخودكا","sv":"Nachodka","zh":"納霍德卡","ur":"ناخودکا","uz":"Naxodka"},"country":"RU","lat":42.8436,"lon":132.91831,"pop":146920,"search_terms":["nachodka","naxodka","納霍德卡","ناخودكا","ナホトカ","nahodka","ناخودکا","najodka","nakhodka","находка","나홋카"]},{"id":2377457,"name":"Nouadhibou","names":{"en":"Nouadhibou","es":"Nuadibú","fr":"Nouadhibou","pl":"Nawazibu","de":"Nouadhibou","sv":"Nouadhibou","it":"Nouadhibou","ro":"Nouadhibou","ru":"Нуадибу","ar":"نواذيبو"},"country":"MR","lat":20.94188,"lon":-17.03842,"pop":146048,"search_terms":["nuadibú","نواذيبو","nawazibu","port-étienne","nouadhibou","нуадибу"]},{"id":1513131,"name":"Navoiy","names":{"en":"Navoiy","fr":"Navoï","ru":"Навои","sv":"Navoi","uz":"Navoiy","fa":"نوایی","hi":"नवोई","ja":"ナヴァーイー","ko":"나보이","tg":"Навои","uk":"Навої","pl":"Nawoi","zh":"纳沃伊","ar":"نواوي","ky":"Навои","tr":"Nevai","ur":"نوائی"},"country":"UZ","lat":40.08444,"lon":65.37917,"pop":144158,"search_terms":["nevai","نوائی","나보이","نواوي","навои","نوایی","navoï","纳沃伊","ナヴァーイー","navoiy","навої","nawoi","नवोई","navoi"]},{"id":8417607,"name":"Nanjin","names":{"en":"Nanjin","zh":"南津"},"country":"CN","lat":29.98497,"lon":106.26529,"pop":143766,"search_terms":["南津街道","合川区","nanjin","南津"]},{"id":2641181,"name":"Norwich","names":{"en":"Norwich","de":"Norwich","ar":"نورويتش","fr":"Norwich","id":"Norwich","it":"Norwich","nl":"Norwich","sv":"Norwich","tr":"Norwich","pl":"Norwich","ru":"Норидж","ja":"ノリッチ","ko":"노리치","uk":"Норвіч","fa":"نورویچ","th":"นอริช","zh":"諾里奇","kk":"Норидж","az":"Norviç","el":"Νόργουιτς"},"country":"GB","lat":52.62783,"lon":1.29834,"pop":143135,"search_terms":["норидж","นอริช","norviç","노리치","norwich","ノリッチ","норвіч","نورویچ","諾里奇","νόργουιτς","نورويتش"]},{"id":517121,"name":"Novyye Kuz'minki","names":{"en":"Novyye Kuz'minki","ru":"Новые Кузьминки"},"country":"RU","lat":55.7,"lon":37.75,"pop":143000,"search_terms":["новые кузьминки","novyye kuz'minki"]},{"id":1337240,"name":"Nawabganj","names":{"en":"Nawabganj","bn":"Nawābganj"},"country":"BD","lat":24.59025,"lon":88.27444,"pop":142361,"search_terms":["nawabganj","nawābganj"]},{"id":1497337,"name":"Norilsk","names":{"en":"Norilsk","ru":"Норильск","it":"Noril'sk","ar":"نوريلسك","fa":"نوریلسک","ja":"ノリリスク","ko":"노릴스크","tg":"Норилск","uk":"Норильськ","ur":"نورلسک","pl":"Norylsk","zh":"諾里爾斯克"},"country":"RU","lat":69.3535,"lon":88.2027,"pop":140800,"search_terms":["노릴스크","норильськ","norylsk","نورلسک","ノリリスク","諾里爾斯克","نوریلسک","норилск","norilsk","noril'sk","норильск","نوريلسك"]},{"id":1697497,"name":"Norzagaray","names":{"en":"Norzagaray","nl":"Norzagaray","tl":"Bayan ng Norzagaray"},"country":"PH","lat":14.9109,"lon":121.0493,"pop":140697,"search_terms":["norzagaray","bayan ng norzagaray"]},{"id":970566,"name":"Nigel","names":{"en":"Nigel","ru":"Найджел"},"country":"ZA","lat":-26.43138,"lon":28.47713,"pop":140644,"search_terms":["nigel","найджел"]},{"id":1698839,"name":"Naga","names":{"en":"Naga","de":"Naga City","id":"Kota Naga","tl":"Lungsod ng Naga","ur":"ناگا، سیبو"},"country":"PH","lat":10.20898,"lon":123.758,"pop":138727,"search_terms":["lungsod ng naga","naga city","naga","ناگا، سیبو","kota naga"]},{"id":866153,"name":"Nor Nork","names":{"en":"Nor Nork","hy":"Nor Nork’"},"country":"AM","lat":40.19661,"lon":44.5669,"pop":137300,"search_terms":["nor nork’ varch’akan shrjan","nor nork","նոր նորք","nor norq varchakan shrjan","nor nork’","nor norq","նոր նորք վարչական շրջան"]},{"id":1233369,"name":"Negombo","names":{"en":"Negombo","fr":"Negombo","de":"Negombo","ru":"Негомбо","ta":"நீர்கொழும்பு","ja":"ニゴンボ","zh":"內貢博","uk":"Негомбо","ur":"نیگومبو","pt":"Negumbo","bn":"নেগোম্বো","hy":"Նեգոմբո","sv":"Negombo","ko":"네곰보","it":"Negombo","es":"Negombo","cs":"Negombo","ar":"نغومبو","vi":"Negombo","th":"เนกอมโบ","az":"Neqombo","fa":"نگومبو","pl":"Negombo","nl":"Negombo","tr":"Negombo"},"country":"LK","lat":7.2083,"lon":79.8358,"pop":137223,"search_terms":["நீர்கொழும்பு","نیگومبو","เนกอมโบ","negumbo","neqombo","negombo","নেগোম্বো","內貢博","نگومبو","негомбо","նեգոմբո","ニゴンボ","نغومبو","네곰보"]},{"id":522377,"name":"Nevinnomyssk","names":{"en":"Nevinnomyssk","de":"Newinnomyssk","ja":"ネヴィンノムイスク","ko":"네비노미스크","pl":"Niewinnomyssk","ru":"Невинномысск","az":"Nevinnomıssk","uk":"Невинномиськ","ar":"نافينوميسك","fa":"نوینومیسک","tg":"Невинномисск","zh":"涅溫諾梅斯克","hy":"Նեվինոմիսկ","cs":"Něvinnomyssk","ro":"Nevinnomîssk"},"country":"RU","lat":44.6333,"lon":41.9444,"pop":134345,"search_terms":["nevinnomyssk","نوینومیسک","невинномиськ","涅溫諾梅斯克","네비노미스크","něvinnomyssk","nevinnomîssk","نافينوميسك","նեվինոմիսկ","невинномысск","невинномисск","nevinnomıssk","ネヴィンノムイスク","newinnomyssk","niewinnomyssk"]},{"id":2111684,"name":"Narita","names":{"en":"Narita","de":"Narita","fr":"Narita","ja":"成田市","ko":"나리타 시","nl":"Narita","pt":"Narita","zh":"成田市","th":"นะริตะ","ru":"Нарита","ar":"ناريتا","fa":"ناریتا، چیبا","tg":"Нарита","uk":"Наріта","ur":"ناریتا، چیبا"},"country":"JP","lat":35.78333,"lon":140.31667,"pop":132906,"search_terms":["narita","成田市","ناریتا، چیبا","ناريتا","成田","나리타 시","นะริตะ","нарита","наріта"]},{"id":518557,"name":"Novomoskovsk","names":{"en":"Novomoskovsk","de":"Nowomoskowsk","pl":"Nowomoskowsk","ko":"노보모스콥스크","ru":"Новомосковск","uk":"Новомосковськ","fa":"نوووموسکوفسک، روسیه","ar":"نوفوموسكوفيك","ja":"ノヴォモスコフスク","zh":"新莫斯科斯克","tt":"Яңа Мәскәү"},"country":"RU","lat":54.01098,"lon":38.29084,"pop":130982,"search_terms":["новомосковськ","نوووموسکوفسک، روسیه","نوفوموسكوفيك","яңа мәскәү","노보모스콥스크","ノヴォモスコフスク","новомосковск","新莫斯科斯克","nowomoskowsk","novomoskovsk"]},{"id":1169278,"name":"Narowal","names":{"en":"Narowal"},"country":"PK","lat":32.10197,"lon":74.87303,"pop":130692,"search_terms":["narowal"]},{"id":1913126,"name":"Nantou","names":{"en":"Nantou","zh":"南头"},"country":"CN","lat":22.72171,"lon":113.29261,"pop":130370,"search_terms":["nantou","南头"]},{"id":282615,"name":"Nablus","names":{"en":"Nablus","es":"Siquem","pl":"Sychem","de":"Nablus","it":"Sichem","nl":"Sichem","ar":"نابلس","fr":"Naplouse","ru":"Наблус","ko":"나블루스","ja":"ナーブルス","uk":"Наблус","cs":"Náblus","fa":"نابلوس","zh":"納布盧斯","el":"Ναμπλούς"},"country":"PS","lat":32.22111,"lon":35.25444,"pop":130326,"search_terms":["siquem","nablus","나블루스","shechem","sichem","ナーブルス","نابلوس","sychem","納布盧斯","ναμπλούς","наблус","náblus","نابلس","naplouse"]},{"id":4839366,"name":"New Haven","names":{"en":"New Haven","de":"New Haven","fr":"New Haven","pl":"New Haven","pt":"New Haven","sv":"New Haven","es":"New Haven","it":"New Haven","id":"New Haven","ja":"ニュー・ヘイヴン","tr":"New Haven","ru":"Нью-Хейвен","fa":"نیوهیون، کانتیکت","uk":"Нью-Гейвен","mr":"न्यू हेवन","ko":"뉴헤이번","ar":"نيو هيفن","th":"นิวเฮเวน","kk":"Нью Хэвен","zh":"纽黑文","ka":"ნიუ-ჰეივენი","ur":"نیو ہیون، کنیکٹیکٹ","hi":"न्यू हैवन","hy":"Նյու Հեյվեն","az":"Nyu-Heyven","ro":"New Haven","bn":"নিউ হ্যাভেন","sw":"New Haven","ta":"நியூ ஹேவன்","ky":"Нью Хэвен","cs":"New Haven","te":"న్యూ హవెన్","tg":"Ню-Ҳейвен","tl":"New Haven","tt":"Нью-Һейвен","uz":"New Haven","ms":"New Haven","el":"Νιου Χέιβεν","vi":"New Haven","nl":"New Haven"},"country":"US","lat":41.30815,"lon":-72.92816,"pop":130322,"search_terms":["न्यू हैवन","նյու հեյվեն","nyu-heyven","ню-ҳейвен","న్యూ హవెన్","нью-гейвен","뉴헤이번","न्यू हेवन","new haven","นิวเฮเวน","纽黑文","ნიუ-ჰეივენი","নিউ হ্যাভেন","நியூ ஹேவன்","نيو هيفن","ニュー・ヘイヴン","نیوهیون، کانتیکت","νιου χέιβεν","нью хэвен","نیو ہیون، کنیکٹیکٹ","нью-хейвен","нью-һейвен"]},{"id":8441115,"name":"Nimach","names":{"en":"Nimach"},"country":"IN","lat":24.45949,"lon":74.86625,"pop":128561,"search_terms":["nimach"]},{"id":518976,"name":"Novocheboksarsk","names":{"en":"Novocheboksarsk","de":"Nowotscheboksarsk","ja":"ノヴォチェボクサルスク","ko":"노보체복사르스크","nl":"Novotsjeboksarsk","ru":"Новочебоксарск"},"country":"RU","lat":56.11095,"lon":47.47755,"pop":128468,"search_terms":["novocheboksarsk","ノヴォチェボクサルスク","nowotscheboksarsk","новочебоксарск","novotsjeboksarsk","노보체복사르스크"]},{"id":4543762,"name":"Norman","names":{"en":"Norman","de":"Norman","fr":"Norman","pl":"Norman","ru":"Норман","kk":"Норман","ko":"노먼","mr":"नॉर्मन","ja":"ノーマン","fa":"نورمن، اکلاهما","zh":"諾曼"},"country":"US","lat":35.22257,"lon":-97.43948,"pop":128026,"search_terms":["諾曼","norman","نورمن، اکلاهما","норман","노먼","नॉर्मन","ノーマン"]},{"id":2641674,"name":"Newcastle under Lyme","names":{"en":"Newcastle under Lyme","de":"Newcastle-under-Lyme","nl":"Newcastle-under-Lyme","tr":"Newcastle-under-Lyme"},"country":"GB","lat":53.0,"lon":-2.23333,"pop":127727,"search_terms":["newcastle-under-lyme","newcastle under lyme"]},{"id":522942,"name":"Neftekamsk","names":{"en":"Neftekamsk","de":"Neftekamsk","ko":"넵테캄스크","ru":"Нефтекамск","ar":"نفتكامسك","fa":"نفتکامسک","tt":"Нефтекама","uk":"Нефтекамськ","pl":"Nieftiekamsk","zh":"涅夫捷卡姆斯克","cs":"Něftěkamsk"},"country":"RU","lat":56.08879,"lon":54.26383,"pop":126805,"search_terms":["neftekamsk","涅夫捷卡姆斯克","нефтекамск","넵테캄스크","nieftiekamsk","нефтекамськ","نفتکامسک","něftěkamsk","нефтекама","نفتكامسك"]},{"id":1608529,"name":"Nakhon Ratchasima","names":{"en":"Nakhon Ratchasima","de":"Nakhon Ratchasima","fr":"Nakhon Ratchasima","nl":"Nakhon Ratchasima","pl":"Nakhon Ratczasima","ja":"ナコーンラーチャシーマー","ru":"Накхонратчасима","th":"นครราชสีมา","tl":"Lungsod ng Nakhon Ratchasima","ko":"나콘랏차시마","cs":"Nakhon Ratčasima","ar":"ناخون راتشاسيما","zh":"呵叻","ur":"ناکھون راتچاسیما"},"country":"TH","lat":14.97066,"lon":102.10196,"pop":126391,"search_terms":["nakhon ratczasima","nakhon ratchasima","ناکھون راتچاسیما","呵叻","เทศบาลนครนครราชสีมา","나콘랏차시마","ナコーンラーチャシーマー","nakhon ratčasima","ناخون راتشاسيما","накхонратчасима","นครราชสีมา","lungsod ng nakhon ratchasima"]},{"id":13527308,"name":"Nossa Senhora de Fatima","names":{"en":"Nossa Senhora de Fatima","pt":"Nossa Senhora de Fátima"},"country":"CN","lat":22.20769,"lon":113.54831,"pop":126000,"search_terms":["nossa senhora de fatima","freguesia de nossa senhora de fátima","nossa senhora de fátima"]},{"id":11205667,"name":"Ntuzuma","names":{"en":"Ntuzuma"},"country":"ZA","lat":-29.739,"lon":30.949,"pop":125394,"search_terms":["ntuzuma"]},{"id":150930,"name":"Nzega","names":{"en":"Nzega"},"country":"TZ","lat":-4.21667,"lon":33.18333,"pop":125193,"search_terms":["nzega"]},{"id":1169027,"name":"New Mirpur City","names":{"en":"New Mirpur City","de":"Mirpur","ur":"نیا میرپر شہر","fr":"Mirpur","hi":"मीरपुर","ru":"Мирпур","zh":"米尔布尔"},"country":"PK","lat":33.14782,"lon":73.75187,"pop":124352,"search_terms":["मीरपुर","ميرپور","мирпур","mirpur","نیا میرپر شہر","米尔布尔","new mirpur city"]},{"id":1800130,"name":"Nancun","names":{"en":"Nancun","zh":"南村"},"country":"CN","lat":36.53278,"lon":120.13389,"pop":124210,"search_terms":["南村","nancun"]},{"id":1855425,"name":"Niihama","names":{"en":"Niihama","ar":"نيهاما","fa":"نی‌ایهاما، اهیمه","ja":"新居浜市","ko":"니이하마 시","tg":"Нииҳама","uk":"Ніїхама","ur":"نیہاما، اہیمے","ru":"Ниихама","zh":"新居濱市"},"country":"JP","lat":33.96047,"lon":133.30522,"pop":123059,"search_terms":["نیہاما، اہیمے","니이하마 시","新居濱市","ниихама","新居浜","نيهاما","新居浜市","нииҳама","نی‌ایهاما، اهیمه","ніїхама","niihama"]},{"id":1261163,"name":"Nagaon","names":{"en":"Nagaon","ta":"நாகோன்"},"country":"IN","lat":26.35,"lon":92.66667,"pop":121628,"search_terms":["நாகோன்","nagaon"]},{"id":4839745,"name":"North Stamford","names":{"en":"North Stamford","fa":"نورت استامفورد","fr":"North Stamford","nl":"North Stamford","zh":"北史丹佛"},"country":"US","lat":41.13815,"lon":-73.54346,"pop":121230,"search_terms":["نورت استامفورد","north stamford","北史丹佛"]},{"id":278913,"name":"Nabatiye et Tahta","names":{"en":"Nabatiye et Tahta"},"country":"LB","lat":33.37889,"lon":35.48389,"pop":120000,"search_terms":["nabatiye et tahta"]},{"id":1855095,"name":"Nobeoka","names":{"en":"Nobeoka","pl":"Nobeoka","fr":"Nobeoka","de":"Nobeoka","ja":"延岡市","pt":"Nobeoka","ru":"Нобеока","ar":"نوبيوكا","fa":"نوبه‌اوکا، میازاکی","ko":"노베오카 시","tg":"Нобеока","uk":"Нобеока","zh":"延岡市"},"country":"JP","lat":32.58333,"lon":131.66667,"pop":119521,"search_terms":["нобеока","nobeoka","延岡市","노베오카 시","نوبيوكا","延岡","نوبه‌اوکا، میازاکی"]},{"id":406462,"name":"Nazarabad","names":{"en":"Nazarabad","fa":"نَصيرابادِ بَدِر"},"country":"IR","lat":35.6102,"lon":51.1611,"pop":119512,"search_terms":["naşīrābād","نَصيرابادِ بَدِر","nazarabad","نصير آباد"]},{"id":303873,"name":"Nazilli","names":{"en":"Nazilli","pl":"Nazilli","tr":"Nazilli","fa":"نازیلی","kk":"Назилли","ru":"Назилли","zh":"納濟利"},"country":"TR","lat":37.91631,"lon":28.32225,"pop":119370,"search_terms":["نازیلی","nazilli","назилли","納濟利"]},{"id":1800175,"name":"Nanbin","names":{"en":"Nanbin","zh":"南宾"},"country":"CN","lat":29.9994,"lon":108.10913,"pop":118597,"search_terms":["南宾镇","南宾","石柱土家族自治县","nanbin"]},{"id":1572526,"name":"Nghi Xuan","names":{"en":"Nghi Xuan"},"country":"VN","lat":18.658,"lon":105.752,"pop":118000,"search_terms":["nghi xuan"]},{"id":1269939,"name":"Narmadapuram","names":{"en":"Narmadapuram","hi":"नर्मदापुरम","de":"Hoshangabad","ru":"Хошангабад","pt":"Narmadapuram","bn":"নর্মদাপুরম","fr":"Narmadapuram","ur":"ہوشانجاباد","sv":"Hoshangabad","ko":"호샨가바드","mr":"हुशंगाबाद","ms":"Hoshangabad","it":"Hoshangabad","ta":"ஹோஷங்காபாத்","es":"Narmadapuram","zh":"霍斯杭格阿巴德","te":"నర్మదాపురం","vi":"Hoshangabad","ja":"フーシャンガーバード","fa":"هوشنگ‌آباد","nl":"Hoshangabad","tr":"Huşengabad"},"country":"IN","lat":22.74747,"lon":77.72736,"pop":117988,"search_terms":["хошангабад","hoshangabad","हुशंगाबाद","huşengabad","호샨가바드","narmadapuram","নর্মদাপুরম","ஹோஷங்காபாத்","フーシャンガーバード","నర్మదాపురం","霍斯杭格阿巴德","नर्मदापुरम","ہوشانجاباد","هوشنگ‌آباد"]},{"id":1608534,"name":"Nakhon Pathom","names":{"en":"Nakhon Pathom","de":"Nakhon Pathom","fr":"Nakhon Pathom","ja":"ナコーンパトム","nl":"Nakhon Pathom","th":"นครปฐม","ar":"ناخون باتوم","ko":"나콘빠톰","ur":"ناکھون پاتھوم","ru":"Накхонпатхом","zh":"佛统"},"country":"TH","lat":13.8196,"lon":100.04427,"pop":117927,"search_terms":["накхонпатхом","ناخون باتوم","nakhon pathom","เทศบาลนครนครปฐม","나콘빠톰","นครปฐม","ナコーンパトム","佛统","ناکھون پاتھوم"]},{"id":716935,"name":"Nyiregyhaza","names":{"en":"Nyiregyhaza","ru":"Ньиредьхаза","ar":"نيرغهازا","fa":"نیرگهزا","ja":"ニーレジハーザ","ka":"ნირედჰაზა","ko":"니레지하저","tt":"Ньиредьхаза","uk":"Ньїредьгаза","zh":"尼賴吉哈佐"},"country":"HU","lat":47.95539,"lon":21.71671,"pop":117689,"search_terms":["니레지하저","ньиредьхаза","ньїредьгаза","ニーレジハーザ","نيرغهازا","نیرگهزا","尼賴吉哈佐","nyiregyhaza","ნირედჰაზა"]},{"id":1261848,"name":"Narasaraopet","names":{"en":"Narasaraopet","te":"నరసరావుపేట","ur":"نراساراو پیٹ","zh":"纳拉萨拉奥佩特"},"country":"IN","lat":16.23488,"lon":80.04927,"pop":117489,"search_terms":["نراساراو پیٹ","నరసరావుపేట","纳拉萨拉奥佩特","narasaraopet"]},{"id":520068,"name":"Noginsk","names":{"en":"Noginsk","de":"Noginsk","pl":"Nogińsk","ru":"Ногинск","es":"Noguinsk","fr":"Noguinsk","uk":"Ногінськ","fa":"نوگینسک","ko":"노긴스크","ja":"ノギンスク","ar":"نوجينسك","az":"Noqinsk","ro":"Noghinsk","pt":"Noguinsk","zh":"諾金斯克"},"country":"RU","lat":55.86486,"lon":38.44853,"pop":115979,"search_terms":["نوجينسك","noginsk","noghinsk","노긴스크","ногінськ","ногинск","諾金斯克","noqinsk","noguinsk","nogińsk","نوگینسک","ノギンスク"]},{"id":6822174,"name":"Nasushiobara","names":{"en":"Nasushiobara","ja":"那須塩原","ar":"ناسوشيوبارا","fa":"ناسوشیوبارا، توچیگی","ko":"나스시오바라 시","tg":"Насушиобара","uk":"Насу-Сіобара","ru":"Насусиобара","zh":"那須鹽原市"},"country":"JP","lat":36.97682,"lon":140.06642,"pop":115794,"search_terms":["나스시오바라 시","насусиобара","насушиобара","насу-сіобара","那須塩原","ناسوشیوبارا، توچیگی","那須鹽原市","那須塩原市","ناسوشيوبارا","nasushiobara"]},{"id":511510,"name":"Novo-Peredelkino","names":{"en":"Novo-Peredelkino","ru":"Ново-Переделкино"},"country":"RU","lat":55.64528,"lon":37.33583,"pop":115536,"search_terms":["novo-peredelkino","ново-переделкино"]},{"id":3995019,"name":"Navojoa","names":{"en":"Navojoa","fa":"ناوویوا","ru":"Навохоа","zh":"納沃華","ur":"ناووخوا","es":"Navojoa"},"country":"MX","lat":27.07057,"lon":-109.44345,"pop":113836,"search_terms":["納沃華","ناووخوا","ناوویوا","navojoa","навохоа"]},{"id":1856243,"name":"Nagahama","names":{"en":"Nagahama","ru":"Нагахама","ja":"長浜市"},"country":"JP","lat":35.38333,"lon":136.26667,"pop":113636,"search_terms":["nagahama","長浜","нагахама","長浜市"]},{"id":2862375,"name":"Nippes","names":{"en":"Nippes"},"country":"DE","lat":50.96545,"lon":6.95314,"pop":113487,"search_terms":["nippes"]},{"id":4903976,"name":"North Peoria","names":{"en":"North Peoria"},"country":"US","lat":40.71754,"lon":-89.58426,"pop":113004,"search_terms":["north peoria"]},{"id":1671444,"name":"Neili","names":{"en":"Neili","zh":"內壢"},"country":"TW","lat":24.9725,"lon":121.26139,"pop":112845,"search_terms":["neili","內壢"]},{"id":1497917,"name":"Nefteyugansk","names":{"en":"Nefteyugansk","ru":"Нефтеюганск","de":"Neftejugansk"},"country":"RU","lat":61.09979,"lon":72.60349,"pop":112632,"search_terms":["neftejugansk","нефтеюганск","nefteyugansk"]},{"id":518659,"name":"Novokuybyshevsk","names":{"en":"Novokuybyshevsk","ru":"Новокуйбышевск","de":"Nowokuibyschewsk","es":"Novokúibyshevsk","fr":"Novokouïbychevsk","it":"Novokujbyševsk","nl":"Novokoejbysjevsk","ar":"نوفوكويبيشفسك","fa":"نووکویبیشفسک","ro":"Novokuibîșevsk","tg":"Новокуйбишевск","tt":"Яңа Куйбышев","uk":"Новокуйбишевськ","pl":"Nowokujbyszewsk","sv":"Novokujbysjevsk","zh":"新古比雪夫斯克","cs":"Novokujbyševsk"},"country":"RU","lat":53.09709,"lon":49.94001,"pop":111800,"search_terms":["новокуйбишевськ","novokuibîșevsk","novokúibyshevsk","новокуйбышевск","яңа куйбышев","novokuybyshevsk","novokouïbychevsk","novokujbyševsk","نووکویبیشفسک","nowokujbyszewsk","новокуйбишевск","novokoejbysjevsk","novokujbysjevsk","نوفوكويبيشفسك","新古比雪夫斯克","nowokuibyschewsk"]},{"id":3456147,"name":"Nova Lima","names":{"en":"Nova Lima","pt":"Nova Lima","ru":"Нова-Лима"},"country":"BR","lat":-19.98556,"lon":-43.84667,"pop":111697,"search_terms":["nova lima","нова-лима"]},{"id":1261669,"name":"Navadwip","names":{"en":"Navadwip","de":"Nabadwip","pt":"Nabadwip","ru":"Навадвип"},"country":"IN","lat":23.4067,"lon":88.36861,"pop":111123,"search_terms":["навадвип","navadwip","nabadwip"]},{"id":1261931,"name":"Nandurbar","names":{"en":"Nandurbar","hi":"नंदूरबार","de":"Nandurbar","ru":"Нандурбар","pt":"Nandurbar","fr":"Nandurbar","bn":"নন্দুরবার","ur":"نندوربار","sv":"Nandurbar","ko":"난두르바르","mr":"नंदुरबार","ms":"Nandurbar","it":"Nandurbar","ta":"நந்தூர்பர்","zh":"南杜尔巴尔","es":"Nandurbar","te":"నందూర్బార్","vi":"Nandurbar","ja":"ナンドゥァバール","fa":"ناندوربار","nl":"Nandurbar"},"country":"IN","lat":21.36671,"lon":74.24051,"pop":111037,"search_terms":["нандурбар","نندوربار","난두르바르","ナンドゥァバール","南杜尔巴尔","नंदुरबार","ناندوربار","నందూర్బార్","நந்தூர்பர்","नंदूरबार","nandurbar","নন্দুরবার"]},{"id":2328684,"name":"Nsukka","names":{"en":"Nsukka","ru":"Нсукка"},"country":"NG","lat":6.85783,"lon":7.39577,"pop":111017,"search_terms":["nsukka","нсукка"]},{"id":2328952,"name":"Nguru","names":{"en":"Nguru"},"country":"NG","lat":12.87695,"lon":10.45536,"pop":111014,"search_terms":["nguru"]},{"id":2790471,"name":"Namur","names":{"en":"Namur","de":"Namür","el":"Ναμύρ","fr":"Namur","nl":"Namen","pl":"Namur","ro":"Namur","es":"Namur","sv":"Namur","it":"Namur","pt":"Namur","ru":"Намюр","cs":"Namur","ar":"نامور","ja":"ナミュール","uk":"Намюр","fa":"نمور، بلژیک","ko":"나뮈르","zh":"那慕爾","am":"ናሙር","hy":"Նամյուր","th":"นามูร์"},"country":"BE","lat":50.4669,"lon":4.86746,"pop":110939,"search_terms":["namür","ናሙር","namur","نمور، بلژیک","那慕爾","ναμύρ","намюр","نامور","ナミュール","նամյուր","นามูร์","나뮈르","namen"]},{"id":1496503,"name":"Noyabrsk","names":{"en":"Noyabrsk","ru":"Ноябрьск","de":"Nojabrsk"},"country":"RU","lat":63.19309,"lon":75.43728,"pop":110000,"search_terms":["ноябрьск","noyabrsk","nojabrsk"]},{"id":4589387,"name":"North Charleston","names":{"en":"North Charleston","pt":"North Charleston","ja":"ノースチャールストン","fa":"نورت چارلستن، کارولینای جنوبی","zh":"北查尔斯顿","ar":"نورث تشارلستون","ur":"شمالی چارلسٹن، جنوبی کیرولائنا","ru":"Норт-Чарлстон"},"country":"US","lat":32.85462,"lon":-79.97481,"pop":108304,"search_terms":["ノースチャールストン","نورت چارلستن، کارولینای جنوبی","نورث تشارلستون","north charleston","شمالی چارلسٹن، جنوبی کیرولائنا","норт-чарлстон","北查尔斯顿"]},{"id":2035610,"name":"Nehe","names":{"en":"Nehe","ru":"Нэхэ","zh":"讷河"},"country":"CN","lat":48.4793,"lon":124.87016,"pop":108253,"search_terms":["nehe","нэхэ","讷河"]},{"id":5377995,"name":"Norwalk","names":{"en":"Norwalk","ar":"نوروالك","ja":"ノーウォーク","ko":"노워크","fa":"نورواک، کالیفرنیا","zh":"諾沃克","uk":"Норволк","ur":"نورواک، کیلیفورنیا","ru":"Норуолк","tt":"Норвок","de":"Norwalk","hi":"नोरवॉक","pt":"Norwalk","id":"Norwalk","uz":"Norwalk","mr":"नॉरवॉक","ms":"Norwalk","el":"Νόργουοκ","it":"Norwalk","es":"Norwalk","vi":"Norwalk","az":"Noruolk","ro":"Norwalk","nl":"Norwalk","fr":"Norwalk","bn":"নরওয়াক","sv":"Norwalk","sw":"Norwalk","ta":"நோர்வேல்க்","cs":"Norwalk","te":"నోర్వాక్","th":"นอร์วอล์ค","tl":"Norwalk","pl":"Norwalk","tr":"Norwalk"},"country":"US","lat":33.90224,"lon":-118.08173,"pop":107140,"search_terms":["نورواک، کالیفرنیا","نورواک، کیلیفورنیا","noruolk","諾沃克","नॉरवॉक","νόργουοκ","নরওয়াক","நோர்வேல்க்","นอร์วอล์ค","نوروالك","норвок","норволк","норуолк","norwalk","노워크","ノーウォーク","नोरवॉक","నోర్వాక్"]},{"id":517836,"name":"Novotroitsk","names":{"en":"Novotroitsk","pl":"Nowotroick","de":"Nowotroizk","nl":"Novotroitsk","ru":"Новотроицк","fr":"Novotroïtsk","it":"Novotroick","ar":"نوفوترويتسك","fa":"نوووترویسک","ro":"Novotroițc","tg":"Новотроитск","zh":"新特羅伊茨克","cs":"Novotroick","tr":"Novotroytsk","tt":"Яңа Троицк","uk":"Новотроїцьк"},"country":"RU","lat":51.20099,"lon":58.31318,"pop":106186,"search_terms":["novotroick","novotroïtsk","novotroițc","新特羅伊茨克","novotroytsk","نوفوترويتسك","яңа троицк","novotroitsk","نوووترویسک","новотроитск","nowotroick","nowotroizk","новотроицк","новотроїцьк"]},{"id":1671566,"name":"Nantou","names":{"en":"Nantou","zh":"南投","ru":"Наньтоу","cs":"Nan-tchou","fa":"نانتو","ja":"南投市","ko":"난터우 시","vi":"Nam Đầu"},"country":"TW","lat":23.91566,"lon":120.66387,"pop":105682,"search_terms":["nantou city","nantou","난터우 시","南投市","nan-tchou","nam đầu","наньтоу","نانتو","南投"]},{"id":3456117,"name":"Nova Serrana","names":{"en":"Nova Serrana"},"country":"BR","lat":-19.87611,"lon":-44.98361,"pop":105552,"search_terms":["nova serrana"]},{"id":1262216,"name":"Nagaur","names":{"en":"Nagaur"},"country":"IN","lat":27.20201,"lon":73.73394,"pop":105218,"search_terms":["nagaur"]},{"id":700051,"name":"Nikopol","names":{"en":"Nikopol","ru":"Никополь","uk":"Нікополь","fr":"Nikopol","it":"Nikopol'"},"country":"UA","lat":47.56826,"lon":34.39126,"pop":105160,"search_terms":["никополь","nikopol'","нікополь","nikopol"]},{"id":2990999,"name":"Nancy","names":{"en":"Nancy","de":"Nancy","es":"Nancy","ar":"نانسي","fr":"Nancy","id":"Nancy","it":"Nancy","ja":"ナンシー","nl":"Nancy","pl":"Nancy","pt":"Nancy","ro":"Nancy","ru":"Нанси","sv":"Nancy","fa":"نانسی","hi":"नांसी","zh":"南希","el":"Νανσύ"},"country":"FR","lat":48.68439,"lon":6.18496,"pop":105058,"search_terms":["نانسی","南希","нанси","νανσύ","nancy","नांसी","ナンシー","نانسي"]},{"id":6317781,"name":"Novo Gama","names":{"en":"Novo Gama"},"country":"BR","lat":-16.05917,"lon":-48.03944,"pop":103804,"search_terms":["novo gama"]},{"id":2328811,"name":"Nkpor","names":{"en":"Nkpor","pl":"Nkpor","nl":"Nkpor"},"country":"NG","lat":6.15038,"lon":6.83042,"pop":103733,"search_terms":["mkpor","nkpor"]},{"id":1262209,"name":"Nagda","names":{"en":"Nagda"},"country":"IN","lat":23.45834,"lon":75.41759,"pop":103501,"search_terms":["nagda"]},{"id":8521334,"name":"Nkayi","names":{"en":"Nkayi"},"country":"CG","lat":-4.18396,"lon":13.2859,"pop":103000,"search_terms":["nkayi"]},{"id":1262260,"name":"Nagapattinam","names":{"en":"Nagapattinam","fr":"Nagapattinam","ja":"ナーガッパッティナム","sv":"Nagapattinam","ta":"நாகப்பட்டினம்"},"country":"IN","lat":10.76377,"lon":79.84313,"pop":102905,"search_terms":["nagapattinam","நாகப்பட்டினம்","ナーガッパッティナム","ナーガパッティナム"]},{"id":183595,"name":"Ngong","names":{"en":"Ngong"},"country":"KE","lat":-1.3527,"lon":36.6699,"pop":102323,"search_terms":["ngong"]},{"id":1151933,"name":"Nakhon Si Thammarat","names":{"en":"Nakhon Si Thammarat","de":"Nakhon Si Tammarat","fr":"Nakhon Si Thammarat","ja":"ナコーンシータンマラート","nl":"Nakhon Si Thammarat","ru":"Накхонситхаммарат","th":"นครศรีธรรมราช","kk":"Накхонситхаммарат","ko":"나콘시탐마랏","ur":"ناکھون سی تھامارات","zh":"那空是贪玛叻"},"country":"TH","lat":8.43333,"lon":99.96667,"pop":102152,"search_terms":["ناکھون سی تھامارات","nakhon si thammarat","เทศบาลนครนครศรีธรรมราช","nakhon si tammarat","นครศรีธรรมราช","накхонситхаммарат","ナコーンシータンマラート","那空是贪玛叻","나콘시탐마랏"]},{"id":3172189,"name":"Novara","names":{"en":"Novara","de":"Novara","cs":"Novara","fr":"Novare","it":"Novara","ja":"ノヴァーラ","nl":"Novara","pl":"Novara","pt":"Novara","ro":"Novara","ru":"Новара","sv":"Novara","es":"Novara"},"country":"IT","lat":45.44694,"lon":8.62118,"pop":101916,"search_terms":["новара","ノヴァーラ","novara","novare"]},{"id":9534547,"name":"Nga Bay","names":{"en":"Nga Bay","vi":"Ngã Bảy"},"country":"VN","lat":9.81371,"lon":105.82096,"pop":101192,"search_terms":["ngã bảy","nga bay"]},{"id":4945121,"name":"New Bedford","names":{"en":"New Bedford","de":"New Bedford","pl":"New Bedford","pt":"New Bedford","sv":"New Bedford","ru":"Нью-Бедфорд","fa":"بدفورد جدید، ماساچوست","ar":"نيو بدفورد","kk":"Нью Бэдфорд","zh":"新贝德福德","ja":"ニューベッドフォード","ko":"뉴베드퍼드","uk":"Нью-Бедфорд","ky":"Нью Бэдфорд","th":"นิวเบดฟอร์ด","ur":"نیو بیڈفورڈ، میساچوسٹس"},"country":"US","lat":41.63526,"lon":-70.92701,"pop":101079,"search_terms":["نيو بدفورد","нью-бедфорд","ニューベッドフォード","نیو بیڈفورڈ، میساچوسٹس","뉴베드퍼드","нью бэдфорд","new bedford","بدفورد جدید، ماساچوست","นิวเบดฟอร์ด","新贝德福德"]},{"id":517161,"name":"Novyye Cheremushki","names":{"en":"Novyye Cheremushki","ru":"Новые Черёмушки"},"country":"RU","lat":55.7,"lon":37.58333,"pop":101000,"search_terms":["novyye cheremushki","новые черёмушки"]},{"id":99226,"name":"Nahiyat al Iskandariyah","names":{"en":"Nahiyat al Iskandariyah","ar":"ناحية الإسكندرية"},"country":"IQ","lat":32.8873,"lon":44.34619,"pop":100600,"search_terms":["nahiyat al iskandariyah","ناحية الإسكندرية"]},{"id":201650,"name":"Nyagatare","names":{"en":"Nyagatare"},"country":"RW","lat":-1.2952,"lon":30.3226,"pop":100000,"search_terms":["nyagatare"]},{"id":6087892,"name":"Niagara Falls","names":{"en":"Niagara Falls","pl":"Niagara Falls","de":"Niagara Falls","es":"Niagara Falls","fr":"Chutes Niagara","it":"Niagara Falls","pt":"Niagara Falls","zh":"尼亚加拉瀑布城","fa":"نیاگارا فالز، انتاریو","ja":"ナイアガラフォールズ","uk":"Ніагара-Фоллс","ar":"نياجارا فولز","ko":"나이아가라폴스","ru":"Ниагара-Фолс","ur":"نیاگرا فالز، انٹاریو"},"country":"CA","lat":43.10012,"lon":-79.06627,"pop":99818,"search_terms":["نياجارا فولز","나이아가라폴스","尼亚加拉瀑布城","ніагара-фоллс","ниагара-фолс","ナイアガラフォールズ","نیاگارا فالز، انتاریو","cataratas del niágara","chutes niagara","نیاگرا فالز، انٹاریو","niagara falls"]},{"id":517963,"name":"Novoshakhtinsk","names":{"en":"Novoshakhtinsk","pl":"Nowoszachtyńsk","de":"Nowoschachtinsk","ru":"Новошахтинск"},"country":"RU","lat":47.76037,"lon":39.93335,"pop":99478,"search_terms":["nowoszachtyńsk","nowoschachtinsk","novoshakhtinsk","новошахтинск"]},{"id":1261631,"name":"Nawada","names":{"en":"Nawada"},"country":"IN","lat":24.8867,"lon":85.54364,"pop":98029,"search_terms":["nawada"]},{"id":13132732,"name":"Namalombwe","names":{"en":"Namalombwe"},"country":"ZM","lat":-15.39053,"lon":28.18986,"pop":97758,"search_terms":["namalombwe"]},{"id":147429,"name":"Naxcivan","names":{"en":"Nakhchivan","ru":"Нахичевань","az":"Naxçıvan","de":"Nachitschewan","fr":"Nakhitchevan","fa":"نخجوان","hy":"Նախիջևան","uk":"Нахічевань","tr":"Nahçıvan"},"country":"AZ","lat":39.20889,"lon":45.41222,"pop":97200,"search_terms":["нахичевань","nachitschewan","nakhichivan","нахічевань","نخجوان","naxcivan","nakhitchevan","nahçıvan","naxçıvan şəhəri","nakhichevan’","nakhchivan","նախիջևան","naxçıvan"]},{"id":1341204,"name":"Nowshera Cantonment","names":{"en":"Nowshera Cantonment"},"country":"PK","lat":33.99829,"lon":71.99834,"pop":96766,"search_terms":["nowshera cantonment"]},{"id":1572585,"name":"Nghia GJo","names":{"en":"Nghia GJo"},"country":"VN","lat":21.05,"lon":105.8,"pop":96418,"search_terms":["nghia gjo","nghia do"]},{"id":1799686,"name":"Nanxi","names":{"en":"Nanxi","zh":"南溪"},"country":"CN","lat":28.84209,"lon":104.97958,"pop":96061,"search_terms":["南溪","nanxi"]},{"id":624784,"name":"Novopolotsk","names":{"en":"Novopolotsk","de":"Nawapolazk","pl":"Nowopołock","ru":"Новополоцк","ar":"نوفوبولوتسك","ko":"나바폴라츠크","uk":"Новополоцьк","zh":"新波洛茨克","it":"Navapolack","tt":"Новополоцк"},"country":"BY","lat":55.52618,"lon":28.59308,"pop":95717,"search_terms":["nawapolazk","nowopołock","новополоцк","新波洛茨克","نوفوبولوتسك","novopolotsk","новополоцьк","navapolatsk","나바폴라츠크","navapolack"]},{"id":518879,"name":"Novogireyevo","names":{"en":"Novogireyevo","ru":"Новогиреево"},"country":"RU","lat":55.75378,"lon":37.81885,"pop":95000,"search_terms":["новогиреево","novogireyevo"]},{"id":3437665,"name":"Nemby","names":{"en":"Nemby"},"country":"PY","lat":-25.3949,"lon":-57.53574,"pop":94641,"search_terms":["nemby"]},{"id":1496511,"name":"Novyy Urengoy","names":{"en":"Novy Urengoy","ru":"Новый Уренгой","de":"Nowy Urengoi"},"country":"RU","lat":66.08333,"lon":76.63333,"pop":94212,"search_terms":["novy urengoy","nowy urengoi","noviy urengoi","novyy urengoy","новый уренгой"]},{"id":1538636,"name":"Novoural'sk","names":{"en":"Novoural'sk","ru":"Новоуральск","de":"Nowouralsk"},"country":"RU","lat":57.25483,"lon":60.09052,"pop":93849,"search_terms":["верх-нейвинский","novoural'sk","новоуральск","nowouralsk","свердловск-44"]},{"id":2688368,"name":"Norrkoeping","names":{"en":"Norrkoeping","de":"Norrköping","fr":"Norrköping","pl":"Norrköping","sv":"Norrköping","nl":"Norrköping","pt":"Norrköping","zh":"北雪平","kk":"Норрчёпинг","ar":"نورشوبينغ","fa":"نورشوپینگ","uk":"Норрчепінг","ko":"노르셰핑","ja":"ノーショーピング","ka":"ნორჩეპინგი","th":"นอร์เชอปิง","ru":"Норрчёпинг"},"country":"SE","lat":58.59419,"lon":16.1826,"pop":93765,"search_terms":["노르셰핑","นอร์เชอปิง","ノーショーピング","norrköping","ნორჩეპინგი","norrkoeping","北雪平","نورشوپینگ","норрчёпинг","نورشوبينغ","норрчепінг"]},{"id":2139521,"name":"Noumea","names":{"en":"Noumea","de":"Noumea","fr":"Nouméa","it":"Noumea","el":"Noumea","es":"Numea","pt":"Nouméa","sv":"Noumea","ja":"ヌメア","ko":"누메아","nl":"Nouméa","pl":"Numea","ru":"Нумеа","ar":"نوميا","ka":"ნუმეა","uk":"Нумеа","mr":"नूमेआ","zh":"努美阿","ur":"نومئا","th":"นูเมอา","fa":"نومئا","ky":"Нумеа","ta":"நூமியா"},"country":"NC","lat":-22.27407,"lon":166.44884,"pop":93060,"search_terms":["นูเมอา","nouméa","νουμεά","நூமியா","noumea","нумеа","ヌメア","numea","نوميا","नूमेआ","ნუმეა","努美阿","نومئا","누메아"]},{"id":2239069,"name":"Negage","names":{"en":"Negage","ru":"Негаге"},"country":"AO","lat":-7.75938,"lon":15.2722,"pop":92950,"search_terms":["негаге","negage"]},{"id":151479,"name":"Njombe","names":{"en":"Njombe"},"country":"TZ","lat":-9.34917,"lon":34.77167,"pop":92537,"search_terms":["njombe"]},{"id":8740209,"name":"Nasinu","names":{"en":"Nasinu"},"country":"FJ","lat":-18.07051,"lon":178.51313,"pop":92043,"search_terms":["nasinu"]},{"id":6822209,"name":"Nisshin","names":{"en":"Nisshin","ja":"日進","ar":"نيشين","fa":"نیسشین، آیچی","kk":"Ниссин","ko":"닛신 시","tg":"Нисшин","tl":"Nissyin","uk":"Ніссін","ru":"Ниссин","zh":"日进市","ur":"نیسشین، ایچی"},"country":"JP","lat":35.13676,"lon":137.05238,"pop":91795,"search_terms":["ниссин","نیسشین، آیچی","닛신 시","nisshin","نیسشین، ایچی","日進","نيشين","日进市","нисшин","日進市","nissyin","ніссін"]},{"id":175555,"name":"Nakonde","names":{"en":"Nakonde"},"country":"ZM","lat":-9.34213,"lon":32.745,"pop":91107,"search_terms":["nakonde"]},{"id":303827,"name":"Nigde","names":{"en":"Nigde","fr":"Niğde","pl":"Niğde","de":"Niğde","ru":"Нигде","tr":"Niğde","ar":"نيغدة","az":"Niğdə","el":"Νίγδη","fa":"نیغده","ja":"ニーデ","kk":"Нигде","ko":"니데","zh":"尼代","ka":"ნიგდე","ur":"نیغدے"},"country":"TR","lat":37.96583,"lon":34.67935,"pop":91039,"search_terms":["نیغدے","niğde","нигде","نیغده","nigde","尼代","ნიგდე","νίγδη","니데","نيغدة","ニーデ","niğdə"]},{"id":6087701,"name":"Newmarket","names":{"en":"Newmarket","ko":"뉴마켓","uk":"Ньюмаркет","ar":"نيوماركت","ru":"Ньюмаркет","zh":"纽马克特","ja":"ニューマーケット","fa":"نیومارکت، انتاریو"},"country":"CA","lat":44.05011,"lon":-79.46631,"pop":91034,"search_terms":["نيوماركت","newmarket","纽马克特","뉴마켓","ニューマーケット","ньюмаркет","نیومارکت، انتاریو"]},{"id":1897122,"name":"Namyangju","names":{"en":"Namyangju","ko":"남양주시","ru":"Намянджу","fa":"نامیانگجو","ja":"南楊州市","zh":"南楊州市","ur":"نامیانگجو"},"country":"KR","lat":37.63667,"lon":127.21417,"pop":90798,"search_terms":["namyangju","남양주시","намъянджу","南楊州市","namyangju-si","نامیانگجو","намянджу","남양주"]},{"id":6085772,"name":"Nanaimo","names":{"en":"Nanaimo","de":"Nanaimo","fa":"نانایمو","fr":"Nanaimo","pt":"Nanaimo","tr":"Nanaimo","ja":"ナナイモ","pl":"Nanaimo","es":"Nanaimo","ru":"Нанаймо","ko":"나나이모","ur":"ننائیمو","uk":"Нанаймо","zh":"纳奈莫","ar":"نانيامو إي"},"country":"CA","lat":49.16638,"lon":-123.94003,"pop":90504,"search_terms":["ナナイモ","나나이모","نانایمو، بریتیش کلمبیا","نانيامو إي","nanaimo","нанаймо","ننائیمو","نانایمو","纳奈莫"]},{"id":2186239,"name":"New Plymouth","names":{"en":"New Plymouth","es":"Nueva Plymouth","fr":"New Plymouth","pl":"New Plymouth","de":"New Plymouth","ko":"뉴플리머스","ru":"Нью-Плимут","it":"Distretto di New Plymouth","ja":"ニュープリマス","uk":"Нью-Плімут","ka":"ნიუ-პლიმუთი","zh":"新普利茅斯"},"country":"NZ","lat":-39.06667,"lon":174.08333,"pop":90300,"search_terms":["뉴플리머스","нью-плимут","nueva plymouth","ნიუ-პლიმუთი","ニュープリマス","new plymouth","distretto di new plymouth","新普利茅斯","нью-плімут"]},{"id":5601933,"name":"Nampa","names":{"en":"Nampa","sv":"Nampa","fa":"نامپا، آیداهو","ar":"نامبا","ka":"ნამპა","kk":"Нампа","ja":"ナンパ","ru":"Нампа","zh":"楠帕","uk":"Нампа","ur":"نامپا، ایڈاہو"},"country":"US","lat":43.54072,"lon":-116.56346,"pop":89839,"search_terms":["楠帕","نامپا، آیداهو","نامبا","нампа","ナンパ","ნამპა","nampa","نامپا، ایڈاہو"]},{"id":1303406,"name":"Nyaunglebin","names":{"en":"Nyaunglebin","ru":"Ньяунлебин","sv":"Nyaunglebin","pl":"Nyaunglebin","nl":"Nyaunglebin"},"country":"MM","lat":17.95363,"lon":96.72247,"pop":89626,"search_terms":["ньяунлебин","nyaunglebin"]},{"id":256429,"name":"Nikaia","names":{"en":"Nikaia","el":"Νίκαια"},"country":"GR","lat":37.96667,"lon":23.65,"pop":89380,"search_terms":["νίκαια","nikaia"]},{"id":303750,"name":"Nusaybin","names":{"en":"Nusaybin","de":"Nisibis","el":"Αντιόχεια","nl":"Nisibis","pl":"Nisibis","ru":"Нузайбин","tr":"Nusaybin","ar":"نصيبين"},"country":"TR","lat":37.07028,"lon":41.21465,"pop":88977,"search_terms":["نصيبين","nusaybin","нузайбин","nisibis","αντιόχεια"]},{"id":8419425,"name":"Nandajie","names":{"en":"Nandajie","zh":"南大街"},"country":"CN","lat":29.33773,"lon":105.89237,"pop":88948,"search_terms":["南大街","南大街街道","nandajie"]},{"id":4945283,"name":"Newton","names":{"en":"Newton","fr":"Newton","ja":"ニュートン","sv":"Newton","ru":"Ньютон","fa":"نیوتون، ماساچوست","ko":"뉴턴","kk":"Ньютон","zh":"牛顿","ar":"نيوتن","uk":"Ньютон","ur":"نیوٹن، میساچوسٹس","tt":"Ньютон","de":"Newton","pt":"Newton","hy":"Նյութոն","id":"Newton","uz":"Newton","el":"Νιούτον","it":"Newton","es":"Newton","vi":"Newton","az":"Nyuton","nl":"Newton","bn":"নিউটন","ka":"ნიუტონი","sw":"Newton","ky":"Ньютон","cs":"Newton","tl":"Newton","pl":"Newton","tr":"Newton"},"country":"US","lat":42.33704,"lon":-71.20922,"pop":88817,"search_terms":["뉴턴","նյութոն","ニュートン","牛顿","nyuton","ньютон","নিউটন","نيوتن","ნიუტონი","newton","نیوتون، ماساچوست","نیوٹن، میساچوسٹس","νιούτον"]},{"id":2641157,"name":"Nuneaton","names":{"en":"Nuneaton","de":"Nuneaton","ru":"Нанитон","fa":"نانیتون","zh":"納尼頓","ja":"ヌニートン"},"country":"GB","lat":52.52323,"lon":-1.46523,"pop":88813,"search_terms":["нанитон","نانیتون","nuneaton","ヌニートン","納尼頓"]},{"id":4839822,"name":"Norwalk","names":{"en":"Norwalk","de":"Norwalk","sv":"Norwalk","pl":"Norwalk","fr":"Norwalk","uk":"Норволк","mr":"नॉरवॉक","ko":"노워크","hi":"नॉरवॉक","kk":"Норвалк","ru":"Норуолк","zh":"诺沃克","ar":"نوروولك","ja":"ノーウォーク","fa":"نورواک، کنتیکت","ur":"نارواک، کنیکٹیکٹ"},"country":"US","lat":41.1176,"lon":-73.4079,"pop":88485,"search_terms":["नॉरवॉक","نارواک، کنیکٹیکٹ","نورواک، کنتیکت","норвалк","诺沃克","норволк","норуолк","norwalk","노워크","ノーウォーク","نوروولك"]},{"id":1261288,"name":"Nirmal","names":{"en":"Nirmal","ru":"Нирмала","mr":"निर्मल","ur":"نرمل","zh":"尼尔马尔"},"country":"IN","lat":19.09685,"lon":78.34407,"pop":88433,"search_terms":["尼尔马尔","نرمل","нирмала","निर्मल","nirmal"]},{"id":6090785,"name":"North Vancouver","names":{"en":"North Vancouver","fa":"ونکوور شمالی","id":"Vancouver Utara","ja":"ノースバンクーバー","ko":"노스밴쿠버","ur":"نارتھ وینکوور","ru":"Норт-Ванкувер","zh":"北溫哥華市"},"country":"CA","lat":49.31636,"lon":-123.06934,"pop":88168,"search_terms":["ونکوور شمالی","نارتھ وینکوور","норт-ванкувер","vancouver utara","ノースバンクーバー","노스밴쿠버","north vancouver","北溫哥華市"]},{"id":1261470,"name":"Neyyattinkara","names":{"en":"Neyyattinkara"},"country":"IN","lat":8.39854,"lon":77.08586,"pop":88104,"search_terms":["neyyattinkara"]},{"id":11124382,"name":"Nowshera Kalan","names":{"en":"Nowshera Kalan"},"country":"PK","lat":34.0191,"lon":71.97445,"pop":88003,"search_terms":["nowshera kalan"]},