[{"id":1799962,"name":"Nanjing","local":"Нанкин","country":"CN","lat":32.062,"lon":118.778,"pop":9314685,"tz":"Asia/Shanghai"},{"id":5128581,"name":"New York City","local":"Нью-Йорк","country":"US","lat":40.714,"lon":-74.006,"pop":8804190,"tz":"America/New_York"},{"id":184745,"name":"Nairobi","local":"Найроби","country":"KE","lat":-1.283,"lon":36.817,"pop":4397073,"tz":"Africa/Nairobi"},{"id":12908892,"name":"New Taipei City","local":"Новый Тайбэй","country":"TW","lat":25.062,"lon":121.457,"pop":4004367,"tz":"Asia/Taipei"},{"id":12747063,"name":"New Territories","local":"New Territories","country":"HK","lat":22.424,"lon":114.111,"pop":3984077,"tz":"Asia/Hong_Kong"},{"id":1799869,"name":"Nanning","local":"Наньнин","country":"CN","lat":22.817,"lon":108.317,"pop":3839800,"tz":"Asia/Shanghai"},{"id":1799397,"name":"Ningbo","local":"Нинбо","country":"CN","lat":29.878,"lon":121.549,"pop":3731203,"tz":"Asia/Shanghai"},{"id":6619347,"name":"Navi Mumbai","local":"Нави Мумбаи","country":"IN","lat":19.037,"lon":73.016,"pop":2600000,"tz":"Asia/Kolkata"},{"id":1262180,"name":"Nagpur","local":"Нагпур","country":"IN","lat":21.146,"lon":79.085,"pop":2405665,"tz":"Asia/Kolkata"},{"id":1800163,"name":"Nanchang","local":"Наньчан","country":"CN","lat":28.684,"lon":115.853,"pop":2357839,"tz":"Asia/Shanghai"},{"id":1856057,"name":"Nagoya","local":"Нагоя","country":"JP","lat":35.181,"lon":136.906,"pop":2332176,"tz":"Asia/Tokyo"},{"id":1799722,"name":"Nantong","local":"Наньтун","country":"CN","lat":32.03,"lon":120.875,"pop":2273326,"tz":"Asia/Shanghai"},{"id":1800146,"name":"Nanchong","local":"Наньчун","country":"CN","lat":30.795,"lon":106.085,"pop":1858875,"tz":"Asia/Shanghai"},{"id":1799629,"name":"Nanyang","local":"Наньян","country":"CN","lat":32.995,"lon":112.533,"pop":1811812,"tz":"Asia/Shanghai"},{"id":1496747,"name":"Novosibirsk","local":"Новосибирск","country":"RU","lat":55.023,"lon":82.932,"pop":1612833,"tz":"Asia/Novosibirsk"},{"id":1261731,"name":"Nashik","local":"Насик","country":"IN","lat":19.997,"lon":73.791,"pop":1486053,"tz":"Asia/Kolkata"},{"id":1262111,"name":"Najafgarh","local":"Najafgarh","country":"IN","lat":28.609,"lon":76.98,"pop":1365000,"tz":"Asia/Kolkata"},{"id":2427123,"name":"N'Djamena","local":"Нджамена","country":"TD","lat":12.107,"lon":15.044,"pop":1359526,"tz":"Africa/Ndjamena"},{"id":2440485,"name":"Niamey","local":"Ниамей","country":"NE","lat":13.514,"lon":2.11,"pop":1323691,"tz":"Africa/Niamey"},{"id":520555,"name":"Nizhniy Novgorod","local":"Нижний Новгород","country":"RU","lat":56.329,"lon":44.002,"pop":1259013,"tz":"Europe/Moscow"},{"id":1799491,"name":"Neijiang","local":"Нэйцзян","country":"CN","lat":29.584,"lon":105.062,"pop":1251095,"tz":"Asia/Shanghai"},{"id":1261162,"name":"Nowrangapur","local":"Nowrangapur","country":"IN","lat":19.231,"lon":82.548,"pop":1220946,"tz":"Asia/Kolkata"},{"id":2377450,"name":"Nouakchott","local":"Нуакшот","country":"MR","lat":18.086,"lon":-15.979,"pop":1184530,"tz":"Africa/Nouakchott"},{"id":6611854,"name":"Nay Pyi Taw","local":"Нейпьидо","country":"MM","lat":19.745,"lon":96.13,"pop":925000,"tz":"Asia/Yangon"},{"id":3172394,"name":"Naples","local":"Неаполь","country":"IT","lat":40.852,"lon":14.268,"pop":909048,"tz":"Europe/Rome"},{"id":3394023,"name":"Natal","local":"Натал","country":"BR","lat":-5.795,"lon":-35.209,"pop":896708,"tz":"America/Fortaleza"},{"id":3522790,"name":"Naucalpan de Juarez","local":"Наукальпан-де-Хуарес","country":"MX","lat":19.479,"lon":-99.24,"pop":834434,"tz":"America/Mexico_City"},{"id":3456160,"name":"Nova Iguacu","local":"Нова-Игуасу","country":"BR","lat":-22.759,"lon":-43.451,"pop":823302,"tz":"America/Sao_Paulo"},{"id":1261809,"name":"Narela","local":"Narela","country":"IN","lat":28.853,"lon":77.093,"pop":800000,"tz":"Asia/Kolkata"},{"id":1855431,"name":"Niigata","local":"Ниигата","country":"JP","lat":37.923,"lon":139.041,"pop":797591,"tz":"Asia/Tokyo"},{"id":1033356,"name":"Nampula","local":"Нампула","country":"MZ","lat":-15.116,"lon":39.267,"pop":770379,"tz":"Africa/Maputo"},{"id":1513157,"name":"Namangan","local":"Наманган","country":"UZ","lat":40.998,"lon":71.673,"pop":713220,"tz":"Asia/Tashkent"},{"id":4644585,"name":"Nashville","local":"Нашвилл","country":"US","lat":36.166,"lon":-86.784,"pop":689447,"tz":"America/Chicago"},{"id":4645421,"name":"New South Memphis","local":"New South Memphis","country":"US","lat":35.087,"lon":-90.057,"pop":641608,"tz":"America/Chicago"},{"id":901344,"name":"Ndola","local":"Ндола","country":"ZM","lat":-12.959,"lon":28.637,"pop":627503,"tz":"Africa/Lusaka"},{"id":3489297,"name":"New Kingston","local":"New Kingston","country":"JM","lat":18.007,"lon":-76.783,"pop":583958,"tz":"America/Jamaica"},{"id":1572151,"name":"Nha Trang","local":"Нячанг","country":"VN","lat":12.245,"lon":109.194,"pop":579000,"tz":"Asia/Ho_Chi_Minh"},{"id":184622,"name":"Nakuru","local":"Накуру","country":"KE","lat":-0.307,"lon":36.072,"pop":570674,"tz":"Africa/Nairobi"},{"id":369004,"name":"Nyala","local":"Ньяла","country":"SD","lat":12.049,"lon":24.881,"pop":565734,"tz":"Africa/Khartoum"},{"id":98854,"name":"Nasiriyah","local":"Насирия","country":"IQ","lat":31.058,"lon":46.257,"pop":558400,"tz":"Asia/Baghdad"},{"id":1261977,"name":"Nanded","local":"Нандед","country":"IN","lat":19.16,"lon":77.315,"pop":550564,"tz":"Asia/Kolkata"},{"id":1261529,"name":"Nellore","local":"Неллуру","country":"IN","lat":14.45,"lon":79.987,"pop":547621,"tz":"Asia/Kolkata"},{"id":1496990,"name":"Novokuznetsk","local":"Новокузнецк","country":"RU","lat":53.758,"lon":87.136,"pop":539616,"tz":"Asia/Novokuznetsk"},{"id":10943053,"name":"Nansana","local":"Nansana","country":"UG","lat":0.364,"lon":32.529,"pop":532800,"tz":"Africa/Kampala"},{"id":2861650,"name":"Nuernberg","local":"Нюрнберг","country":"DE","lat":49.454,"lon":11.078,"pop":515543,"tz":"Europe/Berlin"},{"id":523750,"name":"Naberezhnyye Chelny","local":"Набережные Челны","country":"RU","lat":55.737,"lon":52.42,"pop":509870,"tz":"Europe/Moscow"},{"id":2155472,"name":"Newcastle","local":"Ньюкасл","country":"AU","lat":-32.93,"lon":151.78,"pop":508437,"tz":"Australia/Sydney"},{"id":103630,"name":"Najran","local":"Najrān","country":"SA","lat":17.493,"lon":44.128,"pop":505652,"tz":"Asia/Riyadh"},{"id":1855207,"name":"Nishinomiya","local":"Нисиномия","country":"JP","lat":34.716,"lon":135.332,"pop":485587,"tz":"Asia/Tokyo"},{"id":98860,"name":"Najaf","local":"Эн-Наджаф","country":"IQ","lat":32.026,"lon":44.346,"pop":482576,"tz":"Asia/Baghdad"},{"id":1799846,"name":"Nanping","local":"Наньпин","country":"CN","lat":26.645,"lon":118.174,"pop":467875,"tz":"Asia/Shanghai"},{"id":330186,"name":"Nazret","local":"Nazrēt","country":"ET","lat":8.55,"lon":39.267,"pop":456900,"tz":"Africa/Addis_Ababa"},{"id":3456283,"name":"Niteroi","local":"Нитерой","country":"BR","lat":-22.883,"lon":-43.104,"pop":456456,"tz":"America/Sao_Paulo"},{"id":1873757,"name":"Namp'o","local":"Нампхо","country":"KP","lat":38.737,"lon":125.408,"pop":455000,"tz":"Asia/Pyongyang"},{"id":1573517,"name":"Nam GJinh","local":"Намдинь","country":"VN","lat":20.434,"lon":106.177,"pop":448225,"tz":"Asia/Bangkok"},{"id":1806097,"name":"Ningde","local":"Ningde","country":"CN","lat":26.662,"lon":119.523,"pop":429260,"tz":"Asia/Shanghai"},{"id":3522551,"name":"Nuevo Laredo","local":"Нуэво-Ларедо","country":"MX","lat":27.476,"lon":-99.516,"pop":416055,"tz":"America/Matamoros"},{"id":1856177,"name":"Nagasaki","local":"Нагасаки","country":"JP","lat":32.75,"lon":129.883,"pop":409118,"tz":"Asia/Tokyo"},{"id":971421,"name":"Newcastle","local":"Newcastle","country":"ZA","lat":-27.758,"lon":29.932,"pop":404838,"tz":"Africa/Johannesburg"},{"id":520494,"name":"Nizhny Tagil","local":"Нижний Тагил","country":"RU","lat":57.919,"lon":59.965,"pop":381116,"tz":"Asia/Yekaterinburg"},{"id":1856215,"name":"Nagano","local":"Нагано","country":"JP","lat":36.65,"lon":138.183,"pop":372760,"tz":"Asia/Tokyo"},{"id":7483813,"name":"Natore","local":"Натор","country":"BD","lat":24.411,"lon":88.987,"pop":369138,"tz":"Asia/Dhaka"},{"id":1855612,"name":"Nara-shi","local":"Нара","country":"JP","lat":34.685,"lon":135.805,"pop":367353,"tz":"Asia/Tokyo"},{"id":1169116,"name":"Nawabshah","local":"Nawabshah","country":"PK","lat":26.239,"lon":68.404,"pop":363138,"tz":"Asia/Karachi"},{"id":4335045,"name":"New Orleans","local":"Новый Орлеан","country":"US","lat":29.955,"lon":-90.075,"pop":362701,"tz":"America/Chicago"},{"id":3673899,"name":"Neiva","local":"Нейва","country":"CO","lat":2.93,"lon":-75.28,"pop":357392,"tz":"America/Bogota"},{"id":8715035,"name":"Nakano","local":"Накано","country":"JP","lat":35.704,"lon":139.669,"pop":344880,"tz":"Asia/Tokyo"},{"id":2990440,"name":"Nice","local":"Ницца","country":"FR","lat":43.703,"lon":7.266,"pop":342669,"tz":"Europe/Paris"},{"id":601294,"name":"Nukus","local":"Нукус","country":"UZ","lat":42.459,"lon":59.606,"pop":332500,"tz":"Asia/Samarkand"},{"id":2990969,"name":"Nantes","local":"Нант","country":"FR","lat":47.217,"lon":-1.553,"pop":325070,"tz":"Europe/Paris"},{"id":2641170,"name":"Nottingham","local":"Ноттингем","country":"GB","lat":52.954,"lon":-1.15,"pop":323632,"tz":"Europe/London"},{"id":1261481,"name":"New Delhi","local":"Нью-Дели","country":"IN","lat":28.621,"lon":77.215,"pop":317797,"tz":"Asia/Kolkata"},{"id":1856035,"name":"Naha","local":"Наха","country":"JP","lat":26.213,"lon":127.679,"pop":317625,"tz":"Asia/Tokyo"},{"id":7799991,"name":"New Cairo","local":"New Cairo","country":"EG","lat":30.03,"lon":31.47,"pop":313139,"tz":"Africa/Cairo"},{"id":1261258,"name":"Nizamabad","local":"Nizāmābād","country":"IN","lat":18.672,"lon":78.099,"pop":311152,"tz":"Asia/Kolkata"},{"id":1572532,"name":"Nghi Son","local":"Nghi Sơn","country":"VN","lat":19.327,"lon":105.821,"pop":302210,"tz":"Asia/Bangkok"},{"id":2641673,"name":"Newcastle upon Tyne","local":"Ньюкасл","country":"GB","lat":54.973,"lon":-1.614,"pop":300125,"tz":"Europe/London"},{"id":7279746,"name":"Noida","local":"Ноида","country":"IN","lat":28.58,"lon":77.33,"pop":293908,"tz":"Asia/Kolkata"},{"id":5101798,"name":"Newark","local":"Ньюарк","country":"US","lat":40.736,"lon":-74.172,"pop":281944,"tz":"America/New_York"},{"id":3522732,"name":"Nicolas Romero","local":"Сиудад Николас Ромеро","country":"MX","lat":19.642,"lon":-99.307,"pop":281799,"tz":"America/Mexico_City"},{"id":1185117,"name":"Narsingdi","local":"Narsingdi","country":"BD","lat":23.923,"lon":90.718,"pop":281080,"tz":"Asia/Dhaka"},{"id":1671467,"name":"Neihu","local":"Нэйху","country":"TW","lat":25.081,"lon":121.588,"pop":274538,"tz":"Asia/Taipei"},{"id":1193745,"name":"Nagar Naluakot","local":"Nagar Naluākot","country":"BD","lat":24.156,"lon":90.773,"pop":273000,"tz":"Asia/Dhaka"},{"id":1856199,"name":"Nagaoka","local":"Нагаока","country":"JP","lat":37.45,"lon":138.85,"pop":266936,"tz":"Asia/Tokyo"},{"id":4004886,"name":"Nogales","local":"Ногалес","country":"MX","lat":31.309,"lon":-110.942,"pop":264782,"tz":"America/Hermosillo"},{"id":1799471,"name":"Nianbo","local":"Nianbo","country":"CN","lat":36.48,"lon":102.416,"pop":260184,"tz":"Asia/Shanghai"},{"id":2185964,"name":"North Shore","local":"Норт-Шор","country":"NZ","lat":-36.8,"lon":174.75,"pop":258697,"tz":"Pacific/Auckland"},{"id":1800234,"name":"Nada","local":"Nada","country":"CN","lat":19.521,"lon":109.579,"pop":256652,"tz":"Asia/Shanghai"},{"id":3878431,"name":"Nunoa","local":"Нуньоа","country":"CL","lat":-33.447,"lon":-70.583,"pop":255823,"tz":"America/Santiago"},{"id":3456068,"name":"Novo Hamburgo","local":"Нову-Амбургу","country":"BR","lat":-29.678,"lon":-51.131,"pop":253841,"tz":"America/Sao_Paulo"},{"id":1262131,"name":"Naihati","local":"Naihāti","country":"IN","lat":22.894,"lon":88.415,"pop":253221,"tz":"Asia/Kolkata"},{"id":787657,"name":"Nis","local":"Ниш","country":"RS","lat":43.325,"lon":21.903,"pop":250000,"tz":"Europe/Belgrade"},{"id":1697846,"name":"Navotas","local":"Navotas","country":"PH","lat":14.667,"lon":120.95,"pop":249463,"tz":"Asia/Manila"},{"id":2641430,"name":"Northampton","local":"Нортгемптон","country":"GB","lat":52.25,"lon":-0.883,"pop":245899,"tz":"Europe/London"},{"id":1497543,"name":"Nizhnevartovsk","local":"Нижневартовск","country":"RU","lat":60.934,"lon":76.553,"pop":244937,"tz":"Asia/Yekaterinburg"},{"id":518255,"name":"Novorossiysk","local":"Новороссийск","country":"RU","lat":44.732,"lon":37.762,"pop":241856,"tz":"Europe/Moscow"},{"id":1035025,"name":"Nacala","local":"Город-де-Накала","country":"MZ","lat":-14.563,"lon":40.685,"pop":239808,"tz":"Africa/Maputo"},{"id":523523,"name":"Nalchik","local":"Нальчик","country":"RU","lat":43.498,"lon":43.619,"pop":239300,"tz":"Europe/Moscow"},{"id":6697563,"name":"Neyagawa","local":"Neyagawa","country":"JP","lat":34.766,"lon":135.628,"pop":238549,"tz":"Asia/Tokyo"},{"id":1185159,"name":"Nagarpur","local":"Nāgarpur","country":"BD","lat":24.058,"lon":89.877,"pop":238422,"tz":"Asia/Dhaka"},{"id":2224827,"name":"Ngaoundere","local":"Нгаундере","country":"CM","lat":7.328,"lon":13.585,"pop":238196,"tz":"Africa/Douala"},{"id":4776222,"name":"Norfolk","local":"Норфолк","country":"US","lat":36.847,"lon":-76.285,"pop":238005,"tz":"America/New_York"},{"id":418606,"name":"Najafabad","local":"Наджафабад","country":"IR","lat":32.635,"lon":51.365,"pop":235281,"tz":"Asia/Tehran"},{"id":5509403,"name":"North Las Vegas","local":"Норт-Лас-Вегас","country":"US","lat":36.199,"lon":-115.118,"pop":234807,"tz":"America/Los_Angeles"},{"id":521118,"name":"Nizhnekamsk","local":"Нижнекамск","country":"RU","lat":55.638,"lon":51.815,"pop":234297,"tz":"Europe/Moscow"},{"id":3843123,"name":"Neuquen","local":"Неукен","country":"AR","lat":-38.951,"lon":-68.059,"pop":231198,"tz":"America/Argentina/Salta"},{"id":1571951,"name":"Ninh Hoa","local":"Ninh Hòa","country":"VN","lat":12.492,"lon":109.125,"pop":230566,"tz":"Asia/Ho_Chi_Minh"},{"id":294071,"name":"Netanya","local":"Нетания","country":"IL","lat":32.333,"lon":34.86,"pop":228204,"tz":"Asia/Jerusalem"},{"id":3571824,"name":"Nassau","local":"Нассау","country":"BS","lat":25.058,"lon":-77.343,"pop":227940,"tz":"America/Nassau"},{"id":2864072,"name":"Neue Neustadt","local":"Нойштадт","country":"DE","lat":52.15,"lon":11.633,"pop":226851,"tz":"Europe/Berlin"},{"id":2416969,"name":"Nzerekore","local":"Нзерекоре","country":"GN","lat":7.756,"lon":-8.818,"pop":226426,"tz":"Africa/Conakry"},{"id":1262292,"name":"Nadiad","local":"Nadiād","country":"IN","lat":22.694,"lon":72.862,"pop":225071,"tz":"Asia/Kolkata"},{"id":1262204,"name":"Nagercoil","local":"Nāgercoil","country":"IN","lat":8.179,"lon":77.432,"pop":224849,"tz":"Asia/Kolkata"},{"id":1185155,"name":"Narayanganj","local":"Narayanganj","country":"BD","lat":23.614,"lon":90.503,"pop":223622,"tz":"Asia/Dhaka"},{"id":1680116,"name":"NIA Valencia","local":"Валенсия","country":"PH","lat":7.906,"lon":125.094,"pop":223620,"tz":"Asia/Manila"},{"id":122285,"name":"Neyshabur","local":"Нишапур","country":"IR","lat":36.213,"lon":58.796,"pop":220929,"tz":"Asia/Tehran"},{"id":3194360,"name":"Novi Sad","local":"Нови-Сад","country":"RS","lat":45.252,"lon":19.837,"pop":215400,"tz":"Europe/Belgrade"},{"id":122438,"name":"Nazarabad","local":"Naz̧arābād","country":"IR","lat":35.954,"lon":50.606,"pop":213388,"tz":"Asia/Tehran"},{"id":1261927,"name":"Nandyal","local":"Nandyāl","country":"IN","lat":15.478,"lon":78.484,"pop":211424,"tz":"Asia/Kolkata"},{"id":1850692,"name":"Nishi-Tokyo-shi","local":"Nishi-Tokyo-shi","country":"JP","lat":35.725,"lon":139.538,"pop":207388,"tz":"Asia/Tokyo"},{"id":1261913,"name":"Nangloi Jat","local":"Nāngloi Jāt","country":"IN","lat":28.68,"lon":77.068,"pop":205596,"tz":"Asia/Kolkata"},{"id":8544703,"name":"Nanchuan","local":"Nanchuan","country":"CN","lat":29.152,"lon":107.103,"pop":204775,"tz":"Asia/Shanghai"},{"id":146268,"name":"Nicosia","local":"Никосия","country":"CY","lat":35.173,"lon":33.354,"pop":200452,"tz":"Asia/Nicosia"},{"id":6672634,"name":"Nasim Shahr","local":"Nasīm Shahr","country":"IR","lat":35.565,"lon":51.163,"pop":200393,"tz":"Asia/Tehran"},{"id":13405749,"name":"Nasimshahr","local":"Nasimshahr","country":"IR","lat":35.565,"lon":51.158,"pop":200393,"tz":"Asia/Tehran"},{"id":1856184,"name":"Nagareyama","local":"Нагареяма","country":"JP","lat":35.856,"lon":139.903,"pop":200136,"tz":"Asia/Tokyo"},{"id":13512708,"name":"Nyingchi","local":"Nyingchi","country":"CN","lat":29.649,"lon":94.355,"pop":200000,"tz":"Asia/Shanghai"},{"id":184707,"name":"Naivasha","local":"Найваша","country":"KE","lat":-0.714,"lon":36.433,"pop":198444,"tz":"Africa/Nairobi"},{"id":2328765,"name":"Nnewi","local":"Ннюви","country":"NG","lat":6.02,"lon":6.917,"pop":193987,"tz":"Africa/Lagos"},{"id":3456223,"name":"Nossa Senhora do Socorro","local":"Nossa Senhora do Socorro","country":"BR","lat":-10.855,"lon":-37.126,"pop":192330,"tz":"America/Maceio"},{"id":3456166,"name":"Nova Friburgo","local":"Нова-Фрибургу","country":"BR","lat":-22.282,"lon":-42.531,"pop":191158,"tz":"America/Sao_Paulo"},{"id":1854902,"name":"Numazu","local":"Нумадзу","country":"JP","lat":35.1,"lon":138.867,"pop":189486,"tz":"Asia/Tokyo"},{"id":4776024,"name":"Newport News","local":"Ньюпорт-Ньюс","country":"US","lat":36.98,"lon":-76.43,"pop":186247,"tz":"America/New_York"},{"id":6087029,"name":"Nepean","local":"Непин","country":"CA","lat":45.336,"lon":-75.722,"pop":180000,"tz":"America/Toronto"},{"id":1261473,"name":"Neyveli","local":"Neyveli","country":"IN","lat":11.609,"lon":79.499,"pop":179150,"tz":"Asia/Kolkata"},{"id":227812,"name":"Njeru","local":"Njeru","country":"UG","lat":0.442,"lon":33.179,"pop":178800,"tz":"Africa/Kampala"},{"id":2750053,"name":"Nijmegen","local":"Неймеген","country":"NL","lat":51.843,"lon":5.853,"pop":177359,"tz":"Europe/Amsterdam"},{"id":2541479,"name":"Nador","local":"Надор","country":"MA","lat":35.168,"lon":-2.934,"pop":176600,"tz":"Africa/Casablanca"},{"id":11612347,"name":"Narashino","local":"Narashino","country":"JP","lat":35.682,"lon":140.042,"pop":176197,"tz":"Asia/Tokyo"},{"id":1698829,"name":"Naga","local":"Наги","country":"PH","lat":13.619,"lon":123.181,"pop":174931,"tz":"Asia/Manila"},{"id":1261653,"name":"Navsari","local":"Navsari","country":"IN","lat":20.942,"lon":72.925,"pop":171109,"tz":"Asia/Kolkata"},{"id":1855189,"name":"Nishio","local":"Нисио","country":"JP","lat":34.867,"lon":137.05,"pop":169984,"tz":"Asia/Tokyo"},{"id":518970,"name":"Novocherkassk","local":"Новочеркасск","country":"RU","lat":47.422,"lon":40.094,"pop":166974,"tz":"Europe/Moscow"},{"id":6252065,"name":"Nou Barris","local":"Nou Barris","country":"ES","lat":41.442,"lon":2.177,"pop":166310,"tz":"Europe/Madrid"},{"id":6941099,"name":"Nepalgunj","local":"Непалгун","country":"NP","lat":28.05,"lon":81.617,"pop":166258,"tz":"Asia/Kathmandu"},{"id":6822138,"name":"Niiza","local":"Ниидза","country":"JP","lat":35.821,"lon":139.558,"pop":166017,"tz":"Asia/Tokyo"},{"id":2864695,"name":"Neukoelln","local":"Neukölln","country":"DE","lat":52.477,"lon":13.431,"pop":164636,"tz":"Europe/Berlin"},{"id":523064,"name":"Nazran","local":"Назрань","country":"RU","lat":43.226,"lon":44.773,"pop":164131,"tz":"Europe/Moscow"},{"id":1799389,"name":"Ning'er","local":"Ning’er","country":"CN","lat":23.041,"lon":101.037,"pop":162711,"tz":"Asia/Shanghai"},{"id":2223763,"name":"Nkongsamba","local":"Нконгсамба","country":"CM","lat":4.955,"lon":9.94,"pop":162309,"tz":"Africa/Douala"},{"id":2239076,"name":"N'dalatando","local":"N'dalatando","country":"AO","lat":-9.298,"lon":14.912,"pop":161584,"tz":"Africa/Luanda"},{"id":2641598,"name":"Newport","local":"Ньюпорт","country":"GB","lat":51.588,"lon":-2.998,"pop":161506,"tz":"Europe/London"},{"id":700022,"name":"Nyzhnyodniprovsk","local":"Нижнеднепровск","country":"UA","lat":48.475,"lon":35.117,"pop":160123,"tz":"Europe/Kyiv"},{"id":6087790,"name":"Newton","local":"Newton","country":"CA","lat":49.133,"lon":-122.85,"pop":159390,"tz":"America/Vancouver"},{"id":1608258,"name":"Nong Chok","local":"Nong Chok","country":"TH","lat":13.856,"lon":100.862,"pop":157138,"tz":"Asia/Bangkok"},{"id":2035644,"name":"Nanpiao","local":"Nanpiao","country":"CN","lat":41.098,"lon":120.748,"pop":157044,"tz":"Asia/Shanghai"},{"id":330118,"name":"Nek'emte","local":"Nek’emtē","country":"ET","lat":9.083,"lon":36.55,"pop":156000,"tz":"Africa/Addis_Ababa"},{"id":1262067,"name":"Nalgonda","local":"Налгонда","country":"IN","lat":17.054,"lon":79.267,"pop":154326,"tz":"Asia/Kolkata"},{"id":1855078,"name":"Noda","local":"Нода","country":"JP","lat":35.949,"lon":139.868,"pop":154114,"tz":"Asia/Tokyo"},{"id":2864118,"name":"Neuss","local":"Нойс","country":"DE","lat":51.198,"lon":6.685,"pop":152457,"tz":"Europe/Berlin"},{"id":1608236,"name":"Nong Khaem","local":"Nong Khaem","country":"TH","lat":13.705,"lon":100.349,"pop":150218,"tz":"Asia/Bangkok"},{"id":2990363,"name":"Nimes","local":"Ним","country":"FR","lat":43.837,"lon":4.358,"pop":148236,"tz":"Europe/Paris"},{"id":3456290,"name":"Nilopolis","local":"Нилополис","country":"BR","lat":-22.808,"lon":-43.414,"pop":147281,"tz":"America/Sao_Paulo"},{"id":4903279,"name":"Naperville","local":"Нейпервилл","country":"US","lat":41.786,"lon":-88.147,"pop":147100,"tz":"America/Chicago"},{"id":2019528,"name":"Nakhodka","local":"Находка","country":"RU","lat":42.844,"lon":132.918,"pop":146920,"tz":"Asia/Vladivostok"},{"id":2377457,"name":"Nouadhibou","local":"Нуадибу","country":"MR","lat":20.942,"lon":-17.038,"pop":146048,"tz":"Africa/Nouakchott"},{"id":1513131,"name":"Navoiy","local":"Навои","country":"UZ","lat":40.084,"lon":65.379,"pop":144158,"tz":"Asia/Samarkand"},{"id":8417607,"name":"Nanjin","local":"Nanjin","country":"CN","lat":29.985,"lon":106.265,"pop":143766,"tz":"Asia/Shanghai"},{"id":2641181,"name":"Norwich","local":"Норидж","country":"GB","lat":52.628,"lon":1.298,"pop":143135,"tz":"Europe/London"},{"id":517121,"name":"Novyye Kuz'minki","local":"Новые Кузьминки","country":"RU","lat":55.7,"lon":37.75,"pop":143000,"tz":"Europe/Moscow"},{"id":1337240,"name":"Nawabganj","local":"Nawābganj","country":"BD","lat":24.59,"lon":88.274,"pop":142361,"tz":"Asia/Dhaka"},{"id":1497337,"name":"Norilsk","local":"Норильск","country":"RU","lat":69.353,"lon":88.203,"pop":140800,"tz":"Asia/Krasnoyarsk"},{"id":1697497,"name":"Norzagaray","local":"Norzagaray","country":"PH","lat":14.911,"lon":121.049,"pop":140697,"tz":"Asia/Manila"},{"id":970566,"name":"Nigel","local":"Найджел","country":"ZA","lat":-26.431,"lon":28.477,"pop":140644,"tz":"Africa/Johannesburg"},{"id":1698839,"name":"Naga","local":"Naga","country":"PH","lat":10.209,"lon":123.758,"pop":138727,"tz":"Asia/Manila"},{"id":866153,"name":"Nor Nork","local":"Nor Nork","country":"AM","lat":40.197,"lon":44.567,"pop":137300,"tz":"Asia/Yerevan"},{"id":1233369,"name":"Negombo","local":"Негомбо","country":"LK","lat":7.208,"lon":79.836,"pop":137223,"tz":"Asia/Colombo"},{"id":522377,"name":"Nevinnomyssk","local":"Невинномысск","country":"RU","lat":44.633,"lon":41.944,"pop":134345,"tz":"Europe/Moscow"},{"id":2111684,"name":"Narita","local":"Нарита","country":"JP","lat":35.783,"lon":140.317,"pop":132906,"tz":"Asia/Tokyo"},{"id":518557,"name":"Novomoskovsk","local":"Новомосковск","country":"RU","lat":54.011,"lon":38.291,"pop":130982,"tz":"Europe/Moscow"},{"id":1169278,"name":"Narowal","local":"Narowal","country":"PK","lat":32.102,"lon":74.873,"pop":130692,"tz":"Asia/Karachi"},{"id":1913126,"name":"Nantou","local":"Nantou","country":"CN","lat":22.722,"lon":113.293,"pop":130370,"tz":"Asia/Shanghai"},{"id":282615,"name":"Nablus","local":"Наблус","country":"PS","lat":32.221,"lon":35.254,"pop":130326,"tz":"Asia/Hebron"},{"id":4839366,"name":"New Haven","local":"Нью-Хейвен","country":"US","lat":41.308,"lon":-72.928,"pop":130322,"tz":"America/New_York"},{"id":2641674,"name":"Newcastle under Lyme","local":"Newcastle under Lyme","country":"GB","lat":53.0,"lon":-2.233,"pop":129441,"tz":"Europe/London"},{"id":8441115,"name":"Nimach","local":"Nimach","country":"IN","lat":24.459,"lon":74.866,"pop":128561,"tz":"Asia/Kolkata"},{"id":518976,"name":"Novocheboksarsk","local":"Новочебоксарск","country":"RU","lat":56.111,"lon":47.478,"pop":128468,"tz":"Europe/Moscow"},{"id":4543762,"name":"Norman","local":"Норман","country":"US","lat":35.223,"lon":-97.439,"pop":128026,"tz":"America/Chicago"},{"id":522942,"name":"Neftekamsk","local":"Нефтекамск","country":"RU","lat":56.089,"lon":54.264,"pop":126805,"tz":"Asia/Yekaterinburg"},{"id":1608529,"name":"Nakhon Ratchasima","local":"Накхонратчасима","country":"TH","lat":14.971,"lon":102.102,"pop":126391,"tz":"Asia/Bangkok"},{"id":13527308,"name":"Nossa Senhora de Fatima","local":"Nossa Senhora de Fátima","country":"CN","lat":22.208,"lon":113.548,"pop":126000,"tz":"Asia/Macau"},{"id":11205667,"name":"Ntuzuma","local":"Ntuzuma","country":"ZA","lat":-29.739,"lon":30.949,"pop":125394,"tz":"Africa/Johannesburg"},{"id":150930,"name":"Nzega","local":"Nzega","country":"TZ","lat":-4.217,"lon":33.183,"pop":125193,"tz":"Africa/Dar_es_Salaam"},{"id":1169027,"name":"New Mirpur City","local":"Мирпур","country":"PK","lat":33.148,"lon":73.752,"pop":124352,"tz":"Asia/Karachi"},{"id":1800130,"name":"Nancun","local":"Nancun","country":"CN","lat":36.533,"lon":120.134,"pop":124210,"tz":"Asia/Shanghai"},{"id":1855425,"name":"Niihama","local":"Ниихама","country":"JP","lat":33.96,"lon":133.305,"pop":123059,"tz":"Asia/Tokyo"},{"id":1261163,"name":"Nagaon","local":"Nagaon","country":"IN","lat":26.35,"lon":92.667,"pop":121628,"tz":"Asia/Kolkata"},{"id":4839745,"name":"North Stamford","local":"North Stamford","country":"US","lat":41.138,"lon":-73.543,"pop":121230,"tz":"America/New_York"},{"id":278913,"name":"Nabatiye et Tahta","local":"Nabatîyé et Tahta","country":"LB","lat":33.379,"lon":35.484,"pop":120000,"tz":"Asia/Beirut"},{"id":1855095,"name":"Nobeoka","local":"Нобеока","country":"JP","lat":32.583,"lon":131.667,"pop":119521,"tz":"Asia/Tokyo"},{"id":406462,"name":"Nazarabad","local":"Naz̧arābād","country":"IR","lat":35.61,"lon":51.161,"pop":119512,"tz":"Asia/Tehran"},{"id":303873,"name":"Nazilli","local":"Назилли","country":"TR","lat":37.916,"lon":28.322,"pop":119370,"tz":"Europe/Istanbul"},{"id":1800175,"name":"Nanbin","local":"Nanbin","country":"CN","lat":29.999,"lon":108.109,"pop":118597,"tz":"Asia/Shanghai"},{"id":1572526,"name":"Nghi Xuan","local":"Nghi Xuân","country":"VN","lat":18.658,"lon":105.752,"pop":118000,"tz":"Asia/Bangkok"},{"id":1269939,"name":"Narmadapuram","local":"Хошангабад","country":"IN","lat":22.747,"lon":77.727,"pop":117988,"tz":"Asia/Kolkata"},{"id":1608534,"name":"Nakhon Pathom","local":"Накхонпатхом","country":"TH","lat":13.82,"lon":100.044,"pop":117927,"tz":"Asia/Bangkok"},{"id":716935,"name":"Nyiregyhaza","local":"Ньиредьхаза","country":"HU","lat":47.955,"lon":21.717,"pop":117689,"tz":"Europe/Budapest"},{"id":1261848,"name":"Narasaraopet","local":"Narasaraopet","country":"IN","lat":16.235,"lon":80.049,"pop":117489,"tz":"Asia/Kolkata"},{"id":520068,"name":"Noginsk","local":"Ногинск","country":"RU","lat":55.865,"lon":38.449,"pop":115979,"tz":"Europe/Moscow"},{"id":6822174,"name":"Nasushiobara","local":"Насусиобара","country":"JP","lat":36.977,"lon":140.066,"pop":115794,"tz":"Asia/Tokyo"},{"id":511510,"name":"Novo-Peredelkino","local":"Ново-Переделкино","country":"RU","lat":55.645,"lon":37.336,"pop":115536,"tz":"Europe/Moscow"},{"id":3995019,"name":"Navojoa","local":"Навохоа","country":"MX","lat":27.071,"lon":-109.443,"pop":113836,"tz":"America/Hermosillo"},{"id":1856243,"name":"Nagahama","local":"Нагахама","country":"JP","lat":35.383,"lon":136.267,"pop":113636,"tz":"Asia/Tokyo"},{"id":2862375,"name":"Nippes","local":"Nippes","country":"DE","lat":50.965,"lon":6.953,"pop":113487,"tz":"Europe/Berlin"},{"id":4903976,"name":"North Peoria","local":"North Peoria","country":"US","lat":40.718,"lon":-89.584,"pop":113004,"tz":"America/Chicago"},{"id":1671444,"name":"Neili","local":"Neili","country":"TW","lat":24.973,"lon":121.261,"pop":112845,"tz":"Asia/Taipei"},{"id":1497917,"name":"Nefteyugansk","local":"Нефтеюганск","country":"RU","lat":61.1,"lon":72.603,"pop":112632,"tz":"Asia/Yekaterinburg"},{"id":518659,"name":"Novokuybyshevsk","local":"Новокуйбышевск","country":"RU","lat":53.097,"lon":49.94,"pop":111800,"tz":"Europe/Samara"},{"id":3456147,"name":"Nova Lima","local":"Нова-Лима","country":"BR","lat":-19.986,"lon":-43.847,"pop":111697,"tz":"America/Sao_Paulo"},{"id":1261669,"name":"Navadwip","local":"Навадвип","country":"IN","lat":23.407,"lon":88.369,"pop":111123,"tz":"Asia/Kolkata"},{"id":1261931,"name":"Nandurbar","local":"Нандурбар","country":"IN","lat":21.367,"lon":74.241,"pop":111037,"tz":"Asia/Kolkata"},{"id":2328684,"name":"Nsukka","local":"Нсукка","country":"NG","lat":6.858,"lon":7.396,"pop":111017,"tz":"Africa/Lagos"},{"id":2328952,"name":"Nguru","local":"Nguru","country":"NG","lat":12.877,"lon":10.455,"pop":111014,"tz":"Africa/Lagos"},{"id":2790471,"name":"Namur","local":"Намюр","country":"BE","lat":50.467,"lon":4.867,"pop":110939,"tz":"Europe/Brussels"},{"id":1496503,"name":"Noyabrsk","local":"Ноябрьск","country":"RU","lat":63.193,"lon":75.437,"pop":110000,"tz":"Asia/Yekaterinburg"},{"id":4589387,"name":"North Charleston","local":"Норт-Чарлстон","country":"US","lat":32.855,"lon":-79.975,"pop":108304,"tz":"America/New_York"},{"id":2035610,"name":"Nehe","local":"Нэхэ","country":"CN","lat":48.479,"lon":124.87,"pop":108253,"tz":"Asia/Shanghai"},{"id":5377995,"name":"Norwalk","local":"Норуолк","country":"US","lat":33.902,"lon":-118.082,"pop":107140,"tz":"America/Los_Angeles"},{"id":517836,"name":"Novotroitsk","local":"Новотроицк","country":"RU","lat":51.201,"lon":58.313,"pop":106186,"tz":"Asia/Yekaterinburg"},{"id":1671566,"name":"Nantou","local":"Наньтоу","country":"TW","lat":23.916,"lon":120.664,"pop":105682,"tz":"Asia/Taipei"},{"id":3456117,"name":"Nova Serrana","local":"Nova Serrana","country":"BR","lat":-19.876,"lon":-44.984,"pop":105552,"tz":"America/Sao_Paulo"},{"id":1262216,"name":"Nagaur","local":"Nāgaur","country":"IN","lat":27.202,"lon":73.734,"pop":105218,"tz":"Asia/Kolkata"},{"id":700051,"name":"Nikopol","local":"Никополь","country":"UA","lat":47.568,"lon":34.391,"pop":105160,"tz":"Europe/Kyiv"},{"id":2990999,"name":"Nancy","local":"Нанси","country":"FR","lat":48.684,"lon":6.185,"pop":105058,"tz":"Europe/Paris"},{"id":6317781,"name":"Novo Gama","local":"Novo Gama","country":"BR","lat":-16.059,"lon":-48.039,"pop":103804,"tz":"America/Sao_Paulo"},{"id":2328811,"name":"Nkpor","local":"Нкпор","country":"NG","lat":6.15,"lon":6.83,"pop":103733,"tz":"Africa/Lagos"},{"id":1262209,"name":"Nagda","local":"Nagda","country":"IN","lat":23.458,"lon":75.418,"pop":103501,"tz":"Asia/Kolkata"},{"id":8521334,"name":"Nkayi","local":"Nkayi","country":"CG","lat":-4.184,"lon":13.286,"pop":103000,"tz":"Africa/Brazzaville"},{"id":1262260,"name":"Nagapattinam","local":"Nagapattinam","country":"IN","lat":10.764,"lon":79.843,"pop":102905,"tz":"Asia/Kolkata"},{"id":183595,"name":"Ngong","local":"Ngong","country":"KE","lat":-1.353,"lon":36.67,"pop":102323,"tz":"Africa/Nairobi"},{"id":1151933,"name":"Nakhon Si Thammarat","local":"Накхонситхаммарат","country":"TH","lat":8.433,"lon":99.967,"pop":102152,"tz":"Asia/Bangkok"},{"id":3172189,"name":"Novara","local":"Новара","country":"IT","lat":45.447,"lon":8.621,"pop":101916,"tz":"Europe/Rome"},{"id":9534547,"name":"Nga Bay","local":"Ngã Bảy","country":"VN","lat":9.814,"lon":105.821,"pop":101192,"tz":"Asia/Ho_Chi_Minh"},{"id":4945121,"name":"New Bedford","local":"Нью-Бедфорд","country":"US","lat":41.635,"lon":-70.927,"pop":101079,"tz":"America/New_York"},{"id":517161,"name":"Novyye Cheremushki","local":"Новые Черёмушки","country":"RU","lat":55.7,"lon":37.583,"pop":101000,"tz":"Europe/Moscow"},{"id":99226,"name":"Nahiyat al Iskandariyah","local":"Nāḩiyat al Iskandarīyah","country":"IQ","lat":32.887,"lon":44.346,"pop":100600,"tz":"Asia/Baghdad"},{"id":201650,"name":"Nyagatare","local":"Nyagatare","country":"RW","lat":-1.295,"lon":30.323,"pop":100000,"tz":"Africa/Kigali"},{"id":6087892,"name":"Niagara Falls","local":"Ниагара-Фолс","country":"CA","lat":43.1,"lon":-79.066,"pop":99818,"tz":"America/Toronto"},{"id":517963,"name":"Novoshakhtinsk","local":"Новошахтинск","country":"RU","lat":47.76,"lon":39.933,"pop":99478,"tz":"Europe/Moscow"},{"id":1261631,"name":"Nawada","local":"Nawāda","country":"IN","lat":24.887,"lon":85.544,"pop":98029,"tz":"Asia/Kolkata"},{"id":13132732,"name":"Namalombwe","local":"Namalombwe","country":"ZM","lat":-15.391,"lon":28.19,"pop":97758,"tz":"Africa/Lusaka"},{"id":147429,"name":"Naxcivan","local":"Нахичевань","country":"AZ","lat":39.209,"lon":45.412,"pop":97200,"tz":"Asia/Baku"},{"id":1341204,"name":"Nowshera Cantonment","local":"Nowshera Cantonment","country":"PK","lat":33.998,"lon":71.998,"pop":96766,"tz":"Asia/Karachi"},{"id":1572585,"name":"Nghia GJo","local":"Nghĩa Đô","country":"VN","lat":21.05,"lon":105.8,"pop":96418,"tz":"Asia/Bangkok"},{"id":1799686,"name":"Nanxi","local":"Nanxi","country":"CN","lat":28.842,"lon":104.98,"pop":96061,"tz":"Asia/Shanghai"},{"id":624784,"name":"Novopolotsk","local":"Новополоцк","country":"BY","lat":55.526,"lon":28.593,"pop":95717,"tz":"Europe/Minsk"},{"id":518879,"name":"Novogireyevo","local":"Новогиреево","country":"RU","lat":55.754,"lon":37.819,"pop":95000,"tz":"Europe/Moscow"},{"id":3437665,"name":"Nemby","local":"Nemby","country":"PY","lat":-25.395,"lon":-57.536,"pop":94641,"tz":"America/Asuncion"},{"id":1496511,"name":"Novyy Urengoy","local":"Новый Уренгой","country":"RU","lat":66.083,"lon":76.633,"pop":94212,"tz":"Asia/Yekaterinburg"},{"id":1538636,"name":"Novoural'sk","local":"Новоуральск","country":"RU","lat":57.255,"lon":60.091,"pop":93849,"tz":"Asia/Yekaterinburg"},{"id":2688368,"name":"Norrkoeping","local":"Норрчёпинг","country":"SE","lat":58.594,"lon":16.183,"pop":93765,"tz":"Europe/Stockholm"},{"id":2139521,"name":"Noumea","local":"Нумеа","country":"NC","lat":-22.274,"lon":166.449,"pop":93060,"tz":"Pacific/Noumea"},{"id":2239069,"name":"Negage","local":"Негаге","country":"AO","lat":-7.759,"lon":15.272,"pop":92950,"tz":"Africa/Luanda"},{"id":2641157,"name":"Nuneaton","local":"Нанитон","country":"GB","lat":52.523,"lon":-1.465,"pop":92698,"tz":"Europe/London"},{"id":151479,"name":"Njombe","local":"Njombe","country":"TZ","lat":-9.349,"lon":34.772,"pop":92537,"tz":"Africa/Dar_es_Salaam"},{"id":8740209,"name":"Nasinu","local":"Nasinu","country":"FJ","lat":-18.071,"lon":178.513,"pop":92043,"tz":"Pacific/Fiji"},{"id":6822209,"name":"Nisshin","local":"Ниссин","country":"JP","lat":35.137,"lon":137.052,"pop":91795,"tz":"Asia/Tokyo"},{"id":175555,"name":"Nakonde","local":"Nakonde","country":"ZM","lat":-9.342,"lon":32.745,"pop":91107,"tz":"Africa/Lusaka"},{"id":303827,"name":"Nigde","local":"Нигде","country":"TR","lat":37.966,"lon":34.679,"pop":91039,"tz":"Europe/Istanbul"},{"id":6087701,"name":"Newmarket","local":"Ньюмаркет","country":"CA","lat":44.05,"lon":-79.466,"pop":91034,"tz":"America/Toronto"},{"id":1897122,"name":"Namyangju","local":"Намянджу","country":"KR","lat":37.637,"lon":127.214,"pop":90798,"tz":"Asia/Seoul"},{"id":6085772,"name":"Nanaimo","local":"Нанаймо","country":"CA","lat":49.166,"lon":-123.94,"pop":90504,"tz":"America/Vancouver"},{"id":2186239,"name":"New Plymouth","local":"Нью-Плимут","country":"NZ","lat":-39.067,"lon":174.083,"pop":90300,"tz":"Pacific/Auckland"},{"id":5601933,"name":"Nampa","local":"Нампа","country":"US","lat":43.541,"lon":-116.563,"pop":89839,"tz":"America/Boise"},{"id":1303406,"name":"Nyaunglebin","local":"Ньяунлебин","country":"MM","lat":17.954,"lon":96.722,"pop":89626,"tz":"Asia/Yangon"},{"id":256429,"name":"Nikaia","local":"Níkaia","country":"GR","lat":37.967,"lon":23.65,"pop":89380,"tz":"Europe/Athens"},{"id":303750,"name":"Nusaybin","local":"Нузайбин","country":"TR","lat":37.07,"lon":41.215,"pop":88977,"tz":"Europe/Istanbul"},{"id":8419425,"name":"Nandajie","local":"Nandajie","country":"CN","lat":29.338,"lon":105.892,"pop":88948,"tz":"Asia/Shanghai"},{"id":4945283,"name":"Newton","local":"Ньютон","country":"US","lat":42.337,"lon":-71.209,"pop":88817,"tz":"America/New_York"},{"id":4839822,"name":"Norwalk","local":"Норуолк","country":"US","lat":41.118,"lon":-73.408,"pop":88485,"tz":"America/New_York"},{"id":1261288,"name":"Nirmal","local":"Нирмала","country":"IN","lat":19.097,"lon":78.344,"pop":88433,"tz":"Asia/Kolkata"},{"id":6090785,"name":"North Vancouver","local":"Норт-Ванкувер","country":"CA","lat":49.316,"lon":-123.069,"pop":88168,"tz":"America/Vancouver"},{"id":1261470,"name":"Neyyattinkara","local":"Neyyāttinkara","country":"IN","lat":8.399,"lon":77.086,"pop":88104,"tz":"Asia/Kolkata"},{"id":11124382,"name":"Nowshera Kalan","local":"Nowshera Kalan","country":"PK","lat":34.019,"lon":71.974,"pop":88003,"tz":"Asia/Karachi"},{"id":5090046,"name":"Nashua","local":"Нашуа","country":"US","lat":42.765,"lon":-71.468,"pop":87970,"tz":"America/New_York"},{"id":2035601,"name":"Nenjiang","local":"Nenjiang","country":"CN","lat":49.174,"lon":125.22,"pop":87236,"tz":"Asia/Shanghai"},{"id":5376890,"name":"Newport Beach","local":"Newport Beach","country":"US","lat":33.619,"lon":-117.929,"pop":87127,"tz":"America/Los_Angeles"},{"id":884141,"name":"Norton","local":"Нортон","country":"ZW","lat":-17.883,"lon":30.7,"pop":87039,"tz":"Africa/Harare"},{"id":2990970,"name":"Nanterre","local":"Нантер","country":"FR","lat":48.892,"lon":2.207,"pop":86719,"tz":"Europe/Paris"},{"id":3456370,"name":"Navegantes","local":"Навегантис","country":"BR","lat":-26.899,"lon":-48.654,"pop":86401,"tz":"America/Sao_Paulo"},{"id":3058531,"name":"Nitra","local":"Нитра","country":"SK","lat":48.308,"lon":18.085,"pop":86329,"tz":"Europe/Bratislava"},{"id":1800088,"name":"Nanfeng","local":"Nanfeng","country":"CN","lat":23.727,"lon":111.797,"pop":86129,"tz":"Asia/Shanghai"},{"id":787595,"name":"Novi Pazar","local":"Нови-Пазар","country":"RS","lat":43.137,"lon":20.512,"pop":85996,"tz":"Europe/Belgrade"},{"id":4903360,"name":"Near North Side","local":"Near North Side","country":"US","lat":41.9,"lon":-87.635,"pop":85711,"tz":"America/Chicago"},{"id":1800107,"name":"Nanding","local":"Nanding","country":"CN","lat":36.748,"lon":118.056,"pop":85495,"tz":"Asia/Shanghai"},{"id":1855757,"name":"Nakatsu","local":"Накацу","country":"JP","lat":33.598,"lon":131.188,"pop":84701,"tz":"Asia/Tokyo"},{"id":763534,"name":"Nowy Sacz","local":"Новы-Сонч","country":"PL","lat":49.622,"lon":20.697,"pop":84376,"tz":"Europe/Warsaw"},{"id":1262109,"name":"Najibabad","local":"Najībābād","country":"IN","lat":29.612,"lon":78.343,"pop":84006,"tz":"Asia/Kolkata"},{"id":1799574,"name":"Nanzhang Chengguanzhen","local":"Nanzhang Chengguanzhen","country":"CN","lat":31.784,"lon":111.828,"pop":83604,"tz":"Asia/Shanghai"},{"id":1799348,"name":"Ningyang","local":"Ningyang","country":"CN","lat":35.764,"lon":116.791,"pop":82994,"tz":"Asia/Shanghai"},{"id":1800065,"name":"Nangong","local":"Nangong","country":"CN","lat":37.355,"lon":115.389,"pop":82386,"tz":"Asia/Shanghai"},{"id":303798,"name":"Nizip","local":"Низипе","country":"TR","lat":37.01,"lon":37.794,"pop":82308,"tz":"Europe/Istanbul"},{"id":1608527,"name":"Nakhon Sawan","local":"Накхонсаван","country":"TH","lat":15.705,"lon":100.137,"pop":82305,"tz":"Asia/Bangkok"},{"id":122698,"name":"Naqadeh","local":"Naqadeh","country":"IR","lat":36.955,"lon":45.388,"pop":81598,"tz":"Asia/Tehran"},{"id":1840379,"name":"Nangen","local":"Намвон","country":"KR","lat":35.41,"lon":127.386,"pop":81257,"tz":"Asia/Seoul"},{"id":1925936,"name":"Naeso","local":"Naesŏ","country":"KR","lat":35.25,"lon":128.52,"pop":80987,"tz":"Asia/Seoul"},{"id":1549667,"name":"Nianzhuang","local":"Nianzhuang","country":"CN","lat":34.297,"lon":117.772,"pop":80617,"tz":"Asia/Shanghai"},{"id":5376095,"name":"Napa","local":"Напа","country":"US","lat":38.297,"lon":-122.286,"pop":80434,"tz":"America/Los_Angeles"},{"id":2864475,"name":"Neumuenster","local":"Ноймюнстер","country":"DE","lat":54.074,"lon":9.985,"pop":80196,"tz":"Europe/Berlin"},{"id":182701,"name":"Nyeri","local":"Ньери","country":"KE","lat":-0.42,"lon":36.948,"pop":80081,"tz":"Africa/Nairobi"},{"id":5128549,"name":"New Rochelle","local":"Нью-Рошель","country":"US","lat":40.911,"lon":-73.782,"pop":79846,"tz":"America/New_York"},{"id":1261641,"name":"Nawabganj","local":"Nawābganj","country":"IN","lat":26.931,"lon":81.198,"pop":79246,"tz":"Asia/Kolkata"},{"id":1185116,"name":"Netrakona","local":"Netrakona","country":"BD","lat":24.884,"lon":90.729,"pop":79016,"tz":"Asia/Dhaka"},{"id":1855753,"name":"Nakatsugawa","local":"Накацугава","country":"JP","lat":35.483,"lon":137.5,"pop":78930,"tz":"Asia/Tokyo"},{"id":6087844,"name":"New Westminster","local":"Нью-Уэстминстер","country":"CA","lat":49.207,"lon":-122.911,"pop":78916,"tz":"America/Vancouver"},{"id":2111669,"name":"Natori-shi","local":"Natori-shi","country":"JP","lat":38.167,"lon":140.883,"pop":78718,"tz":"Asia/Tokyo"},{"id":175499,"name":"Nchelenge","local":"Нчеленге","country":"ZM","lat":-9.345,"lon":28.734,"pop":77746,"tz":"Africa/Lusaka"},{"id":1855395,"name":"Nikko","local":"Никко","country":"JP","lat":36.75,"lon":139.617,"pop":77661,"tz":"Asia/Tokyo"},{"id":2328617,"name":"Numan","local":"Numan","country":"NG","lat":9.464,"lon":12.031,"pop":77617,"tz":"Africa/Lagos"},{"id":294098,"name":"Nazareth","local":"Назарет","country":"IL","lat":32.701,"lon":35.297,"pop":77445,"tz":"Asia/Jerusalem"},{"id":1856293,"name":"Nabari","local":"Nabari","country":"JP","lat":34.617,"lon":136.083,"pop":77022,"tz":"Asia/Tokyo"},{"id":9212568,"name":"Neelankarai","local":"Ниланкарай","country":"IN","lat":12.95,"lon":80.259,"pop":76600,"tz":"Asia/Kolkata"},{"id":1262200,"name":"Nagina","local":"Nagīna","country":"IN","lat":29.444,"lon":78.436,"pop":76593,"tz":"Asia/Kolkata"},{"id":122915,"name":"Nahavand","local":"Нагаванде","country":"IR","lat":34.191,"lon":48.374,"pop":76250,"tz":"Asia/Tehran"},{"id":472732,"name":"Nagornyy","local":"Нагорный","country":"RU","lat":55.65,"lon":37.617,"pop":76000,"tz":"Europe/Moscow"},{"id":303831,"name":"Nevsehir","local":"Невшехир","country":"TR","lat":38.625,"lon":34.712,"pop":75527,"tz":"Europe/Istanbul"},{"id":12689055,"name":"Nam Cheong","local":"Nam Cheong","country":"HK","lat":22.328,"lon":114.154,"pop":74780,"tz":"Asia/Hong_Kong"},{"id":1261772,"name":"Narnaul","local":"Нарнаул","country":"IN","lat":28.044,"lon":76.108,"pop":74581,"tz":"Asia/Kolkata"},{"id":1799897,"name":"Nanma","local":"Nanma","country":"CN","lat":36.185,"lon":118.155,"pop":74406,"tz":"Asia/Shanghai"},{"id":3430443,"name":"Necochea","local":"Necochea","country":"AR","lat":-38.554,"lon":-58.74,"pop":73557,"tz":"America/Argentina/Buenos_Aires"},{"id":24851,"name":"Nurabad","local":"Нурабад","country":"IR","lat":34.073,"lon":47.972,"pop":73528,"tz":"Asia/Tehran"},{"id":330134,"name":"Negele","local":"Negēlē","country":"ET","lat":5.317,"lon":39.583,"pop":73100,"tz":"Africa/Addis_Ababa"},{"id":256575,"name":"Nea Smyrni","local":"Néa Smýrni","country":"GR","lat":37.945,"lon":23.714,"pop":73076,"tz":"Europe/Athens"},{"id":184433,"name":"Nanyuki","local":"Нанюки","country":"KE","lat":0.006,"lon":37.074,"pop":72813,"tz":"Africa/Nairobi"},{"id":4839292,"name":"New Britain","local":"Нью-Бритен","country":"US","lat":41.661,"lon":-72.78,"pop":72808,"tz":"America/New_York"},{"id":523426,"name":"Naro-Fominsk","local":"Наро-Фоминск","country":"RU","lat":55.388,"lon":36.733,"pop":72632,"tz":"Europe/Moscow"},{"id":13589205,"name":"Nutana Sector","local":"Nutana Sector","country":"CA","lat":52.1,"lon":-106.637,"pop":72564,"tz":"America/Regina"},{"id":286987,"name":"Nizwa","local":"Низва","country":"OM","lat":22.933,"lon":57.533,"pop":72076,"tz":"Asia/Muscat"},{"id":13580041,"name":"Nyvky","local":"Нивки","country":"UA","lat":50.465,"lon":30.406,"pop":71700,"tz":"Europe/Kyiv"},{"id":2862026,"name":"Norderstedt","local":"Нордерштедт","country":"DE","lat":53.702,"lon":9.993,"pop":71439,"tz":"Europe/Berlin"},{"id":4714131,"name":"New Braunfels","local":"Нью-Браунфелс","country":"US","lat":29.703,"lon":-98.124,"pop":70543,"tz":"America/Chicago"},{"id":2296969,"name":"Nungua","local":"Nungua","country":"GH","lat":5.601,"lon":-0.077,"pop":70483,"tz":"Africa/Accra"},{"id":2468579,"name":"Nabeul","local":"Набул","country":"TN","lat":36.456,"lon":10.738,"pop":70437,"tz":"Africa/Tunis"},{"id":11520454,"name":"Nallur","local":"Nallūr","country":"IN","lat":11.1,"lon":77.391,"pop":70115,"tz":"Asia/Kolkata"},{"id":8668557,"name":"Nui Thanh","local":"Núi Thành","country":"VN","lat":15.432,"lon":108.659,"pop":69406,"tz":"Asia/Ho_Chi_Minh"},{"id":4715292,"name":"North Richland Hills","local":"North Richland Hills","country":"US","lat":32.834,"lon":-97.229,"pop":69204,"tz":"America/Chicago"},{"id":1634131,"name":"Nganjuk","local":"Nganjuk","country":"ID","lat":-7.605,"lon":111.903,"pop":69011,"tz":"Asia/Jakarta"},{"id":5377985,"name":"Northridge","local":"Northridge","country":"US","lat":34.228,"lon":-118.537,"pop":68469,"tz":"America/Los_Angeles"},{"id":8581615,"name":"Nakivale Refugee Camp","local":"Nakivale Refugee Camp","country":"UG","lat":-0.741,"lon":30.996,"pop":68400,"tz":"Africa/Kampala"},{"id":1799384,"name":"Ninghai","local":"Ninghai","country":"CN","lat":29.289,"lon":121.425,"pop":68330,"tz":"Asia/Shanghai"},{"id":1572565,"name":"Nghia Lo","local":"Nghĩa Lộ","country":"VN","lat":21.6,"lon":104.517,"pop":68206,"tz":"Asia/Ho_Chi_Minh"},{"id":6091314,"name":"Notre-Dame-de-Grace","local":"Notre-Dame-de-Grâce","country":"CA","lat":45.477,"lon":-73.614,"pop":68152,"tz":"America/Toronto"},{"id":2866135,"name":"Neubrandenburg","local":"Нойбранденбурге","country":"DE","lat":53.557,"lon":13.261,"pop":68082,"tz":"Europe/Berlin"},{"id":1262319,"name":"Nabha","local":"Nābha","country":"IN","lat":30.376,"lon":76.153,"pop":67972,"tz":"Asia/Kolkata"},{"id":256614,"name":"Nea Ionia","local":"Néa Ionía","country":"GR","lat":38.036,"lon":23.757,"pop":67134,"tz":"Europe/Athens"},{"id":1633811,"name":"Nunukan","local":"Nunukan","country":"ID","lat":4.138,"lon":117.651,"pop":67006,"tz":"Asia/Makassar"},{"id":699942,"name":"Nizhyn","local":"Нежин","country":"UA","lat":51.048,"lon":31.887,"pop":66983,"tz":"Europe/Kyiv"},{"id":2863840,"name":"Neuwied","local":"Нойвид","country":"DE","lat":50.434,"lon":7.471,"pop":66805,"tz":"Europe/Berlin"},{"id":2186313,"name":"Napier","local":"Нейпир","country":"NZ","lat":-39.493,"lon":176.912,"pop":66800,"tz":"Pacific/Auckland"},{"id":4124112,"name":"North Little Rock","local":"Норт-Литл-Рок","country":"US","lat":34.77,"lon":-92.267,"pop":66504,"tz":"America/Chicago"},{"id":2019309,"name":"Neryungri","local":"Нерюнгри","country":"RU","lat":56.658,"lon":124.725,"pop":66320,"tz":"Asia/Yakutsk"},{"id":2392505,"name":"Nikki","local":"Никки","country":"BJ","lat":9.94,"lon":3.211,"pop":66109,"tz":"Africa/Porto-Novo"},{"id":2042500,"name":"Namyang-nodongjagu","local":"Namyang-nodongjagu","country":"KP","lat":42.954,"lon":129.857,"pop":65956,"tz":"Asia/Pyongyang"},{"id":1855410,"name":"Niitsu-honcho","local":"Niitsu-honchō","country":"JP","lat":37.8,"lon":139.122,"pop":65910,"tz":"Asia/Tokyo"},{"id":184379,"name":"Narok","local":"Narok","country":"KE","lat":-1.081,"lon":35.871,"pop":65430,"tz":"Africa/Nairobi"},{"id":2357109,"name":"Nioko I","local":"Nioko I","country":"BF","lat":12.395,"lon":-1.439,"pop":65263,"tz":"Africa/Ouagadougou"},{"id":5377654,"name":"North Hollywood","local":"Северный Голливуд","country":"US","lat":34.172,"lon":-118.379,"pop":64587,"tz":"America/Los_Angeles"},{"id":1855580,"name":"Narutocho-mitsuishi","local":"Narutochō-mitsuishi","country":"JP","lat":34.199,"lon":134.609,"pop":64082,"tz":"Asia/Tokyo"},{"id":1261613,"name":"Nawalgarh","local":"Навалгарх","country":"IN","lat":27.852,"lon":75.274,"pop":63948,"tz":"Asia/Kolkata"},{"id":2641520,"name":"Newtownabbey","local":"Ньютонэббей","country":"GB","lat":54.66,"lon":-5.909,"pop":63860,"tz":"Europe/London"},{"id":1608232,"name":"Nong Khai","local":"Нонгкхай","country":"TH","lat":17.878,"lon":102.742,"pop":63609,"tz":"Asia/Bangkok"},{"id":374272,"name":"New Halfa","local":"Хальфа-эль-Джадида","country":"SD","lat":15.33,"lon":35.599,"pop":63589,"tz":"Africa/Khartoum"},{"id":1856068,"name":"Nago","local":"Нага","country":"JP","lat":26.615,"lon":127.985,"pop":63554,"tz":"Asia/Tokyo"},{"id":5101879,"name":"North Bergen","local":"North Bergen","country":"US","lat":40.804,"lon":-74.012,"pop":63484,"tz":"America/New_York"},{"id":1799908,"name":"Nanlong","local":"Nanlong","country":"CN","lat":31.353,"lon":106.063,"pop":63405,"tz":"Asia/Shanghai"},{"id":579514,"name":"Novaya Balakhna","local":"Балахна","country":"RU","lat":56.49,"lon":43.601,"pop":63083,"tz":"Europe/Moscow"},{"id":2328790,"name":"Nkwerre","local":"Nkwerre","country":"NG","lat":5.759,"lon":7.104,"pop":62973,"tz":"Africa/Lagos"},{"id":1261309,"name":"Nipani","local":"Nipāni","country":"IN","lat":16.399,"lon":74.383,"pop":62865,"tz":"Asia/Kolkata"},{"id":1698030,"name":"Nasugbu","local":"Nasugbu","country":"PH","lat":14.067,"lon":120.632,"pop":62857,"tz":"Asia/Manila"},{"id":1261227,"name":"Nokha","local":"Nokha","country":"IN","lat":27.562,"lon":73.471,"pop":62699,"tz":"Asia/Kolkata"},{"id":206847,"name":"Nyunzu","local":"Nyunzu","country":"CD","lat":-5.956,"lon":28.016,"pop":62565,"tz":"Africa/Lubumbashi"},{"id":2397169,"name":"Ntoum","local":"Ntoum","country":"GA","lat":0.391,"lon":9.761,"pop":62445,"tz":"Africa/Libreville"},{"id":4166232,"name":"North Miami","local":"Норт-Майами","country":"US","lat":25.89,"lon":-80.187,"pop":62435,"tz":"America/New_York"},{"id":2990189,"name":"Noisy-le-Grand","local":"Шумная-ле-Гран","country":"FR","lat":48.85,"lon":2.563,"pop":62420,"tz":"Europe/Paris"},{"id":4166274,"name":"North Port","local":"Норт Појнт","country":"US","lat":27.044,"lon":-82.236,"pop":62345,"tz":"America/New_York"},{"id":1262240,"name":"Nagari","local":"Nagari","country":"IN","lat":13.321,"lon":79.586,"pop":62253,"tz":"Asia/Kolkata"},{"id":2311968,"name":"Nioki","local":"Ниоки","country":"CD","lat":-2.72,"lon":17.69,"pop":62153,"tz":"Africa/Kinshasa"},{"id":2035593,"name":"Nianzishan","local":"Nianzishan","country":"CN","lat":47.513,"lon":122.888,"pop":62131,"tz":"Asia/Shanghai"},{"id":1261739,"name":"Narwana","local":"Narwāna","country":"IN","lat":29.599,"lon":76.119,"pop":62090,"tz":"Asia/Kolkata"},{"id":3456138,"name":"Nova Odessa","local":"Nova Odessa","country":"BR","lat":-22.777,"lon":-47.296,"pop":62019,"tz":"America/Sao_Paulo"},{"id":1261369,"name":"Nimbahera","local":"Nīmbāhera","country":"IN","lat":24.622,"lon":74.68,"pop":61949,"tz":"Asia/Kolkata"},{"id":1800101,"name":"Nandu","local":"Nandu","country":"CN","lat":22.852,"lon":110.823,"pop":61881,"tz":"Asia/Shanghai"},{"id":430569,"name":"Ngozi","local":"Нгози","country":"BI","lat":-2.908,"lon":29.831,"pop":61716,"tz":"Africa/Bujumbura"},{"id":2750325,"name":"Nieuwegein","local":"Nieuwegein","country":"NL","lat":52.029,"lon":5.081,"pop":61489,"tz":"Europe/Amsterdam"},{"id":2990611,"name":"Neuilly-sur-Seine","local":"Нёйи-сюр-Сен","country":"FR","lat":48.885,"lon":2.27,"pop":61300,"tz":"Europe/Paris"},{"id":6317755,"name":"Nova Mutum","local":"Nova Mutum","country":"BR","lat":-13.829,"lon":-56.082,"pop":61223,"tz":"America/Cuiaba"},{"id":5376200,"name":"National City","local":"Нашенал-Сити","country":"US","lat":32.678,"lon":-117.099,"pop":61060,"tz":"America/Los_Angeles"},{"id":1497173,"name":"Novoaltaysk","local":"Новоалтайск","country":"RU","lat":53.414,"lon":83.941,"pop":61050,"tz":"Asia/Barnaul"},{"id":1800006,"name":"Nanhu","local":"Nanhu","country":"CN","lat":35.488,"lon":119.346,"pop":61034,"tz":"Asia/Shanghai"},{"id":6089125,"name":"Norfolk County","local":"Norfolk County","country":"CA","lat":42.833,"lon":-80.383,"pop":60847,"tz":"America/Toronto"},{"id":6089692,"name":"North Delta","local":"North Delta","country":"CA","lat":49.167,"lon":-122.917,"pop":60769,"tz":"America/Vancouver"},{"id":6317801,"name":"Novo Repartimento","local":"Novo Repartimento","country":"BR","lat":-4.331,"lon":-49.796,"pop":60732,"tz":"America/Belem"},{"id":11611613,"name":"Nagakute","local":"Nagakute","country":"JP","lat":35.173,"lon":137.057,"pop":60162,"tz":"Asia/Tokyo"},{"id":1261553,"name":"Nedumangad","local":"Nedumangād","country":"IN","lat":8.603,"lon":77.001,"pop":60161,"tz":"Asia/Kolkata"},{"id":2236360,"name":"Nzagi","local":"Nzagi","country":"AO","lat":-8.385,"lon":15.301,"pop":60000,"tz":"Africa/Luanda"},{"id":2377539,"name":"Nema","local":"Néma","country":"MR","lat":16.617,"lon":-7.256,"pop":60000,"tz":"Africa/Nouakchott"},{"id":1261754,"name":"Narsimhapur","local":"Narsimhapur","country":"IN","lat":22.949,"lon":79.184,"pop":59966,"tz":"Asia/Kolkata"},{"id":1261181,"name":"North Lakhimpur","local":"Северный Лакхимпур","country":"IN","lat":27.235,"lon":94.104,"pop":59841,"tz":"Asia/Kolkata"},{"id":1466012,"name":"Nerkunram","local":"Nerkunram","country":"IN","lat":13.062,"lon":80.209,"pop":59790,"tz":"Asia/Kolkata"},{"id":351434,"name":"Nag Hammadi","local":"Nag Hammâdi","country":"EG","lat":26.049,"lon":32.241,"pop":59601,"tz":"Africa/Cairo"},{"id":1261852,"name":"Narasapur","local":"Narasapur","country":"IN","lat":16.434,"lon":81.698,"pop":59306,"tz":"Asia/Kolkata"},{"id":351708,"name":"Nabaruh","local":"Nabarūh","country":"EG","lat":31.098,"lon":31.303,"pop":59202,"tz":"Africa/Cairo"},{"id":4924198,"name":"Noblesville","local":"Ноблсвил","country":"US","lat":40.046,"lon":-86.009,"pop":59093,"tz":"America/Indiana/Indianapolis"},{"id":5004062,"name":"Novi","local":"Новый","country":"US","lat":42.481,"lon":-83.475,"pop":58723,"tz":"America/Detroit"},{"id":1261110,"name":"Nuzvid","local":"Nūzvīd","country":"IN","lat":16.789,"lon":80.846,"pop":58590,"tz":"Asia/Kolkata"},{"id":13535606,"name":"Nga Nam","local":"Ngã Năm","country":"VN","lat":9.565,"lon":105.599,"pop":58588,"tz":"Asia/Ho_Chi_Minh"},{"id":3194494,"name":"Niksic","local":"Никшич","country":"ME","lat":42.773,"lon":18.944,"pop":58212,"tz":"Europe/Podgorica"},{"id":294117,"name":"Nahariyya","local":"Нагария","country":"IL","lat":33.009,"lon":35.098,"pop":58096,"tz":"Asia/Jerusalem"},{"id":1616464,"name":"Na Di","local":"Na Di","country":"TH","lat":14.115,"lon":101.782,"pop":57466,"tz":"Asia/Bangkok"},{"id":1262092,"name":"Naksalbari","local":"Naksalbāri","country":"IN","lat":26.683,"lon":88.22,"pop":57283,"tz":"Asia/Kolkata"},{"id":1854979,"name":"Nonoichi","local":"Ноноичи","country":"JP","lat":36.533,"lon":136.617,"pop":57238,"tz":"Asia/Tokyo"},{"id":121925,"name":"Nurabad","local":"Nūrābād","country":"IR","lat":30.114,"lon":51.522,"pop":57058,"tz":"Asia/Tehran"},{"id":5101717,"name":"New Brunswick","local":"Нью-Брансуик","country":"US","lat":40.486,"lon":-74.452,"pop":57035,"tz":"America/New_York"},{"id":5394409,"name":"North Hills","local":"North Hills","country":"US","lat":34.236,"lon":-118.485,"pop":56946,"tz":"America/Los_Angeles"},{"id":1799383,"name":"Ninghai","local":"Ninghai","country":"CN","lat":37.384,"lon":121.609,"pop":56937,"tz":"Asia/Shanghai"},{"id":8334622,"name":"Neu-Hohenschoenhausen","local":"Neu-Hohenschönhausen","country":"DE","lat":52.567,"lon":13.513,"pop":56921,"tz":"Europe/Berlin"},{"id":1855066,"name":"Nogata","local":"Nōgata","country":"JP","lat":33.741,"lon":130.723,"pop":56821,"tz":"Asia/Tokyo"},{"id":2035635,"name":"Nantai","local":"Nantai","country":"CN","lat":40.924,"lon":122.804,"pop":56478,"tz":"Asia/Shanghai"},{"id":1169372,"name":"Nankana Sahib","local":"Нанкана-Сахиб","country":"PK","lat":31.45,"lon":73.707,"pop":56366,"tz":"Asia/Karachi"},{"id":1262039,"name":"Namakkal","local":"Nāmakkal","country":"IN","lat":11.221,"lon":78.165,"pop":55997,"tz":"Asia/Kolkata"},{"id":3994616,"name":"Nuevo Casas Grandes","local":"Нуэво-Касас-Грандес","country":"MX","lat":30.416,"lon":-107.912,"pop":55553,"tz":"America/Chihuahua"},{"id":5378044,"name":"Novato","local":"Новато","country":"US","lat":38.107,"lon":-122.57,"pop":55530,"tz":"America/Los_Angeles"},{"id":1497951,"name":"Nazarovo","local":"Назарово","country":"RU","lat":56.011,"lon":90.417,"pop":55252,"tz":"Asia/Krasnoyarsk"},{"id":1698548,"name":"Naic","local":"Naic","country":"PH","lat":14.318,"lon":120.766,"pop":55195,"tz":"Asia/Manila"},{"id":4945588,"name":"North Chicopee","local":"North Chicopee","country":"US","lat":42.183,"lon":-72.6,"pop":55179,"tz":"America/New_York"},{"id":1185293,"name":"Narail","local":"Нарайл","country":"BD","lat":23.155,"lon":89.495,"pop":55112,"tz":"Asia/Dhaka"},{"id":2990355,"name":"Niort","local":"Ньор","country":"FR","lat":46.323,"lon":-0.459,"pop":54660,"tz":"Europe/Paris"},{"id":1799552,"name":"Nanzhou","local":"Nanzhou","country":"CN","lat":29.364,"lon":112.407,"pop":54449,"tz":"Asia/Shanghai"},{"id":590031,"name":"Narva","local":"Нарва","country":"EE","lat":59.377,"lon":28.19,"pop":54409,"tz":"Europe/Tallinn"},{"id":2186280,"name":"Nelson","local":"Нельсон","country":"NZ","lat":-41.271,"lon":173.284,"pop":54400,"tz":"Pacific/Auckland"},{"id":4903780,"name":"Normal","local":"Нормальная","country":"US","lat":40.514,"lon":-88.991,"pop":54373,"tz":"America/Chicago"},{"id":3631507,"name":"Nirgua","local":"Nirgua","country":"VE","lat":10.15,"lon":-68.565,"pop":54080,"tz":"America/Caracas"},{"id":3545841,"name":"Nuevitas","local":"Nuevitas","country":"CU","lat":21.546,"lon":-77.265,"pop":54022,"tz":"America/Havana"},{"id":2864054,"name":"Neustadt an der Weinstrasse","local":"Нойштадт-ан-дер-Вайнштрассе","country":"DE","lat":49.35,"lon":8.139,"pop":53984,"tz":"Europe/Berlin"},{"id":11520202,"name":"Nerupperichchal","local":"Nerupperichchal","country":"IN","lat":11.161,"lon":77.374,"pop":53579,"tz":"Asia/Kolkata"},{"id":2111656,"name":"Nihommatsu","local":"Nihommatsu","country":"JP","lat":37.583,"lon":140.433,"pop":53557,"tz":"Asia/Tokyo"},{"id":2392601,"name":"Natitingou","local":"Натитингу","country":"BJ","lat":10.304,"lon":1.38,"pop":53284,"tz":"Africa/Porto-Novo"},{"id":2111749,"name":"Naka","local":"Naka","country":"JP","lat":36.05,"lon":140.167,"pop":53137,"tz":"Asia/Tokyo"},{"id":8226485,"name":"Nayf","local":"Nāyf","country":"AE","lat":25.271,"lon":55.303,"pop":53075,"tz":"Asia/Dubai"},{"id":3617459,"name":"Nueva Guinea","local":"Nueva Guinea","country":"NI","lat":11.688,"lon":-84.456,"pop":52929,"tz":"America/Managua"},{"id":2861934,"name":"Nordhorn","local":"Нордхорн","country":"DE","lat":52.431,"lon":7.068,"pop":52803,"tz":"Europe/Berlin"},{"id":2452655,"name":"Niono","local":"Нионо","country":"ML","lat":14.251,"lon":-5.987,"pop":52584,"tz":"Africa/Bamako"},{"id":1033827,"name":"Nametil","local":"Nametil","country":"MZ","lat":-15.72,"lon":39.343,"pop":52457,"tz":"Africa/Maputo"},{"id":2128867,"name":"Noshiro","local":"Носиро","country":"JP","lat":40.208,"lon":140.027,"pop":52283,"tz":"Asia/Tokyo"},{"id":1496476,"name":"Nyagan","local":"Нягань","country":"RU","lat":62.141,"lon":65.394,"pop":52137,"tz":"Asia/Yekaterinburg"},{"id":2452651,"name":"Nioro","local":"Nioro","country":"ML","lat":15.231,"lon":-9.594,"pop":51933,"tz":"Africa/Bamako"},{"id":1261727,"name":"Nasirabad","local":"Nasīrābād","country":"IN","lat":26.305,"lon":74.734,"pop":51747,"tz":"Asia/Kolkata"},{"id":2863941,"name":"Neu-Ulm","local":"Ной-Ульм","country":"DE","lat":48.393,"lon":10.011,"pop":51389,"tz":"Europe/Berlin"},{"id":970341,"name":"Nkowakowa","local":"Nkowakowa","country":"ZA","lat":-23.888,"lon":30.287,"pop":51350,"tz":"Africa/Johannesburg"},{"id":1855476,"name":"Nichinan","local":"Нитинан","country":"JP","lat":31.6,"lon":131.367,"pop":51241,"tz":"Asia/Tokyo"},{"id":2866110,"name":"Neubrueck","local":"Neubrück","country":"DE","lat":51.134,"lon":6.639,"pop":51109,"tz":"Europe/Berlin"},{"id":13494597,"name":"Naya Gaon","local":"Naya Gaon","country":"IN","lat":30.775,"lon":76.793,"pop":50869,"tz":"Asia/Kolkata"},{"id":2990919,"name":"Narbonne","local":"Нарбонна","country":"FR","lat":43.184,"lon":3.001,"pop":50776,"tz":"Europe/Paris"},{"id":1261910,"name":"Nanjangud","local":"Nanjangūd","country":"IN","lat":12.118,"lon":76.684,"pop":50598,"tz":"Asia/Kolkata"},{"id":5264870,"name":"North La Crosse","local":"North La Crosse","country":"US","lat":43.846,"lon":-91.248,"pop":50470,"tz":"America/Chicago"},{"id":13157008,"name":"Nithari","local":"Nithari","country":"IN","lat":28.705,"lon":77.053,"pop":50464,"tz":"Asia/Kolkata"},{"id":3456368,"name":"Navirai","local":"Навираи","country":"BR","lat":-23.065,"lon":-54.191,"pop":50457,"tz":"America/Campo_Grande"},{"id":6089426,"name":"North Bay","local":"Норт-Бей","country":"CA","lat":46.317,"lon":-79.466,"pop":50396,"tz":"America/Toronto"},{"id":294074,"name":"Ness Ziona","local":"Нес-Циона","country":"IL","lat":31.929,"lon":34.799,"pop":50351,"tz":"Asia/Jerusalem"},{"id":1855670,"name":"Nanao","local":"Нанао","country":"JP","lat":37.048,"lon":136.968,"pop":50300,"tz":"Asia/Tokyo"},{"id":1799986,"name":"Nanjian","local":"Nanjian","country":"CN","lat":25.045,"lon":100.514,"pop":50083,"tz":"Asia/Shanghai"},{"id":1818086,"name":"Naxi","local":"Naxi","country":"CN","lat":28.774,"lon":105.365,"pop":50020,"tz":"Asia/Shanghai"},{"id":473127,"name":"Novovladykino","local":"Нововладыкино","country":"RU","lat":55.85,"lon":37.583,"pop":50000,"tz":"Europe/Moscow"},{"id":518657,"name":"Novokuz'minki","local":"Новокузьминки","country":"RU","lat":55.717,"lon":37.783,"pop":50000,"tz":"Europe/Moscow"},{"id":518740,"name":"Novokhovrino","local":"Новоховрино","country":"RU","lat":55.867,"lon":37.5,"pop":50000,"tz":"Europe/Moscow"},{"id":521500,"name":"Nikol'skoye","local":"Никольское","country":"RU","lat":55.683,"lon":37.483,"pop":50000,"tz":"Europe/Moscow"},{"id":3172287,"name":"Nettuno","local":"Неттуно","country":"IT","lat":41.458,"lon":12.664,"pop":49873,"tz":"Europe/Rome"},{"id":741304,"name":"Niksar","local":"Никсар","country":"TR","lat":40.592,"lon":36.952,"pop":49865,"tz":"Europe/Istanbul"},{"id":2864435,"name":"Neunkirchen","local":"Нойнкирхен","country":"DE","lat":49.344,"lon":7.18,"pop":49843,"tz":"Europe/Berlin"},{"id":1261234,"name":"Nohar","local":"Нохар","country":"IN","lat":29.183,"lon":74.771,"pop":49835,"tz":"Asia/Kolkata"},{"id":699035,"name":"Novovolynsk","local":"Нововолынск","country":"UA","lat":50.726,"lon":24.163,"pop":49772,"tz":"Europe/Kyiv"},{"id":1261784,"name":"Narkatiaganj","local":"Narkatiāganj","country":"IN","lat":27.104,"lon":84.462,"pop":49507,"tz":"Asia/Kolkata"},{"id":1185160,"name":"Nageswari","local":"Nageswari","country":"BD","lat":25.968,"lon":89.692,"pop":49425,"tz":"Asia/Dhaka"},{"id":7281987,"name":"Novena","local":"Novena","country":"SG","lat":1.317,"lon":103.844,"pop":49330,"tz":"Asia/Singapore"},{"id":1261696,"name":"Naugachhia","local":"Naugachhia","country":"IN","lat":25.388,"lon":87.099,"pop":49069,"tz":"Asia/Kolkata"},{"id":3456110,"name":"Nova Venecia","local":"Nova Venécia","country":"BR","lat":-18.711,"lon":-40.401,"pop":49065,"tz":"America/Sao_Paulo"},{"id":5128723,"name":"Niagara Falls","local":"Ниагара-Фолс","country":"US","lat":43.094,"lon":-79.057,"pop":48916,"tz":"America/New_York"},{"id":1513092,"name":"Novyy Turtkul'","local":"Novyy Turtkul’","country":"UZ","lat":41.55,"lon":61.017,"pop":48908,"tz":"Asia/Samarkand"},{"id":2297141,"name":"Nsawam","local":"Nsawam","country":"GH","lat":5.809,"lon":-0.35,"pop":48885,"tz":"Africa/Accra"},{"id":1737247,"name":"Niah","local":"Niah","country":"MY","lat":3.862,"lon":113.715,"pop":48875,"tz":"Asia/Kuching"},{"id":122397,"name":"Neka","local":"Нека","country":"IR","lat":36.651,"lon":53.299,"pop":48847,"tz":"Asia/Tehran"},{"id":11549994,"name":"Numancia","local":"Numancia","country":"ES","lat":40.4,"lon":-3.659,"pop":48720,"tz":"Europe/Madrid"},{"id":12324552,"name":"Ningdong","local":"Ningdong","country":"CN","lat":38.161,"lon":106.585,"pop":48587,"tz":"Asia/Shanghai"},{"id":6317707,"name":"Nova Andradina","local":"Нова-Андрадина","country":"BR","lat":-22.233,"lon":-53.343,"pop":48563,"tz":"America/Campo_Grande"},{"id":1303351,"name":"Nyaung-U","local":"Ньяунг-У","country":"MM","lat":21.201,"lon":94.908,"pop":48528,"tz":"Asia/Yangon"},{"id":6822143,"name":"Nomimachi","local":"Nomimachi","country":"JP","lat":36.41,"lon":136.485,"pop":48523,"tz":"Asia/Tokyo"},{"id":1697577,"name":"Norala","local":"Norala","country":"PH","lat":6.522,"lon":124.659,"pop":48499,"tz":"Asia/Manila"},{"id":1261922,"name":"Nangal","local":"Нангал","country":"IN","lat":31.39,"lon":76.376,"pop":48497,"tz":"Asia/Kolkata"},{"id":1261415,"name":"Nihtaur","local":"Nihtaur","country":"IN","lat":29.324,"lon":78.387,"pop":48389,"tz":"Asia/Kolkata"},{"id":1907242,"name":"Nihammatsu","local":"Nihammatsu","country":"JP","lat":35.373,"lon":139.392,"pop":48348,"tz":"Asia/Tokyo"},{"id":5164466,"name":"Newark","local":"Ньюарк","country":"US","lat":40.058,"lon":-82.401,"pop":47986,"tz":"America/New_York"},{"id":6694821,"name":"Nanto-shi","local":"Nanto-shi","country":"JP","lat":36.569,"lon":136.912,"pop":47976,"tz":"Asia/Tokyo"},{"id":6822123,"name":"Nanto","local":"Нанто","country":"JP","lat":36.513,"lon":136.894,"pop":47976,"tz":"Asia/Tokyo"},{"id":12640506,"name":"Nkawkaw","local":"Nkawkaw","country":"GH","lat":6.546,"lon":-0.763,"pop":47968,"tz":"Africa/Accra"},{"id":2247381,"name":"Nguekhokh","local":"Nguékhokh","country":"SN","lat":14.513,"lon":-17.004,"pop":47964,"tz":"Africa/Dakar"},{"id":1608409,"name":"Narathiwat","local":"Наратхиват","country":"TH","lat":6.426,"lon":101.823,"pop":47771,"tz":"Asia/Bangkok"},{"id":3172269,"name":"Nichelino","local":"Никелино","country":"IT","lat":45.0,"lon":7.653,"pop":47760,"tz":"Europe/Rome"},{"id":2641224,"name":"Northwich","local":"Нортвич","country":"GB","lat":53.259,"lon":-2.52,"pop":47421,"tz":"Europe/London"},{"id":3047679,"name":"Nagykanizsa","local":"Надьканижа","country":"HU","lat":46.453,"lon":16.991,"pop":47349,"tz":"Europe/Budapest"},{"id":3090436,"name":"Nysa","local":"Ныса","country":"PL","lat":50.474,"lon":17.334,"pop":47283,"tz":"Europe/Warsaw"},{"id":166365,"name":"Nawa","local":"Нава","country":"SY","lat":32.886,"lon":36.039,"pop":47066,"tz":"Asia/Damascus"},{"id":1854905,"name":"Numata","local":"Нумата","country":"JP","lat":36.633,"lon":139.05,"pop":46908,"tz":"Asia/Tokyo"},{"id":1914252,"name":"Nanpeng","local":"Nanpeng","country":"CN","lat":29.335,"lon":106.652,"pop":46786,"tz":"Asia/Shanghai"},{"id":1855907,"name":"Nakama","local":"Накама","country":"JP","lat":33.817,"lon":130.71,"pop":46745,"tz":"Asia/Tokyo"},{"id":8549414,"name":"Nantong","local":"Nantong","country":"CN","lat":28.944,"lon":106.882,"pop":46684,"tz":"Asia/Shanghai"},{"id":1261532,"name":"Nellikkuppam","local":"Nellikkuppam","country":"IN","lat":11.776,"lon":79.67,"pop":46678,"tz":"Asia/Kolkata"},{"id":11612330,"name":"Nankoku","local":"Nankoku","country":"JP","lat":33.569,"lon":133.649,"pop":46664,"tz":"Asia/Tokyo"},{"id":2128894,"name":"Noboribetsu","local":"Ноборибецу","country":"JP","lat":42.452,"lon":141.179,"pop":46391,"tz":"Asia/Tokyo"},{"id":1261398,"name":"Nilambur","local":"Nilambūr","country":"IN","lat":11.273,"lon":76.226,"pop":46366,"tz":"Asia/Kolkata"},{"id":1498087,"name":"Nadym","local":"Надым","country":"RU","lat":65.533,"lon":72.517,"pop":46339,"tz":"Asia/Yekaterinburg"},{"id":1261901,"name":"Nanpara","local":"Nānpāra","country":"IN","lat":27.865,"lon":81.5,"pop":46280,"tz":"Asia/Kolkata"},{"id":1697486,"name":"Noveleta","local":"Noveleta","country":"PH","lat":14.429,"lon":120.88,"pop":46172,"tz":"Asia/Manila"},{"id":2641843,"name":"Neath","local":"Нит","country":"GB","lat":51.663,"lon":-3.804,"pop":46126,"tz":"Europe/London"},{"id":1261598,"name":"Nawanshahr","local":"Nawanshahr","country":"IN","lat":31.125,"lon":76.116,"pop":46024,"tz":"Asia/Kolkata"},{"id":2864058,"name":"Neustadt am Ruebenberge","local":"Нойштадт-ам-Рюбенберге","country":"DE","lat":52.505,"lon":9.459,"pop":45942,"tz":"Europe/Berlin"},{"id":1261567,"name":"Nayudupet","local":"Nāyudupet","country":"IN","lat":13.907,"lon":79.895,"pop":45769,"tz":"Asia/Kolkata"},{"id":699871,"name":"Nova Darnytsya","local":"Нова Дарниця","country":"UA","lat":50.424,"lon":30.656,"pop":45700,"tz":"Europe/Kyiv"},{"id":3172244,"name":"Nocera Inferiore","local":"Nocera Inferiore","country":"IT","lat":40.745,"lon":14.645,"pop":45608,"tz":"Europe/Rome"},{"id":122289,"name":"Neyriz","local":"Neyrīz","country":"IR","lat":29.199,"lon":54.328,"pop":45506,"tz":"Asia/Tehran"},{"id":644171,"name":"Nurmijaervi","local":"Нурмиярви","country":"FI","lat":60.464,"lon":24.807,"pop":45356,"tz":"Europe/Helsinki"},{"id":1261957,"name":"Nandikotkur","local":"Nandikotkūr","country":"IN","lat":15.857,"lon":78.266,"pop":45343,"tz":"Asia/Kolkata"},{"id":5376803,"name":"Newark","local":"Ньюарк","country":"US","lat":37.53,"lon":-122.04,"pop":45336,"tz":"America/Los_Angeles"},{"id":12358514,"name":"Nongzhang","local":"Nongzhang","country":"CN","lat":24.616,"lon":97.882,"pop":45270,"tz":"Asia/Shanghai"},{"id":699839,"name":"Nova Kakhovka","local":"Новая Каховка","country":"UA","lat":46.76,"lon":33.356,"pop":44427,"tz":"Europe/Kyiv"},{"id":1261932,"name":"Nandura","local":"Nāndūra","country":"IN","lat":20.834,"lon":76.459,"pop":44419,"tz":"Asia/Kolkata"},{"id":2616038,"name":"Naestved","local":"Нествед","country":"DK","lat":55.23,"lon":11.761,"pop":44331,"tz":"Europe/Copenhagen"},{"id":330158,"name":"Nefas Mewch'a","local":"Nefas Mewch’a","country":"ET","lat":11.733,"lon":38.467,"pop":44200,"tz":"Africa/Addis_Ababa"},{"id":1261446,"name":"Nidadavole","local":"Nidadavole","country":"IN","lat":16.906,"lon":81.672,"pop":44173,"tz":"Asia/Kolkata"},{"id":6822223,"name":"Nanjo","local":"Nanjō","country":"JP","lat":26.144,"lon":127.767,"pop":44043,"tz":"Asia/Tokyo"},{"id":151920,"name":"Nansio","local":"Nansio","country":"TZ","lat":-2.133,"lon":33.05,"pop":44000,"tz":"Africa/Dar_es_Salaam"},{"id":2990474,"name":"Nevers","local":"Невер","country":"FR","lat":46.99,"lon":3.159,"pop":43988,"tz":"Europe/Paris"},{"id":122491,"name":"Natanz","local":"Naţanz","country":"IR","lat":33.511,"lon":51.918,"pop":43977,"tz":"Asia/Tehran"},{"id":4166233,"name":"North Miami Beach","local":"Северный Майами-Бич","country":"US","lat":25.933,"lon":-80.163,"pop":43971,"tz":"America/New_York"},{"id":2861982,"name":"Nordhausen","local":"Нордхаузен","country":"DE","lat":51.502,"lon":10.796,"pop":43912,"tz":"Europe/Berlin"},{"id":6946944,"name":"North Brunswick","local":"North Brunswick","country":"US","lat":40.454,"lon":-74.482,"pop":43905,"tz":"America/New_York"},{"id":1634614,"name":"Nabire","local":"Nabire","country":"ID","lat":-3.36,"lon":135.501,"pop":43898,"tz":"Asia/Jayapura"},{"id":1840211,"name":"Nonsan","local":"Нонсан","country":"KR","lat":36.204,"lon":127.085,"pop":43845,"tz":"Asia/Seoul"},{"id":1463107,"name":"Nyaung","local":"Nyaung","country":"MM","lat":16.835,"lon":96.088,"pop":43828,"tz":"Asia/Yangon"},{"id":4363843,"name":"North Bethesda","local":"Норт Бетесда","country":"US","lat":39.045,"lon":-77.119,"pop":43828,"tz":"America/New_York"},{"id":294068,"name":"Netivot","local":"Нетивот","country":"IL","lat":31.423,"lon":34.589,"pop":43732,"tz":"Asia/Jerusalem"},{"id":4166222,"name":"North Lauderdale","local":"Норт Лодердејл","country":"US","lat":26.217,"lon":-80.226,"pop":43703,"tz":"America/New_York"},{"id":294097,"name":"Nazerat 'Illit","local":"Naẕerat ‘Illit","country":"IL","lat":32.708,"lon":35.325,"pop":43556,"tz":"Asia/Jerusalem"},{"id":10263055,"name":"Nilithi","local":"Nilithi","country":"IN","lat":28.652,"lon":77.056,"pop":43371,"tz":"Asia/Kolkata"},{"id":2641731,"name":"Newark on Trent","local":"Newark on Trent","country":"GB","lat":53.067,"lon":-0.817,"pop":43363,"tz":"Europe/London"},{"id":10642464,"name":"Nakatogari","local":"Nakatogari","country":"JP","lat":35.135,"lon":138.903,"pop":43336,"tz":"Asia/Tokyo"},{"id":3430415,"name":"Nogoya","local":"Nogoyá","country":"AR","lat":-32.394,"lon":-59.79,"pop":43195,"tz":"America/Argentina/Cordoba"},{"id":1863978,"name":"Nishifukuma","local":"Nishifukuma","country":"JP","lat":33.766,"lon":130.475,"pop":43154,"tz":"Asia/Tokyo"},{"id":518909,"name":"Novodvinsk","local":"Новодвинск","country":"RU","lat":64.416,"lon":40.817,"pop":42900,"tz":"Europe/Moscow"},{"id":5377640,"name":"North Highlands","local":"Норт Хајландс","country":"US","lat":38.686,"lon":-121.372,"pop":42694,"tz":"America/Los_Angeles"},{"id":1855863,"name":"Nakano","local":"Накано","country":"JP","lat":36.75,"lon":138.367,"pop":42664,"tz":"Asia/Tokyo"},{"id":517269,"name":"Novozybkov","local":"Новозыбков","country":"RU","lat":52.537,"lon":31.937,"pop":42571,"tz":"Europe/Moscow"},{"id":1840536,"name":"Naju","local":"Наджу","country":"KR","lat":35.029,"lon":126.718,"pop":42459,"tz":"Asia/Seoul"},{"id":2866333,"name":"Nettetal","local":"Неттеталь","country":"DE","lat":51.317,"lon":6.283,"pop":42417,"tz":"Europe/Berlin"},{"id":1262117,"name":"Naini Tal","local":"Naini Tāl","country":"IN","lat":29.397,"lon":79.447,"pop":42309,"tz":"Asia/Kolkata"},{"id":2202064,"name":"Nadi","local":"Нанди","country":"FJ","lat":-17.803,"lon":177.416,"pop":42284,"tz":"Pacific/Fiji"},{"id":183334,"name":"Njoro","local":"Njoro","country":"KE","lat":-0.33,"lon":35.944,"pop":42173,"tz":"Africa/Nairobi"},{"id":1261711,"name":"Nathdwara","local":"Nāthdwāra","country":"IN","lat":24.938,"lon":73.824,"pop":42016,"tz":"Asia/Kolkata"},{"id":202572,"name":"Ndera","local":"Ndera","country":"RW","lat":-1.95,"lon":30.17,"pop":41764,"tz":"Africa/Kigali"},{"id":1261823,"name":"Narayanpet","local":"Nārāyanpet","country":"IN","lat":16.748,"lon":77.495,"pop":41752,"tz":"Asia/Kolkata"},{"id":1800217,"name":"Naliang","local":"Naliang","country":"CN","lat":21.667,"lon":107.867,"pop":41577,"tz":"Asia/Shanghai"},{"id":2247298,"name":"Niakoul Rab","local":"Niakoul Rab","country":"SN","lat":14.784,"lon":-17.274,"pop":41570,"tz":"Africa/Dakar"},{"id":227904,"name":"Nebbi","local":"Nebbi","country":"UG","lat":2.478,"lon":31.089,"pop":41400,"tz":"Africa/Kampala"},{"id":1855540,"name":"Naze","local":"Naze","country":"JP","lat":28.367,"lon":129.483,"pop":41365,"tz":"Asia/Tokyo"},{"id":2641690,"name":"Newburn","local":"Ньюбёрн","country":"GB","lat":54.988,"lon":-1.744,"pop":41347,"tz":"Europe/London"},{"id":3456240,"name":"Nossa Senhora da Gloria","local":"Nossa Senhora da Glória","country":"BR","lat":-10.218,"lon":-37.42,"pop":41212,"tz":"America/Maceio"},{"id":1527592,"name":"Naryn","local":"Нарын","country":"KG","lat":41.428,"lon":75.996,"pop":41178,"tz":"Asia/Bishkek"},{"id":1608239,"name":"Nong Khae","local":"Nong Khae","country":"TH","lat":14.341,"lon":100.867,"pop":41067,"tz":"Asia/Bangkok"},{"id":4903466,"name":"New City","local":"New City","country":"US","lat":41.808,"lon":-87.656,"pop":40997,"tz":"America/Chicago"},{"id":8400147,"name":"Nanmen","local":"Nanmen","country":"CN","lat":30.962,"lon":108.243,"pop":40941,"tz":"Asia/Shanghai"},{"id":2862606,"name":"Niendorf","local":"Ниндорф","country":"DE","lat":53.618,"lon":9.95,"pop":40906,"tz":"Europe/Berlin"},{"id":1169145,"name":"Naushahra Virkan","local":"Naushahra Virkan","country":"PK","lat":31.963,"lon":73.971,"pop":40853,"tz":"Asia/Karachi"},{"id":1261164,"name":"Nowgong","local":"Nowgong","country":"IN","lat":25.061,"lon":79.441,"pop":40580,"tz":"Asia/Kolkata"},{"id":10707024,"name":"Naila","local":"Nailā","country":"IN","lat":22.021,"lon":82.567,"pop":40561,"tz":"Asia/Kolkata"},{"id":8441929,"name":"Nannambra","local":"Nannambra","country":"IN","lat":10.992,"lon":75.908,"pop":40543,"tz":"Asia/Kolkata"},{"id":3090764,"name":"Nowa Sol","local":"Нова-Суль","country":"PL","lat":51.803,"lon":15.717,"pop":40354,"tz":"Europe/Warsaw"},{"id":2576483,"name":"Ngaoundal","local":"Ngaoundal","country":"CM","lat":6.5,"lon":13.267,"pop":40328,"tz":"Africa/Douala"},{"id":1262302,"name":"Nadapuram","local":"Nādāpuram","country":"IN","lat":11.685,"lon":75.655,"pop":40230,"tz":"Asia/Kolkata"},{"id":2861632,"name":"Nurtingen","local":"Нюртинген","country":"DE","lat":48.626,"lon":9.342,"pop":40210,"tz":"Europe/Berlin"},{"id":1799749,"name":"Nanshu","local":"Nanshu","country":"CN","lat":37.02,"lon":120.337,"pop":40188,"tz":"Asia/Shanghai"},{"id":2234942,"name":"Ndop","local":"Ndop","country":"CM","lat":5.988,"lon":10.439,"pop":40152,"tz":"Africa/Douala"},{"id":1285871,"name":"Nyaungdon","local":"Няунгдон","country":"MM","lat":17.045,"lon":95.64,"pop":40092,"tz":"Asia/Yangon"},{"id":1735086,"name":"Nibong Tebal","local":"Нибонг-Тебал","country":"MY","lat":5.166,"lon":100.478,"pop":40072,"tz":"Asia/Kuala_Lumpur"},{"id":121959,"name":"Nowshahr","local":"Nowshahr","country":"IR","lat":36.649,"lon":51.496,"pop":40000,"tz":"Asia/Tehran"},{"id":2524013,"name":"Nicastro","local":"Никастро","country":"IT","lat":38.971,"lon":16.313,"pop":40000,"tz":"Europe/Rome"},{"id":2404837,"name":"Njala","local":"Njala","country":"SL","lat":8.232,"lon":-12.016,"pop":40000,"tz":"Africa/Freetown"},{"id":151986,"name":"Namanyere","local":"Namanyere","country":"TZ","lat":-7.517,"lon":31.05,"pop":40000,"tz":"Africa/Dar_es_Salaam"},{"id":13546540,"name":"Novyi Lviv","local":"Новий Львів","country":"UA","lat":49.815,"lon":24.032,"pop":40000,"tz":"Europe/Kyiv"},{"id":4839843,"name":"Norwich","local":"Норидж","country":"US","lat":41.524,"lon":-72.076,"pop":39899,"tz":"America/New_York"},{"id":5264381,"name":"New Berlin","local":"Нью-Берлин","country":"US","lat":42.976,"lon":-88.108,"pop":39825,"tz":"America/Chicago"},{"id":2641267,"name":"North Shields","local":"North Shields","country":"GB","lat":55.016,"lon":-1.449,"pop":39747,"tz":"Europe/London"},{"id":2029901,"name":"Nalayh","local":"Nalayh","country":"MN","lat":47.767,"lon":107.283,"pop":39579,"tz":"Asia/Ulaanbaatar"},{"id":3592105,"name":"Nuevo San Carlos","local":"Nuevo San Carlos","country":"GT","lat":14.593,"lon":-91.694,"pop":39565,"tz":"America/Guatemala"},{"id":2864549,"name":"Neumarkt in der Oberpfalz","local":"Ноймаркт","country":"DE","lat":49.28,"lon":11.463,"pop":39557,"tz":"Europe/Berlin"},{"id":3456102,"name":"Nova Vicosa","local":"Nova Viçosa","country":"BR","lat":-17.892,"lon":-39.372,"pop":39509,"tz":"America/Bahia"},{"id":589947,"name":"Nomme","local":"Нымме","country":"EE","lat":59.378,"lon":24.686,"pop":39422,"tz":"Europe/Tallinn"},{"id":4166195,"name":"North Fort Myers","local":"North Fort Myers","country":"US","lat":26.667,"lon":-81.88,"pop":39407,"tz":"America/New_York"},{"id":330120,"name":"Nejo","local":"Nejo","country":"ET","lat":9.5,"lon":35.5,"pop":39400,"tz":"Africa/Addis_Ababa"},{"id":5433124,"name":"Northglenn","local":"Нортглен","country":"US","lat":39.886,"lon":-104.987,"pop":39197,"tz":"America/Denver"},{"id":151567,"name":"Nguruka","local":"Nguruka","country":"TZ","lat":-5.109,"lon":31.042,"pop":39135,"tz":"Africa/Dar_es_Salaam"},{"id":1261122,"name":"Nurpur","local":"Nūrpur","country":"IN","lat":29.15,"lon":78.408,"pop":39077,"tz":"Asia/Kolkata"},{"id":2990187,"name":"Noisy-le-Sec","local":"Шумная-ле-Сек","country":"FR","lat":48.891,"lon":2.465,"pop":38955,"tz":"Europe/Paris"},{"id":1357699,"name":"New Badah","local":"New Badah","country":"PK","lat":27.342,"lon":68.032,"pop":38855,"tz":"Asia/Karachi"},{"id":202557,"name":"Ngororero","local":"Нгорореро","country":"RW","lat":-1.863,"lon":29.625,"pop":38823,"tz":"Africa/Kigali"},{"id":2687700,"name":"Nykoeping","local":"Нючёпинг","country":"SE","lat":58.753,"lon":17.008,"pop":38780,"tz":"Europe/Stockholm"},{"id":1497549,"name":"Nizhneudinsk","local":"Нижнеудинск","country":"RU","lat":54.907,"lon":99.034,"pop":38723,"tz":"Asia/Irkutsk"},{"id":1185156,"name":"Nalchiti","local":"Nālchiti","country":"BD","lat":22.637,"lon":90.272,"pop":38703,"tz":"Asia/Dhaka"},{"id":1855134,"name":"Nishiwaki","local":"Нишиваки","country":"JP","lat":34.984,"lon":134.974,"pop":38673,"tz":"Asia/Tokyo"},{"id":13353564,"name":"Nattakam","local":"Nattakam","country":"IN","lat":9.545,"lon":76.514,"pop":38599,"tz":"Asia/Kolkata"},{"id":2750065,"name":"Nijkerk","local":"Nijkerk","country":"NL","lat":52.22,"lon":5.486,"pop":38335,"tz":"Europe/Amsterdam"},{"id":3456060,"name":"Novo Horizonte","local":"Novo Horizonte","country":"BR","lat":-21.468,"lon":-49.221,"pop":38324,"tz":"America/Sao_Paulo"},{"id":1261960,"name":"Nandigama","local":"Nandigāma","country":"IN","lat":16.772,"lon":80.286,"pop":38219,"tz":"Asia/Kolkata"},{"id":3994667,"name":"Nueva Rosita","local":"Нуэва-Росита","country":"MX","lat":27.937,"lon":-101.217,"pop":38158,"tz":"America/Monterrey"},{"id":10214289,"name":"Nildoh","local":"Nildoh","country":"IN","lat":21.111,"lon":78.989,"pop":38157,"tz":"Asia/Kolkata"},{"id":877532,"name":"Newala Kisimani","local":"Newala Kisimani","country":"TZ","lat":-10.95,"lon":39.283,"pop":38099,"tz":"Africa/Dar_es_Salaam"},{"id":7701510,"name":"Nongthymmai","local":"Нонгтхймаи","country":"IN","lat":25.564,"lon":91.906,"pop":38004,"tz":"Asia/Kolkata"},{"id":8593856,"name":"Neustadt/Sued","local":"Neustadt/Süd","country":"DE","lat":50.925,"lon":6.948,"pop":37939,"tz":"Europe/Berlin"},{"id":1634519,"name":"Namlea","local":"Namlea","country":"ID","lat":-3.262,"lon":127.093,"pop":37869,"tz":"Asia/Jayapura"},{"id":1261614,"name":"Niwai","local":"Niwai","country":"IN","lat":26.361,"lon":75.918,"pop":37765,"tz":"Asia/Kolkata"},{"id":3115739,"name":"Naron","local":"Нарон","country":"ES","lat":43.502,"lon":-8.191,"pop":37712,"tz":"Europe/Madrid"},{"id":10555165,"name":"Nangli Sakrawat","local":"Nangli Sakrawat","country":"IN","lat":28.622,"lon":76.992,"pop":37706,"tz":"Asia/Kolkata"},{"id":183027,"name":"Nyahururu","local":"Nyahururu","country":"KE","lat":0.038,"lon":36.363,"pop":37650,"tz":"Africa/Nairobi"},{"id":11838437,"name":"Neufchatel-Est-Lebourgneuf","local":"Neufchâtel-Est–Lebourgneuf","country":"CA","lat":46.854,"lon":-71.342,"pop":37540,"tz":"America/Toronto"},{"id":517716,"name":"Novovoronezh","local":"Нововоронеж","country":"RU","lat":51.315,"lon":39.219,"pop":37392,"tz":"Europe/Moscow"},{"id":4212684,"name":"Newnan","local":"Ньюнан","country":"US","lat":33.381,"lon":-84.8,"pop":37291,"tz":"America/New_York"},{"id":1261539,"name":"Nelamangala","local":"Nelamangala","country":"IN","lat":13.1,"lon":77.394,"pop":37232,"tz":"Asia/Kolkata"},{"id":1033797,"name":"Namialo","local":"Namialo","country":"MZ","lat":-14.921,"lon":39.984,"pop":37226,"tz":"Africa/Maputo"},{"id":1058080,"name":"Nosy Varika","local":"Nosy Varika","country":"MG","lat":-20.583,"lon":48.533,"pop":37152,"tz":"Indian/Antananarivo"},{"id":8541923,"name":"New Achimota","local":"New Achimota","country":"GH","lat":5.627,"lon":-0.258,"pop":37116,"tz":"Africa/Accra"},{"id":1262097,"name":"Nakodar","local":"Nakodar","country":"IN","lat":31.126,"lon":75.475,"pop":36973,"tz":"Asia/Kolkata"},{"id":1571968,"name":"Ninh Binh","local":"Нинь Бинь","country":"VN","lat":20.258,"lon":105.98,"pop":36864,"tz":"Asia/Bangkok"},{"id":596713,"name":"Naujoji Vilnia","local":"Нововильня","country":"LT","lat":54.695,"lon":25.42,"pop":36800,"tz":"Europe/Vilnius"},{"id":3058472,"name":"Nove Zamky","local":"Нове-Замки","country":"SK","lat":47.985,"lon":18.162,"pop":36781,"tz":"Europe/Bratislava"},{"id":4262045,"name":"New Albany","local":"Нью-Албани","country":"US","lat":38.286,"lon":-85.824,"pop":36732,"tz":"America/Kentucky/Louisville"},{"id":700261,"name":"Netishyn","local":"Нетешин","country":"UA","lat":50.329,"lon":26.649,"pop":36492,"tz":"Europe/Kyiv"},{"id":644450,"name":"Nokia","local":"Нокиа","country":"FI","lat":61.467,"lon":23.5,"pop":36486,"tz":"Europe/Helsinki"},{"id":2863223,"name":"Niederkassel","local":"Нидеркассель","country":"DE","lat":50.815,"lon":7.038,"pop":36480,"tz":"Europe/Berlin"},{"id":2641557,"name":"Newton Abbot","local":"Ньютон-Эббот","country":"GB","lat":50.529,"lon":-3.612,"pop":36474,"tz":"Europe/London"},{"id":518682,"name":"Novokubansk","local":"Новокубанск","country":"RU","lat":45.113,"lon":41.036,"pop":36401,"tz":"Europe/Moscow"},{"id":1261800,"name":"Nargund","local":"Наргунд","country":"IN","lat":15.723,"lon":75.387,"pop":36291,"tz":"Asia/Kolkata"},{"id":1261342,"name":"Neem ka Thana","local":"Neem ka Thana","country":"IN","lat":27.74,"lon":75.787,"pop":36231,"tz":"Asia/Kolkata"},{"id":1261396,"name":"Nilanga","local":"Ниланга","country":"IN","lat":18.117,"lon":76.753,"pop":36172,"tz":"Asia/Kolkata"},{"id":7302855,"name":"Naharlagun","local":"Нагарлагун","country":"IN","lat":27.105,"lon":93.695,"pop":36158,"tz":"Asia/Kolkata"},{"id":13353559,"name":"Neduva","local":"Neduva","country":"IN","lat":11.057,"lon":75.867,"pop":35996,"tz":"Asia/Kolkata"},{"id":1852385,"name":"Nishishinminato","local":"Nishishinminato","country":"JP","lat":36.78,"lon":137.076,"pop":35994,"tz":"Asia/Tokyo"},{"id":3172154,"name":"Nuoro","local":"Нуоро","country":"IT","lat":40.32,"lon":9.326,"pop":35948,"tz":"Europe/Rome"},{"id":1516789,"name":"Novokazalinsk","local":"Айтеке-Би","country":"KZ","lat":45.848,"lon":62.153,"pop":35883,"tz":"Asia/Qyzylorda"},{"id":3144631,"name":"Nesttun","local":"Nesttun","country":"NO","lat":60.318,"lon":5.353,"pop":35638,"tz":"Europe/Oslo"},{"id":2297289,"name":"Nkoranza","local":"Nkoranza","country":"GH","lat":7.571,"lon":-1.709,"pop":35401,"tz":"Africa/Accra"},{"id":2864820,"name":"Neu-Isenburg","local":"Ной-Изенбург","country":"DE","lat":50.048,"lon":8.694,"pop":35293,"tz":"Europe/Berlin"},{"id":4903940,"name":"North Lawndale","local":"North Lawndale","country":"US","lat":41.86,"lon":-87.718,"pop":35276,"tz":"America/Chicago"},{"id":11101616,"name":"N'diareme limamoulaye","local":"N’diareme limamoulaye","country":"SN","lat":14.781,"lon":-17.384,"pop":35171,"tz":"Africa/Dakar"},{"id":3069247,"name":"Nusle","local":"Nusle","country":"CZ","lat":50.065,"lon":14.44,"pop":35150,"tz":"Europe/Prague"},{"id":2283823,"name":"Ndouci","local":"Ndouci","country":"CI","lat":5.864,"lon":-4.761,"pop":35145,"tz":"Africa/Abidjan"},{"id":3376762,"name":"New Amsterdam","local":"Нью-Амстэрдам","country":"GY","lat":6.249,"lon":-57.516,"pop":35039,"tz":"America/Guyana"},{"id":2364752,"name":"Notse","local":"Notsé","country":"TG","lat":6.95,"lon":1.167,"pop":35039,"tz":"Africa/Lome"},{"id":3456398,"name":"Nanuque","local":"Nanuque","country":"BR","lat":-17.839,"lon":-40.354,"pop":35038,"tz":"America/Sao_Paulo"},{"id":1855341,"name":"Nishihara","local":"Nishihara","country":"JP","lat":26.254,"lon":127.744,"pop":34984,"tz":"Asia/Tokyo"},{"id":3456285,"name":"Niquelandia","local":"Никеландия","country":"BR","lat":-14.474,"lon":-48.46,"pop":34964,"tz":"America/Sao_Paulo"},{"id":877534,"name":"Newala","local":"Newala","country":"TZ","lat":-10.933,"lon":39.3,"pop":34862,"tz":"Africa/Dar_es_Salaam"},{"id":2790114,"name":"Ninove","local":"Нинове","country":"BE","lat":50.828,"lon":4.027,"pop":34795,"tz":"Europe/Brussels"},{"id":1169334,"name":"Narang Mandi","local":"Наранг","country":"PK","lat":31.904,"lon":74.516,"pop":34778,"tz":"Asia/Karachi"},{"id":3842881,"name":"Nueve de Julio","local":"Нев-де-Хулио","country":"AR","lat":-35.444,"lon":-60.885,"pop":34718,"tz":"America/Argentina/Buenos_Aires"},{"id":1855694,"name":"Namerikawa","local":"Намэрикава","country":"JP","lat":36.76,"lon":137.362,"pop":34638,"tz":"Asia/Tokyo"},{"id":4903858,"name":"North Center","local":"North Center","country":"US","lat":41.954,"lon":-87.679,"pop":34623,"tz":"America/Chicago"},{"id":1608531,"name":"Nakhon Phanom","local":"Nakhon Phanom","country":"TH","lat":17.411,"lon":104.779,"pop":34595,"tz":"Asia/Bangkok"},{"id":1855891,"name":"Nakamura","local":"Накамура","country":"JP","lat":32.983,"lon":132.933,"pop":34559,"tz":"Asia/Tokyo"},{"id":2990612,"name":"Neuilly-sur-Marne","local":"Нейи-сюр-Марн","country":"FR","lat":48.854,"lon":2.549,"pop":34465,"tz":"Europe/Paris"},{"id":516716,"name":"Nurlat","local":"Нурлат","country":"RU","lat":54.429,"lon":50.806,"pop":34451,"tz":"Europe/Moscow"},{"id":5203506,"name":"Norristown","local":"Нористаун","country":"US","lat":40.121,"lon":-75.34,"pop":34412,"tz":"America/New_York"},{"id":1608269,"name":"Nong Bua Lamphu","local":"Nong Bua Lamphu","country":"TH","lat":17.204,"lon":102.441,"pop":34401,"tz":"Asia/Bangkok"},{"id":2412452,"name":"Nema Kunku","local":"Nema Kunku","country":"GM","lat":13.25,"lon":-15.883,"pop":34390,"tz":"Africa/Banjul"},{"id":3393876,"name":"Nova Cruz","local":"Nova Cruz","country":"BR","lat":-6.478,"lon":-35.434,"pop":34269,"tz":"America/Fortaleza"},{"id":1261664,"name":"Navapur","local":"Navāpur","country":"IN","lat":21.162,"lon":73.794,"pop":34207,"tz":"Asia/Kolkata"},{"id":3653873,"name":"Naranjito","local":"Naranjito","country":"EC","lat":-2.171,"lon":-79.465,"pop":34206,"tz":"America/Guayaquil"},{"id":1261639,"name":"Nawabganj","local":"Nawābganj","country":"IN","lat":28.541,"lon":79.635,"pop":34134,"tz":"Asia/Kolkata"},{"id":1262270,"name":"Nagalapuram","local":"Nagalapuram","country":"IN","lat":13.388,"lon":79.796,"pop":34026,"tz":"Asia/Kolkata"},{"id":6311121,"name":"Neefkuceliye","local":"Neefkuceliye","country":"ET","lat":6.555,"lon":45.39,"pop":34000,"tz":"Africa/Addis_Ababa"},{"id":4363836,"name":"North Bel Air","local":"North Bel Air","country":"US","lat":39.54,"lon":-76.355,"pop":33925,"tz":"America/New_York"},{"id":4713735,"name":"Nacogdoches","local":"Накодочес","country":"US","lat":31.604,"lon":-94.655,"pop":33894,"tz":"America/Chicago"},{"id":3496021,"name":"Nagua","local":"Нагуа","country":"DO","lat":19.383,"lon":-69.847,"pop":33862,"tz":"America/Santo_Domingo"},{"id":5223681,"name":"North Providence","local":"Норт Провиденс","country":"US","lat":41.85,"lon":-71.466,"pop":33835,"tz":"America/New_York"},{"id":201865,"name":"Nzega","local":"Nzega","country":"RW","lat":-2.479,"lon":29.556,"pop":33832,"tz":"Africa/Kigali"},{"id":4143861,"name":"Newark","local":"Ньюарк","country":"US","lat":39.684,"lon":-75.75,"pop":33817,"tz":"America/New_York"},{"id":763523,"name":"Nowy Targ","local":"Новы-Тарг","country":"PL","lat":49.478,"lon":20.032,"pop":33763,"tz":"Europe/Warsaw"},{"id":1261748,"name":"Narsipatnam","local":"Narsīpatnam","country":"IN","lat":17.667,"lon":82.612,"pop":33757,"tz":"Asia/Kolkata"},{"id":228448,"name":"Nakaloke","local":"Nakaloke","country":"UG","lat":1.15,"lon":34.15,"pop":33700,"tz":"Africa/Kampala"},{"id":4904056,"name":"Northbrook","local":"Нортброок","country":"US","lat":42.128,"lon":-87.829,"pop":33663,"tz":"America/Chicago"},{"id":6317800,"name":"Novo Progresso","local":"Novo Progresso","country":"BR","lat":-7.148,"lon":-55.381,"pop":33638,"tz":"America/Santarem"},{"id":5128481,"name":"New City","local":"Њу Сити","country":"US","lat":41.148,"lon":-73.989,"pop":33559,"tz":"America/New_York"},{"id":6955408,"name":"Naujininkai","local":"Naujininkai","country":"LT","lat":54.664,"lon":25.284,"pop":33500,"tz":"Europe/Vilnius"},{"id":2659496,"name":"Neuchatel","local":"Невшатель","country":"CH","lat":46.992,"lon":6.931,"pop":33475,"tz":"Europe/Zurich"},{"id":1169187,"name":"Naudero","local":"Naudero","country":"PK","lat":27.667,"lon":68.361,"pop":33455,"tz":"Asia/Karachi"},{"id":523405,"name":"Nartkala","local":"Нарткала","country":"RU","lat":43.554,"lon":43.855,"pop":33390,"tz":"Europe/Moscow"},{"id":1307101,"name":"Namhkam","local":"Намгкан","country":"MM","lat":23.833,"lon":97.68,"pop":33382,"tz":"Asia/Yangon"},{"id":2357371,"name":"Niangoloko","local":"Ньянголоко","country":"BF","lat":10.283,"lon":-4.917,"pop":33292,"tz":"Africa/Ouagadougou"},{"id":1634266,"name":"Negara","local":"Negara","country":"ID","lat":-8.357,"lon":114.617,"pop":33191,"tz":"Asia/Makassar"},{"id":672486,"name":"Navodari","local":"Нэводари","country":"RO","lat":44.317,"lon":28.6,"pop":33106,"tz":"Europe/Bucharest"},{"id":2641689,"name":"Newbury","local":"Ньюбери","country":"GB","lat":51.401,"lon":-1.325,"pop":33065,"tz":"Europe/London"},{"id":2247813,"name":"Ndibene Dahra","local":"Ndibène Dahra","country":"SN","lat":15.334,"lon":-15.477,"pop":32941,"tz":"Africa/Dakar"},{"id":1799845,"name":"Nanping","local":"Nanping","country":"CN","lat":29.086,"lon":106.987,"pop":32888,"tz":"Asia/Shanghai"},{"id":1261468,"name":"Ngur","local":"Ngūr","country":"IN","lat":23.538,"lon":93.373,"pop":32734,"tz":"Asia/Kolkata"},{"id":11607796,"name":"Nanjikkottai","local":"Nānjikkottai","country":"IN","lat":10.729,"lon":79.142,"pop":32689,"tz":"Asia/Kolkata"},{"id":9034728,"name":"Nea Ionia","local":"Неа Йония","country":"GR","lat":39.379,"lon":22.928,"pop":32661,"tz":"Europe/Athens"},{"id":2862620,"name":"Nienburg","local":"Нинбург","country":"DE","lat":52.646,"lon":9.221,"pop":32629,"tz":"Europe/Berlin"},{"id":1261517,"name":"Nepanagar","local":"Nepānagar","country":"IN","lat":21.454,"lon":76.393,"pop":32611,"tz":"Asia/Kolkata"},{"id":1261672,"name":"Nautanwa","local":"Nautanwa","country":"IN","lat":27.428,"lon":83.418,"pop":32587,"tz":"Asia/Kolkata"},{"id":1899102,"name":"Nagato","local":"Нагато","country":"JP","lat":34.383,"lon":131.2,"pop":32519,"tz":"Asia/Tokyo"},{"id":5164903,"name":"North Ridgeville","local":"Норс Риджвилл","country":"US","lat":41.389,"lon":-82.019,"pop":32483,"tz":"America/New_York"},{"id":3994674,"name":"Nueva Italia de Ruiz","local":"Nueva Italia de Ruiz","country":"MX","lat":19.025,"lon":-102.093,"pop":32467,"tz":"America/Mexico_City"},{"id":151599,"name":"Ngudu","local":"Ngudu","country":"TZ","lat":-2.967,"lon":33.333,"pop":32446,"tz":"Africa/Dar_es_Salaam"},{"id":2357163,"name":"Nouna","local":"Nouna","country":"BF","lat":12.729,"lon":-3.863,"pop":32428,"tz":"Africa/Ouagadougou"},{"id":3934239,"name":"Nuevo Imperial","local":"Nuevo Imperial","country":"PE","lat":-13.075,"lon":-76.317,"pop":32344,"tz":"America/Lima"},{"id":1261752,"name":"Narsinghgarh","local":"Narsinghgarh","country":"IN","lat":23.708,"lon":77.093,"pop":32329,"tz":"Asia/Kolkata"},{"id":1513087,"name":"Nurota","local":"Нурота","country":"UZ","lat":40.561,"lon":65.689,"pop":32300,"tz":"Asia/Samarkand"},{"id":4944994,"name":"Natick","local":"Нейтик","country":"US","lat":42.283,"lon":-71.35,"pop":32276,"tz":"America/New_York"},{"id":6822104,"name":"Namegata","local":"Namegata","country":"JP","lat":36.007,"lon":140.496,"pop":32185,"tz":"Asia/Tokyo"},{"id":2865260,"name":"Neugraben-Fischbek","local":"Нојграбен-Фишбек","country":"DE","lat":53.466,"lon":9.843,"pop":32054,"tz":"Europe/Berlin"},{"id":3653882,"name":"Naranjal","local":"Naranjal","country":"EC","lat":-2.676,"lon":-79.617,"pop":32045,"tz":"America/Guayaquil"},{"id":2862888,"name":"Niederschoenhausen","local":"Нидершёнхаузен","country":"DE","lat":52.585,"lon":13.403,"pop":32037,"tz":"Europe/Berlin"},{"id":2440495,"name":"Nguigmi","local":"Nguigmi","country":"NE","lat":14.25,"lon":13.109,"pop":32035,"tz":"Africa/Niamey"},{"id":7062967,"name":"Nyanza","local":"Nyanza","country":"RW","lat":-2.352,"lon":29.751,"pop":32016,"tz":"Africa/Kigali"},{"id":5164862,"name":"North Olmsted","local":"Норт-Олмстед","country":"US","lat":41.416,"lon":-81.923,"pop":32004,"tz":"America/New_York"},{"id":924705,"name":"Nkhotakota","local":"Nkhotakota","country":"MW","lat":-12.927,"lon":34.296,"pop":31974,"tz":"Africa/Blantyre"},{"id":3393922,"name":"Nisia Floresta","local":"Nísia Floresta","country":"BR","lat":-6.091,"lon":-35.209,"pop":31942,"tz":"America/Fortaleza"},{"id":3456322,"name":"Neropolis","local":"Нерополис","country":"BR","lat":-16.406,"lon":-49.219,"pop":31932,"tz":"America/Sao_Paulo"},{"id":2383827,"name":"Nola","local":"Nola","country":"CF","lat":3.525,"lon":16.046,"pop":31923,"tz":"Africa/Bangui"},{"id":2864276,"name":"Neuruppin","local":"Нойруппин","country":"DE","lat":52.928,"lon":12.803,"pop":31901,"tz":"Europe/Berlin"},{"id":523553,"name":"Nakhabino","local":"Нахабино","country":"RU","lat":55.849,"lon":37.178,"pop":31715,"tz":"Europe/Moscow"},{"id":1193823,"name":"Nabinagar","local":"Nabīnagar","country":"BD","lat":23.888,"lon":90.968,"pop":31671,"tz":"Asia/Dhaka"},{"id":11612558,"name":"Nantan","local":"Nantan","country":"JP","lat":35.11,"lon":135.492,"pop":31629,"tz":"Asia/Tokyo"},{"id":4839222,"name":"Naugatuck","local":"Наугатак","country":"US","lat":41.486,"lon":-73.051,"pop":31538,"tz":"America/New_York"},{"id":12214072,"name":"Neubau","local":"Neubau","country":"AT","lat":48.202,"lon":16.347,"pop":31521,"tz":"Europe/Vienna"},{"id":2750121,"name":"Nieuw-Vennep","local":"Nieuw-Vennep","country":"NL","lat":52.264,"lon":4.631,"pop":31415,"tz":"Europe/Amsterdam"},{"id":4165637,"name":"Navarre","local":"Наварр","country":"US","lat":30.402,"lon":-86.864,"pop":31378,"tz":"America/Chicago"},{"id":8468760,"name":"Novoyavorivs'k","local":"Новояворовск","country":"UA","lat":49.93,"lon":23.574,"pop":31366,"tz":"Europe/Kyiv"},{"id":1261726,"name":"Naspur","local":"Nāspur","country":"IN","lat":18.846,"lon":79.462,"pop":31244,"tz":"Asia/Kolkata"},{"id":2990265,"name":"Nogent-sur-Marne","local":"Ножан-сюр-Марн","country":"FR","lat":48.837,"lon":2.483,"pop":31236,"tz":"Europe/Paris"},{"id":2128975,"name":"Nemuro","local":"Нэмуро","country":"JP","lat":43.324,"lon":145.575,"pop":31223,"tz":"Asia/Tokyo"},{"id":7870919,"name":"Niagara","local":"Niagara","country":"CA","lat":43.645,"lon":-79.407,"pop":31180,"tz":"America/Toronto"},{"id":2111781,"name":"Nagai","local":"Нагаи","country":"JP","lat":38.104,"lon":140.035,"pop":31026,"tz":"Asia/Tokyo"},{"id":1604654,"name":"Na Klang","local":"Na Klang","country":"TH","lat":17.307,"lon":102.189,"pop":31024,"tz":"Asia/Bangkok"},{"id":1261760,"name":"Narsampet","local":"Narsampet","country":"IN","lat":17.928,"lon":79.892,"pop":30963,"tz":"Asia/Kolkata"},{"id":2329451,"name":"Nasarawa","local":"Нассарава","country":"NG","lat":8.539,"lon":7.708,"pop":30949,"tz":"Africa/Lagos"},{"id":2155204,"name":"Noble Park","local":"Noble Park","country":"AU","lat":-37.967,"lon":145.167,"pop":30921,"tz":"Australia/Melbourne"},{"id":9972518,"name":"Narre Warren South","local":"Narre Warren South","country":"AU","lat":-38.044,"lon":145.292,"pop":30909,"tz":"Australia/Melbourne"},{"id":99434,"name":"Nahiyat Ghammas","local":"Nahiyat Ghammas","country":"IQ","lat":31.743,"lon":44.62,"pop":30909,"tz":"Asia/Baghdad"},{"id":2861814,"name":"Northeim","local":"Нортхайм","country":"DE","lat":51.707,"lon":10.0,"pop":30894,"tz":"Europe/Berlin"},{"id":2297126,"name":"Nsoatre","local":"Нсоатре","country":"GH","lat":7.404,"lon":-2.466,"pop":30862,"tz":"Africa/Accra"},{"id":5129245,"name":"North Tonawanda","local":"Норт Тауновондо","country":"US","lat":43.039,"lon":-78.864,"pop":30785,"tz":"America/New_York"},{"id":7284275,"name":"Nungwi","local":"Нунгви","country":"TZ","lat":-5.727,"lon":39.299,"pop":30762,"tz":"Africa/Dar_es_Salaam"},{"id":4334971,"name":"New Iberia","local":"Њу Ајбирија","country":"US","lat":30.004,"lon":-91.819,"pop":30754,"tz":"America/Chicago"},{"id":3393832,"name":"Nova Russas","local":"Nova Russas","country":"BR","lat":-4.707,"lon":-40.563,"pop":30699,"tz":"America/Fortaleza"},{"id":3393972,"name":"Nazare da Mata","local":"Назар-да-Мата","country":"BR","lat":-7.742,"lon":-35.228,"pop":30648,"tz":"America/Recife"},{"id":91812,"name":"Nahiyat Saddat al Hindiyah","local":"Nāḩīyat Saddat al Hindīyah","country":"IQ","lat":32.716,"lon":44.279,"pop":30622,"tz":"Asia/Baghdad"},{"id":1168889,"name":"Nok Kundi","local":"Nok Kundi","country":"PK","lat":28.827,"lon":62.75,"pop":30621,"tz":"Asia/Karachi"},{"id":1855416,"name":"Niimi","local":"Ниими","country":"JP","lat":34.983,"lon":133.467,"pop":30583,"tz":"Asia/Tokyo"},{"id":4839497,"name":"Newington","local":"Њуингтон","country":"US","lat":41.698,"lon":-72.724,"pop":30562,"tz":"America/New_York"},{"id":227528,"name":"Nyachera","local":"Nyachera","country":"UG","lat":-0.9,"lon":30.417,"pop":30509,"tz":"Africa/Kampala"},{"id":1445335,"name":"Nagavaram","local":"Nāgāvaram","country":"IN","lat":17.489,"lon":78.602,"pop":30502,"tz":"Asia/Kolkata"},{"id":11611932,"name":"Nanyo","local":"Nanyō","country":"JP","lat":38.043,"lon":140.113,"pop":30420,"tz":"Asia/Tokyo"},{"id":2297432,"name":"New Tafo","local":"New Tafo","country":"GH","lat":6.719,"lon":-1.612,"pop":30380,"tz":"Africa/Accra"},{"id":5164916,"name":"North Royalton","local":"Норс Роялтон","country":"US","lat":41.314,"lon":-81.725,"pop":30311,"tz":"America/New_York"},{"id":924572,"name":"Nsanje","local":"Nsanje","country":"MW","lat":-16.92,"lon":35.262,"pop":30276,"tz":"Africa/Blantyre"},{"id":8572949,"name":"Narimasu","local":"Narimasu","country":"JP","lat":35.784,"lon":139.632,"pop":30203,"tz":"Asia/Tokyo"},{"id":1573570,"name":"Nam Can","local":"Năm Căn","country":"VN","lat":8.759,"lon":104.993,"pop":30135,"tz":"Asia/Ho_Chi_Minh"},{"id":1024687,"name":"Nhamatanda","local":"Nhamatanda","country":"MZ","lat":-19.269,"lon":34.213,"pop":30087,"tz":"Africa/Maputo"},