[{"id":1798524,"name":"Pudong","names":{"en":"Pudong","de":"Pudong","id":"Pudong","it":"Pudong","ja":"浦東新区","ru":"Пудун","zh":"浦东新区","es":"Pudong","ro":"Pudong","vi":"Phố Đông"},"country":"CN","lat":31.23995,"lon":121.50094,"pop":5681512,"search_terms":["浦東新区","浦东新区","pudong","浦东","phố đông","пудун"]},{"id":1168197,"name":"Peshawar","names":{"en":"Peshawar","de":"Peschawar","es":"Peshawar","fa":"پیشاور","fr":"Peshawar","hi":"पेशावर","ko":"페샤와르","nl":"Pesjawar","pl":"Peszawar","pt":"Pexauar","sv":"Peshawar","zh":"白沙瓦","el":"Πεσαβάρ","ja":"ペシャーワル","ru":"Пешавар","ur":"پشاور","ar":"بيشاور","az":"Pişəvər","bn":"পেশাওয়ার","cs":"Péšávar","ka":"პეშავარი","mr":"पेशावर","ps":"پېښور","ta":"பெசாவர்","th":"เปศวาร์","tr":"Peşaver","uk":"Пешавар","hy":"Փեշավար","kk":"Пешавар","uz":"Peshovar"},"country":"PK","lat":34.008,"lon":71.57849,"pop":4758762,"search_terms":["peshovar","白沙瓦","პეშავარი","peszawar","بيشاور","pişəvər","pesjawar","ペシャーワル","péšávar","پیشاور","пешавар","پشاور","πεσαβάρ","peshawar","փեշավար","পেশাওয়ার","பெசாவர்","pexauar","पेशावर","เปศวาร์","peschawar","페샤와르","پېښور","peşaver"]},{"id":1798425,"name":"Puyang","names":{"en":"Pujiang","zh":"浦阳"},"country":"CN","lat":29.45679,"lon":119.88872,"pop":3590000,"search_terms":["pujiang","浦阳","puyang"]},{"id":1871859,"name":"Pyongyang","names":{"en":"Pyongyang","de":"Pjöngjang","es":"Pionyang","ar":"بيونغيانغ","cs":"Pchjongjang","fr":"Pyongyang","hi":"प्योंगयांग","id":"Pyongyang","it":"Pyongyang","ja":"平壌","nl":"Pyongyang","pl":"Pjongjang","pt":"Pionguiangue","ru":"Пхеньян","sv":"Pyongyang","zh":"平壤","vi":"Bình Nhưỡng","el":"Πιονγκγιάνγκ","tr":"Pyongyang","am":"ፕዮንግያንግ","th":"เปียงยาง","fa":"پیونگ‌یانگ","ur":"پیانگ یانگ","az":"Pxenyan","uk":"Пхеньян","hy":"Փխենյան","mr":"प्याँगयांग","tt":"Пхеньян","bn":"পিয়ং ইয়াং","ro":"Phenian","ps":"پيونګيانګ","ta":"பியொங்யாங்","tl":"Pionyang","kk":"Пхеньян","ka":"ფხენიანი","ko":"평양직할시"},"country":"KP","lat":39.03385,"lon":125.75432,"pop":3222000,"search_terms":["pchjongjang","平壌","পিয়ং ইয়াং","pionyang","πιονγιάνγκ","평양직할시","pjongjang","평양시","pyongyang-si","प्योंगयांग","평양","p'yŏngyang-si","bình nhưỡng","πιονγκγιάνγκ","प्याँगयांग","ፕዮንግያንግ","p'yŏngyang","پیونگ‌یانگ","平壤","phenian","پيونګيانګ","փխենյան","بيونغيانغ","pionguiangue","пхеньян","پیانگ یانگ","เปียงยาง","ფხენიანი","pxenyan","பியொங்யாங்","pyongyang","pjöngjang"]},{"id":1259229,"name":"Pune","names":{"en":"Pune","de":"Pune","fr":"Pune","hi":"पुणे","ja":"プネー","mr":"पुणे","nl":"Pune","pl":"Pune","pt":"Pune","sv":"Pune","ta":"புணே","zh":"浦那","ro":"Pune","ru":"Пуна","id":"Pune","it":"poona","uk":"Пуне","cs":"Puné","bn":"পুণে","ur":"پونے","ko":"푸네","fa":"پونه","te":"పూణే","ka":"პუნა","ar":"بونه","el":"Πούνε","hy":"Պունի","ps":"پونی","az":"Puna","sw":"Pune","ky":"Пуна","th":"ปุเณ","tl":"Pune","tr":"Pune","uz":"Puna","ms":"Pune","es":"Pune","vi":"Pune","ha":"Pune"},"country":"IN","lat":18.51957,"lon":73.85535,"pop":3124458,"search_terms":["浦那","ปุเณ","プネー","पुणे शहर","πούνε","پونے","پونه","պունի","pune","пуна","पुणे","పూణే","푸네","puna","პუნა","بونه","পুণে","புணே","پونی","poona","пуне","puné"]},{"id":2063523,"name":"Perth","names":{"en":"Perth","de":"Perth","es":"Perth","ar":"بيرث","cs":"Perth","fa":"پرت","fr":"Perth","id":"Perth","it":"Perth","ja":"パース","nl":"Perth","pl":"Perth","pt":"Perth","sv":"Perth","zh":"珀斯","ru":"Перт","ta":"பேர்த்","mr":"पर्थ","uk":"Перт","ko":"퍼스","el":"Περθ","ka":"პერთი","hy":"Պերթ","hi":"पर्थ","th":"เพิร์ท"},"country":"AU","lat":-31.95224,"lon":115.8614,"pop":2309338,"search_terms":["پرت","بيرث","퍼스","περθ","珀斯","перт","պերթ","perth","パース","เพิร์ท","პერთი","பேர்த்","पर्थ"]},{"id":2988507,"name":"Paris","names":{"en":"Paris","fr":"Paris","es":"París","de":"Paris","ar":"باريس","cs":"Paříž","el":"Παρίσι","fa":"پاریس","id":"Paris","it":"Parigi","ja":"パリ","ka":"პარიზი","ko":"파리","ku":"Parîs","ms":"Paris","nl":"Parijs","pl":"Paryż","pt":"Paris","ro":"Paris","ru":"Париж","sv":"Paris","ta":"பாரிஸ்","th":"ปารีส","tl":"Paris","tr":"Paris","uk":"Париж","vi":"Paris","zh":"巴黎","sw":"Paris","am":"ፓሪስ","hy":"Փարիզ","mr":"पॅरिस","tg":"Париж","ur":"پیرس","uz":"Parij","hi":"पैरिस","tt":"Париж","te":"పారిస్","tk":"Pariž","bn":"প্যারিস","ha":"Pariis","ps":"پاريس","so":"Baariis","kk":"Париж","ky":"Париж","az":"Paris"},"country":"FR","lat":48.85341,"lon":2.3488,"pop":2138551,"search_terms":["paname","parij","parís","ፓሪስ","파리","փարիզ","パリ","პარიზი","pariž","ville-lumière","paris","παρίσι","parijs","paříž","baariis","பாரிஸ்","париж","প্যারিস","باريس","पॅरिस","parîs","巴黎","پیرس","پاریس","پاريس","ปารีส","lungsod ng paris","pa-ri","paryż","पैरिस","పారిస్","pariis","parigi"]},{"id":2324774,"name":"Port Harcourt","names":{"en":"Port Harcourt","de":"Port Harcourt","es":"Port Harcourt","fr":"Port Harcourt","it":"Port Harcourt","ja":"ポートハーコート","nl":"Port Harcourt","pl":"Port Harcourt","pt":"Port Harcourt","id":"Port Harcourt","ar":"بورت هاركورت","ko":"포트하커트","uk":"Порт-Харкорт","ru":"Порт-Харкорт","zh":"哈科特港"},"country":"NG","lat":4.77742,"lon":7.0134,"pop":2120000,"search_terms":["포트하커트","بورت هاركورت","port harcourt","哈科特港","порт-харкорт","ポートハーコート"]},{"id":964137,"name":"Pretoria","names":{"en":"Pretoria","el":"Πρετόρια/Πόλη του Ακρωτηρίου","de":"Pretoria","es":"Pretoria","fr":"Pretoria","pl":"Pretoria","am":"ፕሪቶሪያ","id":"Pretoria","it":"Pretoria","ja":"プレトリア","ko":"프리토리아","ms":"Pretoria","nl":"Pretoria","pt":"Pretória","ru":"Претория","sv":"Pretoria","th":"พริทอเรีย","ar":"بريتوريا","sw":"Pretoria","te":"ప్రిటోరియా","ta":"பிரிட்டோரியா","mr":"प्रिटोरिया","ka":"პრეტორია","uk":"Преторія","az":"Pretoriya","fa":"پرتوریا","ur":"پریٹوریا","hy":"Պրետորիա","zh":"比勒陀利亞","hi":"प्रिटोरिया","tt":"Pretoriä","kk":"Претория","ky":"Претория","uz":"Pretoriya","ps":"پرتوریا","ro":"Pretoria","bn":"প্রিটোরিয়া","so":"Pretoria","ku":"Pretoria","cs":"Pretorie","tg":"Претория","tl":"Pretoria","tr":"Pretoria","vi":"Pretoria","ha":"Pretoria"},"country":"ZA","lat":-25.74486,"lon":28.18783,"pop":2112693,"search_terms":["pretoria","ప్రిటోరియా","プレトリア","بريتوريا","பிரிட்டோரியா","प्रिटोरिया","pretoriä","преторія","pretoriya","პრეტორია","پرتوریا","pretorie","พริทอเรีย","ፕሪቶሪያ","پریٹوریا","претория","pretória","πρετόρια","պրետորիա","比勒陀利亞","প্রিটোরিয়া","프리토리아","πρετόρια/πόλη του ακρωτηρίου"]},{"id":7626690,"name":"Pimpri-Chinchwad","names":{"en":"Pimpri-Chinchwad","fr":"Pimpri Chinchwad","it":"Pimpri Chinchwad","bn":"পিম্পরি চিঞ্চওয়াড়","fa":"پیمپری-چینچواد","hi":"पिंपरी-चिंचवड","ja":"ピンプリ・チンチワッド","ko":"핌프리친치와드","mr":"पिंपरी चिंचवड","ms":"Pimpri Chinchwad","uk":"Пімпрі-Чінчвад","vi":"Pimpri Chinchwad","pt":"Pimpri Chinchwad","ru":"Пимпри-Чинчвад","zh":"賓布里金傑沃德","ps":"پيمپري-چينچواد","ta":"பிம்பிரி-சிஞ்ச்வடு","ur":"پمپری-چنچواڑ","cs":"Pimprí-Čiňčvad","de":"Pimpri-Chinchwad","es":"Pimpri-Chinchwad"},"country":"IN","lat":18.61867,"lon":73.80375,"pop":1727692,"search_terms":["pimpri-chinchwad","پيمپري-چينچواد","пимпри-чинчвад","पिंपरी-चिंचवड","pimpri chinchwad","पिंपरी चिंचवड","பிம்பிரி-சிஞ்ச்வடு","پمپری-چنچواڑ","পিম্পরি চিঞ্চওয়াড়","ピンプリ・チンチワッド","пімпрі-чінчвад","پیمپری-چینچواد","pimprí-čiňčvad","핌프리친치와드","賓布里金傑沃德"]},{"id":3521081,"name":"Puebla","names":{"en":"Puebla","fr":"Puebla","de":"Puebla","es":"Puebla de Zaragoza","pl":"Puebla","cs":"Puebla","id":"Puebla","it":"Puebla","ja":"プエブラ","nl":"Puebla de Zaragoza","pt":"Puebla","sv":"Puebla de Zaragoza","ar":"بويبلا","el":"Πουέμπλα","fa":"پوئبلا٬ پوئبلا","ka":"პუებლა","ko":"푸에블라","mr":"पुएब्ला","ro":"Puebla de los Ángeles","tl":"Lungsod ng Puebla","uk":"Пуебла","ur":"پوئبلا، پوئبلا","ru":"Пуэбла-де-Сарагоса","zh":"普埃布拉"},"country":"MX","lat":19.04778,"lon":-98.20723,"pop":1692181,"search_terms":["پوئبلا، پوئبلا","푸에블라","プエブラ","пуебла","heróica puebla de zaragoza","普埃布拉","heroica puebla de zaragoza","puebla de zaragoza","پوئبلا٬ پوئبلا","puebla de los ángeles","lungsod ng puebla","puebla","بويبلا","пуэбла-де-сарагоса","πουέμπλα","पुएब्ला","პუებლა","puebla city"]},{"id":1260086,"name":"Patna","names":{"en":"Patna","de":"Patna","fr":"Patna","hi":"पटना","nl":"Patna","pl":"Patna","pt":"Patna","ro":"Patna","sv":"Patna","ta":"பாட்னா","es":"Patna","id":"Patna","ja":"パトナ","bn":"পাটনা","it":"Patna","zh":"巴特那","ru":"Патна","ur":"پٹنہ","th":"ปัฏนา","ka":"პატნა","te":"పాట్నా","mr":"पाटणा","ar":"باتنا","uk":"Патна","ko":"파트나","fa":"پتنه","el":"Πάτνα","hy":"Պատնա","ky":"Патна","ps":"پټنا"},"country":"IN","lat":25.59408,"lon":85.13563,"pop":1684297,"search_terms":["पाटणा","patna","巴特那","파트나","பாட்னா","پتنه","পাটনা","პატნა","பட்னா","ปัฏนา","పాట్నా","پٹنہ","باتنا","պատնա","पटना","патна","パトナー","پټنا","πάτνα","パトナ"]},{"id":1633070,"name":"Palembang","names":{"en":"Palembang","de":"Palembang","fr":"Palembang","id":"Kota Palembang","ja":"パレンバン","ms":"Palembang","nl":"Palembang","pl":"Palembang","pt":"Palimbão","ru":"Палембанг","zh":"巨港","ar":"باليمبانج","it":"Palembang","uk":"Палембанг","ko":"팔렘방","el":"Παλεμπάνγκ","fa":"پالم‌بانگ","mr":"पालेंबांग","ur":"پالمبانگ","th":"ปาเล็มบัง","az":"Palembanq"},"country":"ID","lat":-2.91673,"lon":104.7458,"pop":1668848,"search_terms":["palembang","kota palembang","ปาเล็มบัง","پالم‌بانگ","パレンバン","палембанг","palembanq","باليمبانج","巨港","palimbão","پالمبانگ","팔렘방","παλεμπάνγκ","पालेंबांग"]},{"id":5308655,"name":"Phoenix","names":{"en":"Phoenix","de":"Phoenix","fr":"Phoenix","id":"Phoenix","it":"Phoenix","ja":"フェニックス","nl":"Phoenix","pl":"Phoenix","pt":"Phoenix","ro":"Phoenix","sv":"Phoenix","tr":"Phoenix","zh":"凤凰城","es":"Phoenix","ar":"فينيكس","cs":"Phoenix","ru":"Финикс","ur":"فینکس","vi":"Phoenix","el":"Φοίνιξ","hy":"Ֆինիքս","fa":"فینیکس، آریزونا","bn":"ফিনিক্স","ka":"ფინიქსი","te":"ఫీనిక్స్ నగరం","th":"ฟีนิกซ์","ko":"피닉스","mr":"फीनिक्स","uk":"Фінікс","am":"ፊኒክስ፥ አሪዞና","ta":"பீனிக்ஸ்","az":"Finiks","hi":"फ़ीनिक्स","tt":"Finiks","kk":"Финикс","ky":"Финикс"},"country":"US","lat":33.44838,"lon":-112.07404,"pop":1650070,"search_terms":["финикс","фінікс","피닉스","ফিনিক্স","ฟีนิกซ์","فينيكس","ఫీనిక్స్ నగరం","凤凰城","φοίνιξ","فینیکس، آریزونا","ፊኒክስ፥ አሪዞና","फ़ीनिक्स","فینکس","ֆինիքս","फीनिक्स","フェニックス","finiks","鳳凰城","பீனிக்ஸ்","phoenix","ფინიქსი"]},{"id":4560349,"name":"Philadelphia","names":{"en":"Philadelphia","es":"Filadelfia","de":"Philadelphia","pl":"Filadelfia","fr":"Philadelphie","ar":"فيلادلفيا","cs":"Filadelfie","el":"Φιλαδέλφεια","id":"Philadelphia","it":"Filadelfia","ja":"フィラデルフィア","ka":"ფილადელფია","ko":"필라델피아","nl":"Philadelphia","pt":"Filadélfia","ro":"Philadelphia","ru":"Филадельфия","sv":"Philadelphia","tr":"Philadelphia","uk":"Філадельфія","vi":"Philadelphia","hy":"Ֆիլադելֆիա","fa":"فیلادلفیا، پنسیلوانیا","hi":"फिलाडेल्फिया","ky":"Филадельфия","th":"ฟิลาเดลเฟีย","te":"ఫిలడెల్ఫియా","ta":"பிலடெல்பியா","mr":"फिलाडेल्फिया","uz":"Filadelfiya","az":"Filadelfiya","zh":"費城","tt":"Filadelfiä","am":"ፊላዴልፊያ","bn":"ফিলাডেলফিয়া","kk":"Филадельфия","ur":"فلاڈیلفیا، پنسلوانیا"},"country":"US","lat":39.95238,"lon":-75.16362,"pop":1573916,"search_terms":["பிலடெல்பியா","ፊላዴልፊያ","philly","فیلادلفیا، پنسیلوانیا","ফিলাডেলফিয়া","ฟิลาเดลเฟีย","ֆիլադելֆիա","φιλαδέλφεια","فلاڈیلفیا، پنسلوانیا","filadélfia","फिलाडेल्फिया","ფილადელფია","filadelfie","філадельфія","philadelphia","ఫిలడెల్ఫియా","philadelphie","フィラデルフィア","filadelfiya","費城","فيلادلفيا","филадельфия","filadelfiä","filadelfia","필라델피아"]},{"id":1821306,"name":"Phnom Penh","names":{"en":"Phnom Penh","de":"Phnom Penh","es":"Nom Pen","fr":"Phnom Penh","id":"Phnom Penh","it":"Phnom Penh","ja":"プノンペン","ko":"프놈펜","nl":"Phnom-Penh","pl":"Phnom Penh","ru":"Пномпень","sv":"Phnom Penh","th":"พนมเปญ","cs":"Phnompenh","pt":"Pnom Penh","el":"Πνομ Πενχ","am":"ፕኖም ፔን","tr":"Phnom Penh","uk":"Пномпень","sw":"Phnom Penh","vi":"Phnôm Pênh","ur":"پنوم پن","ka":"პნომპენი","fa":"پنوم‌پن","hy":"Պնոմպեն","ta":"புனோம் பென்","bn":"প্‌নম পেন","ar":"بنوم بنه","mr":"पनॉम पेन","hi":"नामपेन्ह","zh":"金边","az":"Pnompen"},"country":"KH","lat":11.56245,"lon":104.91601,"pop":1573544,"search_terms":["պնոմպեն","pnompen","プノンペン","พนมเปณ","புனோம் பென்","بنوم بنه","pnom penh","প্‌নম পেন","नामपेन्ह","پنوم پن","phnom penh","프놈펜","пномпень","ፕኖም ፔን","nom pen","πνομ πενχ","პნომპენი","pnom pene","phnôm pênh","پنوم‌پن","phnompenh","พนมเปญ","पनॉम पेन","phnom-penh","phon phen","金边"]},{"id":1798449,"name":"Putian","names":{"en":"Putian","ru":"Путянь","cs":"Pchu-tchien","ja":"ホ田市","ko":"푸톈 시","vi":"Phủ Điền","zh":"莆田市","fa":"پوتیان","ur":"پوتیان"},"country":"CN","lat":25.43944,"lon":119.01028,"pop":1539389,"search_terms":["phủ điền","pchu-tchien","ホ田","پوتیان","푸톈 시","ホ田市","путянь","莆田市","putian"]},{"id":3452925,"name":"Porto Alegre","names":{"en":"Porto Alegre","de":"Porto Alegre","es":"Porto Alegre","fr":"Porto Alegre","id":"Porto Alegre","it":"Porto Alegre","ja":"ポルト・アレグレ","nl":"Porto Alegre","pl":"Porto Alegre","pt":"Porto Alegre","ru":"Порту-Алегри","sv":"Porto Alegre","tr":"Porto Alegre","tg":"Порту-Алегре","ur":"پورتو الیگرے","uk":"Порту-Алегрі","fa":"پورتو الگره","ar":"بورتو أليغري","ka":"პორტუ-ალეგრი","mr":"पोर्तू अलेग्री","kk":"Порту-Алегри","ko":"포르투알레그리","zh":"阿雷格里港","el":"Πόρτο Αλέγκρε","uz":"Portu-Alegri"},"country":"BR","lat":-30.03283,"lon":-51.23019,"pop":1488252,"search_terms":["ポルト・アレグレ","پورتو الگره","포르투알레그리","porto alegre","puerto alegre","阿雷格里港","portu-alegri","порту-алегрі","порту-алегри","पोर्तू अलेग्री","порту-алегре","بورتو أليغري","πόρτο αλέγκρε","პორტუ-ალეგრი","پورتو الیگرے"]},{"id":1259652,"name":"Pimpri","names":{"en":"Pimpri","hi":"पिंपरी","sv":"Pimpri","mr":"पिंपरी","uk":"Пімпрі","ur":"پمپری","ta":"பிம்பிரி","nl":"Pimpri"},"country":"IN","lat":18.62292,"lon":73.80696,"pop":1284606,"search_terms":["பிம்பிரி","pimpri","пімпрі","پمپری","पिंपरी"]},{"id":1798439,"name":"Putuo","names":{"en":"Putuo"},"country":"CN","lat":31.251,"lon":121.3897,"pop":1239100,"search_terms":["putuo"]},{"id":3718426,"name":"Port-au-Prince","names":{"en":"Port-au-Prince","de":"Port-au-Prince","es":"Puerto Príncipe","fr":"Port-au-Prince","id":"Port-au-Prince","ja":"ポルトープランス","ka":"პორტ-ო-პრენსი","ko":"포르토프랭스","nl":"Port-au-Prince","pl":"Port-au-Prince","pt":"Porto Príncipe","ro":"Port-au-Prince","ru":"Порт-о-Пренс","sv":"Port-au-Prince","zh":"太子港","fa":"پورتو پرنس","it":"Port-au-Prince","el":"Πορτ-ο-Πρενς","am":"ፖርቶፕሪንስ","uk":"Порт-о-Пренс","ur":"پورٹ او پرنس","hy":"Պորտ-օ-Պրենս","bn":"পোর্ট-অ-প্রিন্স","hi":"पोर्ट-ऑ-प्रिंस","th":"ปอร์โตแปรงซ์","az":"Port-o-Prins","tg":"Порт-о-Пренс","ta":"போர்ட்-ஓ-பிரின்ஸ்","ar":"بورت أو برانس","mr":"पोर्ट-औ-प्रिन्स","ky":"Порт-о-Пренс"},"country":"HT","lat":18.54349,"lon":-72.33881,"pop":1234742,"search_terms":["پورٹ او پرنس","পোর্ট-অ-প্রিন্স","போர்ட்-ஓ-பிரின்ஸ்","太子港","بورت أو برانس","პორტ-ო-პრენსი","port-au-prince","порт-о-пренс","port-o-prins","պորտ-օ-պրենս","포르토프랭스","ポルトープランス","πορτ-ο-πρενς","पोर्ट-औ-प्रिन्स","پورتو پرنس","ፖርቶፕሪንስ","पोर्ट-ऑ-प्रिंस","porto príncipe","ปอร์โตแปรงซ์","puerto príncipe"]},{"id":3067696,"name":"Prague","names":{"en":"Prague","cs":"Praha","es":"Praga","ar":"براغ","fr":"Prague","id":"Praha","it":"Praga","ka":"პრაღა","ko":"프라하","nl":"Praag","pl":"Praga","pt":"Praga","ro":"Praga","ru":"Прага","sv":"Prag","tl":"Prague","tr":"Prag","uk":"Прага","vi":"Praha","zh":"布拉格","de":"Prag","ja":"プラハ","el":"Πράγα","fa":"پراگ","tg":"Прага","th":"ปราก","am":"ፕራግ","ku":"Prag","bn":"প্রাগ","hy":"Պրահա"},"country":"CZ","lat":50.08804,"lon":14.42076,"pop":1165581,"search_terms":["prag","praha","პრაღა","praga","براغ","프라하","布拉格","прага","πράγα","پراگ","ፕራግ","պրահա","プラハ","praag","prague","ปราก","প্রাগ"]},{"id":1631761,"name":"Pekanbaru","names":{"en":"Pekanbaru","fr":"Pekanbaru","pl":"Pekanbaru","id":"Kota Pekanbaru","nl":"Pekanbaru","pt":"Pekanbaru","az":"پکانبارو","fa":"پکانبارو","ja":"プカンバル","ko":"페칸바루","ru":"Пеканбару","zh":"北干巴魯","de":"Pekanbaru"},"country":"ID","lat":0.51667,"lon":101.44167,"pop":1085000,"search_terms":["kota pekanbaru","пеканбару","pekanbaru","pakanbaru","페칸바루","北干巴魯","プカンバル","پکانبارو"]},{"id":1278994,"name":"Prayagraj","names":{"en":"Prayagraj","de":"Allahabad","es":"Allahabad","fr":"Allāhābād","hi":"इलाहाबाद","id":"Allahabad","nl":"Allahabad","pl":"Allahabad","pt":"Allahabad","ro":"Allahabad","sv":"Allahabad","zh":"安拉阿巴德","ja":"アラハバード","ta":"அலகாபாத்","ur":"الہ آباد","ru":"Аллахабад"},"country":"IN","lat":25.44478,"lon":81.84322,"pop":1073438,"search_terms":["allahabad","إلٰه‌آباد","安拉阿巴德","इलाहाबाद","アラハバード","الہ آباد","prayagraj","allāhābād","イラーハーバード","аллахабад","அலகாபாத்"]},{"id":2255414,"name":"Pointe-Noire","names":{"en":"Pointe-Noire","de":"Pointe-Noire","fr":"Pointe-Noire","ko":"푸앵트누아르","pt":"Pointe-Noire","es":"Pointe-Noire","pl":"Pointe-Noire","it":"Pointe-Noire","ru":"Пуэнт-Нуар","ja":"ポワントノワール"},"country":"CG","lat":-4.77609,"lon":11.86352,"pop":1032000,"search_terms":["pointe-noire","푸앵트누아르","ポワントノワール","пуэнт-нуар"]},{"id":3046446,"name":"Pest","names":{"en":"Pest","ar":"بشت","cs":"Pešť","ja":"ペシュト","ko":"페슈트","ro":"Pesta","tr":"Peşte","pl":"Peszt","pt":"Peste","ru":"Пешт","zh":"佩斯","uk":"Пешт"},"country":"HU","lat":47.5,"lon":19.08333,"pop":1001748,"search_terms":["بشت","pesta","пешт","peszt","페슈트","pešť","pest","ペシュト","peşte","peste","佩斯"]},{"id":511196,"name":"Perm","names":{"en":"Perm","ru":"Пермь","zh":"彼尔姆","ja":"ペルミ","ko":"페름","fa":"پرم","it":"Perm'","ar":"بيرم","el":"Περμ","ka":"პერმი","kk":"Пермь","mr":"पर्म","th":"เปียร์ม","tt":"Пермь","uk":"Перм","fr":"Perm","de":"Perm","hy":"Պերմ","ky":"Пермь","ur":"پیرم"},"country":"RU","lat":58.01046,"lon":56.25017,"pop":982419,"search_terms":["პერმი","پرم","پیرم","perm","彼尔姆","пермь","페름","بيرم","ペルミ","պերմ","перм","เปียร์ม","περμ","पर्म","perm'"]},{"id":1798827,"name":"Pingdingshan","names":{"en":"Pingdingshan","ru":"Пиндиншань","cs":"Pching-ting-šan","ja":"平頂山市","ko":"핑딩산 시","vi":"Bình Đỉnh Sơn","zh":"平顶山市","fa":"پینگدینگشان","ur":"پنگڈنگشان"},"country":"CN","lat":33.73091,"lon":113.31554,"pop":979130,"search_terms":["پنگڈنگشان","pching-ting-šan","пиндиншань","bình đỉnh sơn","pingdingshan","پینگدینگشان","平顶山市","핑딩산 시","平頂山市"]},{"id":1633419,"name":"Padang","names":{"en":"Padang","pl":"Padang","de":"Padang","id":"Kota Padang","it":"Padang","ms":"Kota Padang","nl":"Padang","pt":"Padang","fr":"Padang","ru":"Паданг","ar":"بادانغ","az":"پادانگ","fa":"پادنگ، اندونزی","ja":"パダン","ko":"파당","mr":"पादांग","th":"ปาดัง","zh":"巴東"},"country":"ID","lat":-0.94924,"lon":100.35427,"pop":909040,"search_terms":["بادانغ","पादांग","پادنگ، اندونزی","پادانگ","padang","파당","パダン","паданг","kota padang","巴東","ปาดัง"]},{"id":1798654,"name":"Pingxiang","names":{"en":"Pingxiang","zh":"萍乡","cs":"Pching-siang","fa":"پینگشیانگ","ja":"萍郷市","ko":"핑샹 시","ur":"پنگشیانگ","vi":"Bình Hương","ru":"Пинсян"},"country":"CN","lat":27.61672,"lon":113.85353,"pop":893550,"search_terms":["пинсян","pching-siang","萍乡市","萍郷市","pingxiang","핑샹 시","bình hương","پینگشیانگ","萍乡","萍郷","پنگشیانگ"]},{"id":1802940,"name":"Puning","names":{"en":"Puning","fa":"پونینگ","ja":"普寧市","ko":"푸닝 시","ur":"پونینگ","vi":"Phổ Ninh","zh":"普宁市"},"country":"CN","lat":23.31072,"lon":116.16869,"pop":874954,"search_terms":["普宁市","puning","پونینگ","普寧市","푸닝 시","phổ ninh"]},{"id":2246678,"name":"Pikine","names":{"en":"Pikine","ru":"Пикин","ja":"ピキン","zh":"皮金"},"country":"SN","lat":14.76457,"lon":-17.39071,"pop":874062,"search_terms":["пикин","ピキン","皮金","pikine"]},{"id":7290466,"name":"Pasig City","names":{"en":"Pasig City"},"country":"PH","lat":14.58691,"lon":121.0614,"pop":853050,"search_terms":["pasig city","pasig"]},{"id":965301,"name":"Pietermaritzburg","names":{"en":"Pietermaritzburg","fr":"Pietermaritzburg","de":"Pietermaritzburg","pl":"Pietermaritzburg","es":"Pietermaritzburg","nl":"Pietermaritzburg","ar":"بيترماريتزبرغ","ko":"피터마리츠버그","th":"ปีเตอร์มาริตซ์เบิร์ก","uk":"Пітермаріцбург","mr":"पीटरमारित्झबर्ग","ja":"ピーターマリッツバーグ","ru":"Питермарицбург","zh":"彼得马里茨堡","fa":"پیترماریتسبرگ","hi":"पीटरमैरिट्सबर्ग","ur":"پیٹرماریٹزبرگ"},"country":"ZA","lat":-29.61679,"lon":30.39278,"pop":839327,"search_terms":["питермарицбург","پیترماریتسبرگ","पीटरमैरिट्सबर्ग","بيترماريتزبرغ","pietermaritzburg","पीटरमारित्झबर्ग","ピーターマリッツバーグ","پیٹرماریٹزبرگ","피터마리츠버그","ปีเตอร์มาริตซ์เบิร์ก","彼得马里茨堡","пітермаріцбург"]},{"id":1735158,"name":"Petaling Jaya","names":{"en":"Petaling Jaya","fr":"Petaling Jaya","pl":"Petaling Jaya","de":"Petaling Jaya","fa":"پتالینگ جایا","ms":"Petaling Jaya","ru":"Петалинг-Джая","ar":"بيتالينغ جايا","ja":"プタリン・ジャヤ","ko":"프탈링자야","zh":"八打灵再也","ur":"پیتالنیگ جایا","ta":"பெடாலிங் ஜெயா"},"country":"MY","lat":3.10726,"lon":101.60671,"pop":807879,"search_terms":["پتالینگ جایا","八打灵再也","پیتالنیگ جایا","프탈링자야","petaling jaya","петалинг-джая","بيتالينغ جايا","プタリン・ジャヤ","பெடாலிங் ஜெயா"]},{"id":6929460,"name":"Panzhihua","names":{"en":"Panzhihua","zh":"攀枝花"},"country":"CN","lat":26.58509,"lon":101.71276,"pop":787177,"search_terms":["panzhihua","攀枝花"]},{"id":358619,"name":"Port Said","names":{"en":"Port Said","de":"Port Said","es":"Puerto Saíd","ar":"بورسعيد","fr":"Port-Saïd","id":"Port Said","nl":"Port Said","pl":"Port Said","pt":"Porto Said","ru":"Порт-Саид","sv":"Port Said","zh":"塞德港","hy":"Պորտ Սաիդ"},"country":"EG","lat":31.26531,"lon":32.3019,"pop":780515,"search_terms":["պորտ սաիդ","塞德港","بور سعيد","port-saïd","puerto saíd","port said","порт-саид","porto said","بورسعيد","bursaid"]},{"id":1694781,"name":"Paranaque City","names":{"en":"Paranaque City"},"country":"PH","lat":14.48156,"lon":121.01749,"pop":703245,"search_terms":["paranaque city"]},{"id":1630789,"name":"Pontianak","names":{"en":"Pontianak","de":"Pontianak","id":"Kota Pontianak","nl":"Pontianak","pl":"Pontianak","zh":"坤甸","ru":"Понтианак","fa":"پونتیاناک","ja":"ポンティアナック","ko":"폰티아낙","ms":"Kota Pontianak","th":"ปนตีอานัก","ur":"پونٹیانک، انڈونیشیا","fr":"Pontianak","ar":"بونتياناك","uk":"Понтіанак"},"country":"ID","lat":-0.03194,"lon":109.325,"pop":658685,"search_terms":["понтіанак","폰티아낙","پونٹیانک، انڈونیشیا","ปนตีอานัก","kota pontianak","پونتیاناک","坤甸","بونتياناك","pontianak","понтианак","ポンティアナック"]},{"id":1259425,"name":"Puducherry","names":{"en":"Puducherry","fr":"Pondichéry","pl":"Pondicherry","de":"Pondicherry","bn":"পন্ডিচেরী","hi":"पॉण्डिचेरी","id":"Pondicherry","ja":"ポンディシェリ","ka":"პონდიშერი","nl":"Pondicherry","pt":"Pondicherry","ro":"Pondicherry","ru":"Пондишери","sv":"Pondicherry","ta":"பாண்டிச்சேரி","uk":"Пондішері","zh":"本地治里"},"country":"IN","lat":11.93381,"lon":79.82979,"pop":657209,"search_terms":["territoire de pondichéry","ポンディシェリ","pondicherry","puducherry","pondichéry","পন্ডিচেরী","пондишери","पॉण्डिचेरी","本地治里","პონდიშერი","пондішері","பாண்டிச்சேரி"]},{"id":9181182,"name":"Puyang","names":{"en":"Puyang","zh":"濮阳","cs":"Pchu-jang","ja":"濮陽市","ko":"푸양 시","ur":"پویانگ","vi":"Bộc Dương","ru":"Пуян"},"country":"CN","lat":35.75641,"lon":115.04363,"pop":655674,"search_terms":["bộc dương","濮阳市","濮阳","پویانگ","pchu-jang","푸양 시","濮陽市","пуян","puyang"]},{"id":5746545,"name":"Portland","names":{"en":"Portland","de":"Portland","es":"Portland","fr":"Portland","it":"Portland","ja":"ポートランド","ko":"포틀랜드","ro":"Портланд","nl":"Portland","pl":"Portland","pt":"Portland","sv":"Portland","tr":"Portland","uk":"Портленд","ru":"Портленд","fa":"پورتلند، اورگن","ka":"პორტლენდი","el":"Πόρτλαντ","ar":"بورتلاند، أوريغون","hy":"Պորտլենդ","hi":"पोर्टलैंड","te":"పోర్ట్ లాండ్","th":"พอร์ตแลนด์","ta":"போர்ட்லன்ட்","mr":"पोर्टलंड","zh":"波特蘭"},"country":"US","lat":45.52345,"lon":-122.67621,"pop":652503,"search_terms":["პორტლენდი","портланд","portland","بورتلاند، أوريغون","포틀랜드","پورتلند، اورگن","πόρτλαντ","พอร์ตแลนด์","ポートランド","պորտլենդ","波特蘭","पोर्टलैंड","पोर्टलंड","పోర్ట్ లాండ్","портленд","போர்ட்லன்ட்"]},{"id":2523920,"name":"Palermo","names":{"en":"Palermo","de":"Palermo","es":"Palermo","ar":"بلرم","cs":"Palermo","fr":"Palerme","id":"Palermo","it":"Palermo","ja":"パレルモ","nl":"Palermo","pl":"Palermo","pt":"Palermo","ro":"Palermo","ru":"Палермо","sv":"Palermo","tr":"Palermo","zh":"巴勒莫市","fa":"پالرمو","hi":"पलेर्मो","ko":"팔레르모","ur":"پالیرمو"},"country":"IT","lat":38.1166,"lon":13.3636,"pop":648260,"search_terms":["палермо","پالرمو","palerme","باليرمو","팔레르모","palermu","पलेर्मो","بلرم","巴勒莫市","بلرمة","بَلَرْم","パレルモ","پالیرمو","palermo","بالرمو"]},{"id":2035513,"name":"Panshan","names":{"en":"Panshan"},"country":"CN","lat":41.18806,"lon":122.04944,"pop":625040,"search_terms":["panshan"]},{"id":1282898,"name":"Pokhara","names":{"en":"Pokhara","de":"Pokhara","es":"Pokhara","pl":"Pokhara","ja":"ポカラ","ko":"포카라","ru":"Покхара","hi":"पोखरा","uk":"Покхара","el":"Ποκάρα","th":"โปขรา","zh":"博克拉","ar":"بوخارا","ta":"பொக்காரா","ur":"پوکھرا"},"country":"NP","lat":28.26689,"lon":83.96851,"pop":600051,"search_terms":["ποκάρα","pokhara","पोखरा","ポカラ","포카라","پوکھرا","โปขรา","博克拉","بوخارا","பொக்காரா","покхара"]},{"id":7696679,"name":"Pallabi","names":{"en":"Pallabi"},"country":"BD","lat":23.825,"lon":90.37,"pop":597574,"search_terms":["pallabi"]},{"id":1732747,"name":"Pelentong","names":{"en":"Pelentong","ms":"Pelentong"},"country":"MY","lat":1.5243,"lon":103.824,"pop":583640,"search_terms":["pelentong"]},{"id":3875024,"name":"Puente Alto","names":{"en":"Puente Alto","ka":"პუენტე-ალტო","ru":"Пуэнте-Альто","zh":"上普恩特"},"country":"CL","lat":-33.61169,"lon":-70.57577,"pop":568106,"search_terms":["上普恩特","პუენტე-ალტო","пуэнте-альто","puente alto"]},{"id":786714,"name":"Pristina","names":{"en":"Pristina","fr":"Pristina","it":"Prishtina","nl":"Pristina","pl":"Prisztina","ru":"Приштина","sv":"Pristina","es":"Priština","cs":"Priština","ja":"プリシュティナ","zh":"普里什蒂纳","ko":"프리슈티나","ka":"პრიშტინა","ta":"பிரிஸ்டினா","mr":"प्रिस्टिना","ms":"Priština","ur":"پریشتینا","uk":"Приштина","el":"Πρίστινα","kk":"Приштина","vi":"Priština","tr":"Priştine","az":"Priştina","th":"พริชตีนา","ar":"بريشتينا","hy":"Պրիշտինա","ro":"Priștina","fa":"پریشتینا","tt":"Приштина","uz":"Prishtina"},"country":"XK","lat":42.67272,"lon":21.16688,"pop":550000,"search_terms":["प्रिस्टिना","பிரிஸ்டினா","پریشتینا","พริชตีนา","プリシュティナ","priştina","priština","priștina","приштина","პრიშტინა","prisztina","պրիշտինա","프리슈티나","prishtina","pristina","priştine","普里什蒂纳","πρίστινα","prisjtina","بريشتينا"]},{"id":3662762,"name":"Porto Velho","names":{"en":"Porto Velho","de":"Porto Velho","es":"Porto Velho","id":"Porto Velho","pl":"Porto Velho","pt":"Porto Velho","ru":"Порту-Велью","sv":"Porto Velho","tr":"Porto Velho","fr":"Porto Velho","tg":"Порту-Велю","ar":"بورتو فاليو","ja":"ポルト・ヴェーリョ","ka":"პორტუ-ველიუ","kk":"Порту-Велью","ko":"포르투벨류","th":"โปร์ตูเวลยู","uk":"Порту-Велью","zh":"韋柳港"},"country":"BR","lat":-8.76194,"lon":-63.90389,"pop":548952,"search_terms":["porto velho","პორტუ-ველიუ","بورتو فاليو","โปร์ตูเวลยู","ポルト・ヴェーリョ","порту-велю","порту-велью","포르투벨류","韋柳港"]},{"id":1798821,"name":"Pingdu","names":{"en":"Pingdu","ru":"Пинду","zh":"平度"},"country":"CN","lat":36.78444,"lon":119.94639,"pop":542234,"search_terms":["пинду","pingdu","平度"]},{"id":3088171,"name":"Poznan","names":{"en":"Poznan","de":"Posen","ru":"Познань","es":"Posnania","mr":"पोझ्नान","ta":"போசுனான்","fa":"پوزنان","ka":"პოზნანი","el":"Πόζναν","ko":"포즈난","th":"พอซนาน","uk":"Познань","ar":"بوزنان","cs":"Poznaň","ja":"ポズナン","az":"Poznan","zh":"波茲南","hy":"Պոզնան","ky":"Познань","tt":"Познань","ur":"پوزنان","pl":"Poznań"},"country":"PL","lat":52.40692,"lon":16.92993,"pop":536151,"search_terms":["πόζναν","poznaň","بوزنان","poznań","poznan","ポズナン","պոզնան","پوزنان","पोझ्नान","พอซนาน","posnania","познань","포즈난","போசுனான்","posen","波茲南","პოზნანი"]},{"id":1732722,"name":"Pasir Gudang","names":{"en":"Pasir Gudang","ms":"Pasir Gudang","fa":"پاسیر گودانگ","zh":"巴西古当"},"country":"MY","lat":1.462,"lon":103.9053,"pop":534659,"search_terms":["پاسیر گودانگ","巴西古当","pasir gudang"]},{"id":511565,"name":"Penza","names":{"en":"Penza","de":"Pensa","cs":"Penza","ja":"ペンザ","ko":"펜자","nl":"Penza","pl":"Penza","id":"Penza","ru":"Пенза","ar":"بينزا","el":"Πένζα","fa":"پنزا","zh":"奔萨","hy":"Պենզա","ur":"پینزا"},"country":"RU","lat":53.19568,"lon":45.01075,"pop":523553,"search_terms":["펜자","پینزا","պենզա","пенза","πένζα","penza","پنزا","بينزا","pensa","奔萨","ペンザ"]},{"id":1798760,"name":"Pingliang","names":{"en":"Pingliang","ru":"Пинлян","zh":"平凉","cs":"Pching-liang","hy":"Պիլիան","ja":"平涼市","ko":"핑량 시","ur":"پنگلیانگ","vi":"Bình Lương"},"country":"CN","lat":35.53917,"lon":106.68611,"pop":504848,"search_terms":["平涼市","平凉市","պիլիան","پنگلیانگ","핑량 시","pingliang","bình lương","平凉","pching-liang","пинлян"]},{"id":1839071,"name":"Pohang","names":{"en":"Pohang","ko":"포항"},"country":"KR","lat":36.02917,"lon":129.36481,"pop":492041,"search_terms":["포항","pohang"]},{"id":377039,"name":"Port Sudan","names":{"en":"Port Sudan","de":"Bur Sudan","es":"Puerto Sudán","ar":"بورتسودان","ja":"ポートスーダン","pl":"Port Sudan","ru":"Порт-Судан","fr":"Port-Soudan","it":"Porto Sudan","fa":"بور سودان","hy":"Պորտ Սուդան","kk":"Порт-Судан","ko":"포트수단","th":"พอร์ตซูดาน","uk":"Порт-Судан","ur":"پورٹ سوڈان","uz":"Port-sudan","pt":"Porto Sudão","zh":"苏丹港","az":"Port Sudan","tr":"Port Sudan"},"country":"SD","lat":19.61745,"lon":37.21644,"pop":489725,"search_terms":["بورتسودان","بور سودان","porto sudão","port-sudan","puerto sudán","porto sudan","苏丹港","ポートスーダン","bur sudan","порт-судан","พอร์ตซูดาน","پورٹ سوڈان","port-soudan","պորտ սուդան","포트수단","port sudan"]},{"id":3693528,"name":"Piura","names":{"en":"Piura","es":"Piura","fr":"Piura","pl":"Piura","de":"Piura","id":"Piura","pt":"Piura","ru":"Пиура","ka":"პიურა","uk":"Піура","ja":"ピウラ","th":"ปิวรา","zh":"皮乌拉","fa":"پیورا","ko":"피우라","ur":"پیورا"},"country":"PE","lat":-5.18192,"lon":-80.65715,"pop":484475,"search_terms":["піура","피우라","пьюра","ปิวรา","پیورا","пиура","ピウラ","piura","皮乌拉","პიურა"]},{"id":3672486,"name":"Pereira","names":{"en":"Pereira","ru":"Перейра","de":"Pereira","fr":"Pereira"},"country":"CO","lat":4.81428,"lon":-75.69488,"pop":467269,"search_terms":["pereira","перейра"]},{"id":1260107,"name":"Patiala","names":{"en":"Patiala","ru":"Патьяла"},"country":"IN","lat":30.33625,"lon":76.3922,"pop":446246,"search_terms":["патьяла","patiala"]},{"id":2512989,"name":"Palma","names":{"en":"Palma","es":"Palma de Mallorca","de":"Palma de Mallorca","fr":"Palma","pl":"Palma de Mallorca","ar":"ميورقة","cs":"Palma de Mallorca","id":"Palma de Mallorca","it":"Palma di Maiorca","ja":"パルマ・デ・マリョルカ","ko":"팔마데마요르카","nl":"Palma de Mallorca","pt":"Palma de Maiorca","ro":"Palma de Mallorca","ru":"Пальма","sv":"Palma de Mallorca","tr":"Palma de Mallorca"},"country":"ES","lat":39.56939,"lon":2.65024,"pop":438234,"search_terms":["팔마데마요르카","palma","パルマ・デ・マリョルカ","palma de mallorca","ميورقة","пальма","palma de maiorca","palma di maiorca"]},{"id":1694611,"name":"Pasay","names":{"en":"Pasay"},"country":"PH","lat":14.53748,"lon":121.00144,"pop":416522,"search_terms":["pasay"]},{"id":3703443,"name":"Panama","names":{"en":"Panama City","de":"Panama-Stadt","es":"Panamá","fr":"Panamá","it":"Panamá","ja":"パナマシティ","ko":"파나마시티","nl":"Panama-stad","pl":"Panama","pt":"Panamá","ro":"Panama City","sv":"Panama City","fa":"شهر پاناما","el":"Πόλη του Παναμά","ru":"Панама","am":"ፓናማ ከተማ","mr":"पनामा सिटी","sw":"Panama City","th":"ปานามาซิตี"},"country":"PA","lat":8.9936,"lon":-79.51973,"pop":408168,"search_terms":["πόλη του παναμά","панама","파나마시티","panama","panamá","panama-stad","पनामा सिटी","panama city","파나마 시","panama-stadt","パナマシティ","شهر پاناما","ปานามาซิตี","ciudad de panamá","ፓናማ ከተማ"]},{"id":3453643,"name":"Piracicaba","names":{"en":"Piracicaba","pt":"Piracicaba","ru":"Пирасикаба","kk":"Пирасикаба","uk":"Пірасікаба","zh":"皮拉西卡巴"},"country":"BR","lat":-22.72528,"lon":-47.64917,"pop":407252,"search_terms":["пирасикаба","пірасікаба","皮拉西卡巴","piracicaba"]},{"id":3672778,"name":"Pasto","names":{"en":"Pasto","de":"Pasto","es":"Pasto","fr":"Pasto","pt":"Pasto","sv":"Pasto","pl":"Pasto"},"country":"CO","lat":1.21456,"lon":-77.27846,"pop":392930,"search_terms":["pasto"]},{"id":3392242,"name":"Petrolina","names":{"en":"Petrolina","ru":"Петролина","kk":"Петролина","zh":"彼得羅利納","uk":"Петроліна"},"country":"BR","lat":-9.39861,"lon":-40.50083,"pop":386791,"search_terms":["彼得羅利納","петроліна","петролина","petrolina"]},{"id":1260482,"name":"Panihati","names":{"en":"Panihati"},"country":"IN","lat":22.69089,"lon":88.37404,"pop":378705,"search_terms":["panihati"]},{"id":1749822,"name":"Puchong","names":{"en":"Puchong"},"country":"MY","lat":3.0,"lon":101.61667,"pop":375181,"search_terms":["puchong"]},{"id":1633034,"name":"Palu","names":{"en":"Palu","de":"Palu","id":"Kota Palu","pl":"Palu","ru":"Пал","fr":"Palu"},"country":"ID","lat":-0.90833,"lon":119.87083,"pop":373218,"search_terms":["kota palu","пал","kabupaten poso","palu"]},{"id":3629672,"name":"Puerto La Cruz","names":{"en":"Puerto Cruz","es":"Puerto de La Cruz","ru":"Пуэрто Ла Круз","pt":"Puerto Cruz","ar":"بويرتو لا كروز","ka":"პუერტო-ლა-კრუსი","pl":"Puerto la Cruz","sv":"Puerto la Cruz","zh":"拉克魯斯港"},"country":"VE","lat":10.21382,"lon":-64.6328,"pop":370000,"search_terms":["пуэрто ла круз","puerto de la cruz","بويرتو لا كروز","пуэрто-ла-крус","პუერტო-ლა-კრუსი","puerto cruz","puerto la cruz","拉克魯斯港"]},{"id":1838343,"name":"Pyeongtaek","names":{"en":"Pyeongtaek-si","ko":"평택시"},"country":"KR","lat":36.99472,"lon":127.08889,"pop":364694,"search_terms":["평택시","pyeongtaek-si","pyeongtaek"]},{"id":3630297,"name":"Petare","names":{"en":"Petare","es":"Petare","ja":"ペタレ","pt":"Petare","ru":"Петаре","ka":"პეტარე","ko":"페타레","uk":"Петаре","zh":"佩塔雷"},"country":"VE","lat":10.47679,"lon":-66.80786,"pop":364684,"search_terms":["ペタレ","петаре","პეტარე","페타레","佩塔雷","petare"]},{"id":1798900,"name":"Pengze","names":{"en":"Pengze"},"country":"CN","lat":29.89885,"lon":116.54572,"pop":350000,"search_terms":["pengze"]},{"id":1259239,"name":"Punasa","names":{"en":"Punasa"},"country":"IN","lat":22.23507,"lon":76.39335,"pop":350000,"search_terms":["punasa"]},{"id":3452465,"name":"Praia Grande","names":{"en":"Praia Grande","ru":"Прайя-Гранди","kk":"Прая-Гранди","uk":"Прая-Гранді","zh":"大普拉亚"},"country":"BR","lat":-24.00583,"lon":-46.40278,"pop":349935,"search_terms":["прая-гранди","praia grande","大普拉亚","прая-гранді","прайя-гранди"]},{"id":1785716,"name":"Pizhou","names":{"en":"Pizhou"},"country":"CN","lat":34.31139,"lon":117.95028,"pop":343421,"search_terms":["pizhou"]},{"id":3392740,"name":"Paulista","names":{"en":"Paulista","de":"Paulista","pt":"Paulista","sv":"Paulista"},"country":"BR","lat":-7.94083,"lon":-34.87306,"pop":342167,"search_terms":["paulista"]},{"id":728193,"name":"Plovdiv","names":{"en":"Plovdiv","de":"Plowdiw","es":"Plovdiv","cs":"Plovdiv","el":"Φιλιππούπολη","fr":"Plovdiv","id":"Plovdiv","ja":"プロヴディフ","nl":"Plovdiv","pl":"Płowdiw","ru":"Пловдив","sv":"Plovdiv","tr":"Filibe","ar":"بلوفديف","it":"Filippopoli","ka":"პლოვდივი","pt":"Plovdiv","ko":"플로브디프","uk":"Пловдив","mr":"प्लॉव्हडिव्ह","hy":"Պլովդիվ","kk":"Пловдив","fa":"پلوودیو","tk":"Plowdiw","th":"พลอฟดิฟ","zh":"普罗夫迪夫"},"country":"BG","lat":42.15387,"lon":24.75001,"pop":329489,"search_terms":["پلوودیو","პლოვდივი","พลอฟดิฟ","플로브디프","プロヴディフ","plovdiv","بلوفديف","φιλιππούπολη","płowdiw","պլովդիվ","filippopoli","普罗夫迪夫","plowdiw","filibe","प्लॉव्हडिव्ह","пловдив"]},{"id":1520240,"name":"Pavlodar","names":{"en":"Pavlodar","de":"Pawlodar","fr":"Pavlodar","ja":"パヴロダル","ko":"파블로다르","nl":"Pavlodar","pl":"Pawłodar","ru":"Павлодар","sv":"Pavlodar","it":"Pavlodar","kk":"Павлодар","pt":"Pavlodar","fa":"پاولودار، قزاقستان","uk":"Павлодар","th":"ปัฟโลดาร์","ar":"بافلودار","tt":"Павлодар","el":"Παβλοντάρ","zh":"巴甫洛達爾","ka":"პავლოდარი","ky":"Павлодар","tk":"Pawlodar","ur":"پاؤلودار"},"country":"KZ","lat":52.27601,"lon":76.96881,"pop":329002,"search_terms":["ปัฟโลดาร์","павлодар","巴甫洛達爾","პავლოდარი","بافلودار","παβλοντάρ","پاؤلودار","パヴロダル","pawlodar","پاولودار، قزاقستان","pavlodar","pawłodar","파블로다르"],"_key":"p","dumk_id":53},{"id":3693345,"name":"Pucallpa","names":{"en":"Pucallpa","de":"Pucallpa","es":"Pucallpa","id":"Pucallpa","ja":"プカルバ","pt":"Pucallpa","pl":"Pucallpa","fr":"Pucallpa","ru":"Пукальпа","ka":"პუკალიპა","zh":"普卡尔帕","fa":"پوکایپا","ko":"푸카이파","th":"ปูไกปา","uk":"Пукальпа","ur":"پوکاایپا"},"country":"PE","lat":-8.37915,"lon":-74.55387,"pop":326040,"search_terms":["პუკალიპა","プカルバ","푸카이파","pucallpa","普卡尔帕","پوکاایپا","پوکایپا","ปูไกปา","пукальпа"]},{"id":3652941,"name":"Portoviejo","names":{"en":"Portoviejo","ru":"Портовьехо","zh":"波托維耶霍","ka":"პორტოვიეხო","ko":"포르토비에호","ur":"پورتوبیخو"},"country":"EC","lat":-1.05764,"lon":-80.45145,"pop":321800,"search_terms":["波托維耶霍","портовьехо","포르토비에호","پورتوبیخو","portoviejo","პორტოვიეხო"]},{"id":3454244,"name":"Pelotas","names":{"en":"Pelotas","de":"Pelotas","fr":"Pelotas","it":"Pelotas","nl":"Pelotas","pl":"Pelotas","pt":"Pelotas","sv":"Pelotas","es":"Pelotas","ru":"Пелотас","kk":"Пелотас","ko":"펠로타스","zh":"佩洛塔斯"},"country":"BR","lat":-31.76997,"lon":-52.34101,"pop":320674,"search_terms":["佩洛塔斯","pelotas","펠로타스","пелотас"]},{"id":3671916,"name":"Popayan","names":{"en":"Popayán","uk":"Попаян","ja":"ポパヤン","ru":"Попаян","zh":"波帕扬","ko":"포파얀","fa":"پوپایان","ur":"پوپایان","es":"Popayán"},"country":"CO","lat":2.43823,"lon":-76.61316,"pop":318059,"search_terms":["波帕扬","포파얀","ポパヤン","попаян","پوپایان","popayan","popayán"]},{"id":1631766,"name":"Pekalongan","names":{"en":"Pekalongan","pl":"Pekalongan","fr":"Pekalongan","id":"Kota Pekalongan"},"country":"ID","lat":-6.8886,"lon":109.6753,"pop":317524,"search_terms":["kota pekalongan","pekalongan"]},{"id":2639912,"name":"Preston","names":{"en":"Preston","de":"Preston","es":"Preston","fr":"Preston","id":"Preston","nl":"Preston","sv":"Preston","tr":"Preston","pl":"Preston","ru":"Престон","hi":"प्रेस्टन","ar":"برستون","ja":"プレストン","ko":"프레스턴","uk":"Престон","zh":"普雷斯顿","fa":"پرستون","hy":"Պրեստոն","ur":"پریسٹن، لنکاشائر"},"country":"GB","lat":53.76282,"lon":-2.70452,"pop":313332,"search_terms":["پریسٹن، لنکاشائر","प्रेस्टन","プレストン","پرستون","престон","برستون","պրեստոն","普雷斯顿","프레스턴","preston"]},{"id":3673164,"name":"Palmira","names":{"en":"Palmira"},"country":"CO","lat":3.53944,"lon":-76.30361,"pop":312519,"search_terms":["palmira"]},{"id":1214189,"name":"Percut","names":{"en":"Percut","id":"Percut"},"country":"ID","lat":3.6253,"lon":98.864,"pop":311063,"search_terms":["percut"]},{"id":1260341,"name":"Parbhani","names":{"en":"Parbhani","sv":"Parbhani","bn":"পারভানি","fa":"پربانی","mr":"परभणी","ur":"پربھنی","ru":"Парбхани","zh":"帕尔巴尼"},"country":"IN","lat":19.26855,"lon":76.77081,"pop":307170,"search_terms":["парбхани","परभणी","پربانی","پربھنی","帕尔巴尼","পারভানি","parbhani"]},{"id":3474574,"name":"Palmas","names":{"en":"Palmas","de":"Palmas","es":"Palmas","id":"Palmas","nl":"Palmas","pt":"Palmas","ru":"Палмас","sv":"Palmas","fr":"Palmas","tg":"Палмас","uk":"Палмас"},"country":"BR","lat":-10.16745,"lon":-48.32766,"pop":306296,"search_terms":["palmas","палмас"]},{"id":3718420,"name":"Port-de-Paix","names":{"en":"Port-de-Paix","zh":"和平港","ru":"Пор-де-Пе","ja":"ポールドペ","ko":"포르드페이","uk":"Пор-де-Пе","ur":"پورت دے پئے","pt":"Porto-da-Paz"},"country":"HT","lat":19.93984,"lon":-72.83037,"pop":306217,"search_terms":["포르드페이","ポールドペ","포르드페","和平港","port-de-paix","پورت دے پئے","пор-де-пе","porto-da-paz"]},{"id":3429886,"name":"Posadas","names":{"en":"Posadas","de":"Posadas","es":"Posadas","id":"Posadas","it":"Posadas","pt":"Posadas","fr":"Posadas","pl":"Posadas","nl":"Posadas","tr":"Posadas","ja":"ポサーダス","uk":"Посадас","ka":"პოსადასი","fa":"پوساداس","ru":"Посадас","zh":"波萨达斯","ko":"포사다스","ar":"بوساداس، ميسيونيس","hy":"Պոսադաս","ur":"پاساداس، میسیونس"},"country":"AR","lat":-27.39184,"lon":-55.92379,"pop":305874,"search_terms":["პოსადასი","پاساداس، میسیونس","포사다스","بوساداس، ميسيونيس","پوساداس","波萨达斯","ポサーダス","պոսադաս","posadas","посадас"]},{"id":5206379,"name":"Pittsburgh","names":{"en":"Pittsburgh","de":"Pittsburgh","fr":"Pittsburgh","es":"Pittsburgh","pl":"Pittsburgh","id":"Pittsburgh","it":"Pittsburgh","ja":"ピッツバーグ","nl":"Pittsburgh","pt":"Pitsburgo","ru":"Питтсбург","sv":"Pittsburgh","tr":"Pittsburgh","ta":"பிட்ஸ்பர்க்","te":"పిట్స్‌బర్గ్","ar":"بيتسبرغ","mr":"पिट्सबर्ग","uk":"Піттсбург","fa":"پیتسبرگ، پنسیلوانیا","el":"Πίτσμπεργκ","ko":"피츠버그","hi":"पिट्सबर्ग","th":"พิตต์สเบิร์ก","kk":"Питтсбург","zh":"匹兹堡","az":"Pittsburq","ky":"Питсбург","ur":"پٹسبرگ"},"country":"US","lat":40.44062,"lon":-79.99589,"pop":304391,"search_terms":["పిట్స్‌బర్గ్","ピッツバーグ","پیتسبرگ، پنسیلوانیا","피츠버그","πίτσμπεργκ","பிட்ஸ்பர்க்","pittsburq","پٹسبرگ","питсбург","بيتسبرغ","พิตต์สเบิร์ก","піттсбург","pittsburgh","पिट्सबर्ग","匹兹堡","питтсбург","pitsburgo"]},{"id":1282931,"name":"Patan","names":{"en":"Patan","de":"Lalitpur","es":"Patan","fr":"Patan","pl":"Patan","ru":"Лалитпур"},"country":"NP","lat":27.67658,"lon":85.31417,"pop":299283,"search_terms":["lalitpur","лалитпур","patan"]},{"id":1794209,"name":"Pu'er","names":{"en":"Pu'er","zh":"思茅"},"country":"CN","lat":22.78863,"lon":100.97481,"pop":296565,"search_terms":["思茅","pu'er"]},{"id":1260476,"name":"Panipat","names":{"en":"Panipat","de":"Panipat","sv":"Panipat","ru":"Панипата"},"country":"IN","lat":29.38747,"lon":76.96825,"pop":295970,"search_terms":["panipat","панипата"]},{"id":8531735,"name":"Phu Quoc","names":{"en":"Phu Quoc","vi":"Phú Quốc","zh":"富國島","ru":"Фукуок","ja":"フーコック島","ko":"푸꼭"},"country":"VN","lat":10.22409,"lon":103.97156,"pop":294419,"search_terms":["フーコック島","koh trol","富國島","фукуок","푸꼭","phu quoc","phú quốc"]},{"id":1633118,"name":"Palangkaraya","names":{"en":"Palangkaraya","pl":"Palangkaraya","de":"Palangkaraya","id":"Kota Palangka Raya","ru":"Паланкарая"},"country":"ID","lat":-2.20833,"lon":113.91667,"pop":293500,"search_terms":["паланкарая","palangkaraya","kota palangka raya"]},{"id":3453186,"name":"Ponta Grossa","names":{"en":"Ponta Grossa","es":"Ponta Grossa","pt":"Ponta Grossa","sv":"Ponta Grossa","th":"โปนตากรอสซา","ru":"Понта-Гроса","zh":"蓬塔格羅薩","fa":"پونتا گروسا"},"country":"BR","lat":-25.095,"lon":-50.16194,"pop":292177,"search_terms":["โปนตากรอสซา","پونتا گروسا","蓬塔格羅薩","понта-гроса","ponta grossa"]},{"id":1570357,"name":"Phu My","names":{"en":"Phu My"},"country":"VN","lat":10.63333,"lon":107.06667,"pop":287055,"search_terms":["phu my"]},{"id":2088122,"name":"Port Moresby","names":{"en":"Port Moresby","de":"Port Moresby","es":"Puerto Moresby","fr":"Port Moresby","id":"Port Moresby","it":"Port Moresby","ja":"ポートモレスビー","ko":"포트모르즈비","nl":"Port Moresby","pl":"Port Moresby","pt":"Port Moresby","sv":"Port Moresby","el":"Πορτ Μόρεσμπι","fa":"پورت مورسبی","ru":"Порт-Морсби","am":"ፖርት ሞርስቢ","cs":"Port Moresby","ar":"بورت مورسبي","az":"Port Morsbi","hi":"पोर्ट मोरेस्बी","hy":"Պորտ Մորսբի","ka":"პორტ-მორზბი","mr":"पोर्ट मॉरेस्बी","th":"พอร์ตมอร์สบี","uk":"Порт-Морсбі","ur":"پورٹ مورسبی","zh":"莫尔兹比港"},"country":"PG","lat":-9.47723,"lon":147.15089,"pop":283733,"search_terms":["ፖርት ሞርስቢ","پورت مورسبی","port morsbi","պորտ մորսբի","莫尔兹比港","порт-морсби","პორტ-მორზბი","پورٹ مورسبی","порт-морсбі","पोर्ट मॉरेस्बी","port moresby","พอร์ตมอร์สบี","포트모르즈비","بورت مورسبي","ポートモレスビー","puerto moresby","पोर्ट मोरेस्बी","πορτ μόρεσμπι"]},{"id":4719457,"name":"Plano","names":{"en":"Plano","ru":"Планом","ko":"플레이노","ja":"プレイノ","ar":"بلانو","mr":"प्लेनो","fa":"پلینو","uk":"Плейно","zh":"普莱诺","ur":"پلانو، ٹیکساس"},"country":"US","lat":33.01984,"lon":-96.69889,"pop":283558,"search_terms":["плейно","планом","پلینو","प्लेनो","プレイノ","plano","普莱诺","بلانو","پلانو، ٹیکساس","플레이노"]},{"id":696643,"name":"Poltava","names":{"en":"Poltava","de":"Poltawa","fr":"Poltava","id":"Poltava","ja":"ポルタヴァ","ko":"폴타바","nl":"Poltava","pl":"Połtawa","ru":"Полтава","sv":"Poltava","uk":"Полтава","es":"Poltava","ka":"პოლტავა","fa":"پولتاوا","hy":"Պոլտավա","zh":"波尔塔瓦","ar":"بولتافا","ky":"Полтава","tt":"Полтава","ur":"پولتاوا","el":"Πολτάβα","th":"ปอลตาวา","ta":"போல்தாவா"},"country":"UA","lat":49.58925,"lon":34.55367,"pop":283402,"search_terms":["полтава","πολτάβα","بولتافا","波尔塔瓦","połtawa","პოლტავა","польтова","poltawa","போல்தாவா","poltava","پولتاوا","պոլտավա","폴타바","ポルタヴァ","ปอลตาวา"]},{"id":3719028,"name":"Petionville","names":{"en":"Petionville"},"country":"HT","lat":18.5125,"lon":-72.28528,"pop":283052,"search_terms":["petionville"]},{"id":1259166,"name":"Purnia","names":{"en":"Purnia","ru":"Пурния","ar":"بورنيا","bn":"পূর্ণিয়া","fa":"پورنیا","hi":"पूर्णिया","mr":"पुर्णिया","ta":"பூர்ணியா","ur":"پورنیہ","zh":"普尔尼亚","de":"Purnia","pt":"Purnia","uk":"Пурнія","id":"Purnia","ms":"Purnia","el":"Πούρνια","it":"Purnia","es":"Purnia","vi":"Purnia","ja":"プールニヤー","nl":"Purnia","fr":"Purnia","sv":"Purnia","ko":"푸리나","te":"పూర్నియ","th":"ปุรนา","tl":"Purnia","ha":"Purnia","pl":"Purnia","tr":"Purnia"},"country":"IN","lat":25.77895,"lon":87.47422,"pop":282248,"search_terms":["পূর্ণিয়া","пурнія","پورنیا","पूर्णिया","پورنیہ","普尔尼亚","πούρνια","ปุรนา","पुर्णिया","プールニヤー","푸리나","بورنيا","пурния","పూర్నియ","purnia","பூர்ணியா"]},{"id":509820,"name":"Petrozavodsk","names":{"en":"Petrozavodsk","de":"Petrosawodsk","cs":"Petrozavodsk","fr":"Petrozavodsk","ja":"ペトロザヴォーツク","ko":"페트로자보츠크","nl":"Petrozavodsk","pl":"Petrozawodzk","ru":"Петрозаводск","sv":"Petroskoj","it":"Petrozavodsk","tt":"Петрозаводск","uk":"Петрозаводськ","ar":"بيتروزوفودسك","fa":"پتروزاودسک","zh":"彼得罗扎沃茨克","hi":"पेत्रोज़ावोद्स्क","ka":"პეტროზავოდსკი","el":"Πετροζαβόντσκ","ky":"Петрозаводск","ur":"پیٹروزاودسک"},"country":"RU","lat":61.78491,"lon":34.34691,"pop":279190,"search_terms":["ペトロザヴォーツク","पेत्रोज़ावोद्स्क","πετροζαβόντσκ","петрозаводськ","بيتروزوفودسك","petroskoj","彼得罗扎沃茨克","پیٹروزاودسک","petrozavodsk","petrosawodsk","پتروزاودسک","პეტროზავოდსკი","pietrozawodsk","петрозаводск","페트로자보츠크","petrozawodzk"]},{"id":1214204,"name":"Pematangsiantar","names":{"en":"Pematangsiantar","id":"Pematangsiantar"},"country":"ID","lat":2.9595,"lon":99.0687,"pop":274838,"search_terms":["pematangsiantar"]},{"id":1632228,"name":"Pasarkemis","names":{"en":"Pasarkemis"},"country":"ID","lat":-6.17028,"lon":106.53028,"pop":273659,"search_terms":["pasarkemis"]},{"id":3454031,"name":"Petropolis","names":{"en":"Petropolis","de":"Petrópolis","es":"Petrópolis","pl":"Petrópolis","fr":"Petrópolis","pt":"Petrópolis","sv":"Petrópolis","ja":"ペトロポリス","kk":"Петрополис","ko":"페트로폴리스","tr":"Petropolis","uk":"Петрополіс","ru":"Петрополис","zh":"彼得罗波利斯"},"country":"BR","lat":-22.505,"lon":-43.17861,"pop":272691,"search_terms":["петрополис","彼得罗波利斯","petrópolis","петрополіс","petropolis","ペトロポリス","페트로폴리스"]},{"id":965289,"name":"Polokwane","names":{"en":"Polokwane","fr":"Polokwane","de":"Polokwane","nl":"Polokwane","th":"โพโลเควน","ar":"بولوكوان","mr":"पोलोक्वाने","am":"ፖሎክዋኔ","ja":"ポロクワネ","fa":"پولوکوین","uk":"Полокване","ko":"폴로콰네","ru":"Полокване","zh":"波羅克瓦尼","el":"Πολοκουάνε","hi":"पोलक्वानी","ur":"پولوکوانے"},"country":"ZA","lat":-23.90449,"lon":29.46885,"pop":272461,"search_terms":["पोलोक्वाने","पोलक्वानी","ፖሎክዋኔ","polokwane","ポロクワネ","بولوكوان","πολοκουάνε","波羅克瓦尼","پولوکوانے","полокване","폴로콰네","โพโลเควน","پولوکوین"]},{"id":6317872,"name":"Parauapebas","names":{"en":"Parauapebas","pt":"Parauapebas","ru":"Парауапебас"},"country":"BR","lat":-6.0675,"lon":-49.90222,"pop":267836,"search_terms":["parauapebas","парауапебас"]},{"id":3392998,"name":"Parnamirim","names":{"en":"Parnamirim","pt":"Parnamirim","kk":"Парнамирин","ru":"Парнамирин"},"country":"BR","lat":-5.91556,"lon":-35.26278,"pop":267036,"search_terms":["парнамирин","parnamirim"]},{"id":2392087,"name":"Porto-Novo","names":{"en":"Porto-Novo","de":"Porto Novo","es":"Porto Novo","fa":"پورتو نووو","fr":"Porto Novo","it":"Porto-Novo","ja":"ポルトノボ","ko":"포르토노보","nl":"Porto-Novo","pl":"Porto-Novo","pt":"Porto-Novo","ro":"Porto Novo","ru":"Порто-Ново","sv":"Porto-Novo","zh":"新港","el":"Πόρτο Νόβο","ku":"Porto Novo","sw":"Porto Novo","am":"ፖርቶ ኖቮ","ar":"بورتو نوفو","cs":"Porto Novo","hy":"Պորտո Նովո","ka":"პორტო-ნოვო","ky":"Порто-Ново","mr":"पोर्तो-नोव्हो","so":"Borto-Novo","tg":"Порто-Ново","th":"ปอร์โต-โนโว","uk":"Порто-Ново","ur":"پورٹو نووو"},"country":"BJ","lat":6.49646,"lon":2.60359,"pop":264320,"search_terms":["պորտո նովո","porto-novo","ポルトノボ","порто-ново","πόρτο-νόβο","πόρτο νόβο","पोर्तो-नोव्हो","포르토노보","ፖርቶ ኖቮ","波多诺伏","بورتو نوفو","پورتو نووو","პორტო-ნოვო","borto-novo","پورٹو نووو","porto novo","ปอร์โต-โนโว","新港"]},{"id":2640194,"name":"Plymouth","names":{"en":"Plymouth","de":"Plymouth","es":"Plymouth","fr":"Plymouth","it":"Plymouth","nl":"Plymouth","pl":"Plymouth","pt":"Plymouth","ru":"Плимут","sv":"Plymouth","tr":"Plymouth","zh":"普利茅斯","id":"Plymouth","ja":"プリマス","ro":"Plymouth","az":"Plimut","th":"พลิมัท","mr":"प्लिमथ","fa":"پلیموث","uk":"Плімут","ko":"플리머스","el":"Πλίμουθ","ar":"بليموث"},"country":"GB","lat":50.37153,"lon":-4.14305,"pop":260203,"search_terms":["プリマス","plimut","普利茅斯","πλίμουθ","प्लिमथ","플리머스","بليموث","plymouth","พลิมัท","плимут","плімут","پلیموث"]},{"id":3522210,"name":"Pachuca de Soto","names":{"en":"Pachuca de Soto","de":"Pachuca de Soto","es":"Pachuca","fr":"Pachuca","nl":"Pachuca de Soto","pt":"Pachuca","sv":"Pachuca de Soto","uk":"Пачука-де-Сото","fa":"پاچوکا٬ ایدالگو","ja":"パチューカ","ka":"პაჩუკა","ru":"Пачука-де-Сото","zh":"帕丘卡","ko":"파추카"},"country":"MX","lat":20.11697,"lon":-98.73329,"pop":256584,"search_terms":["pachuca de soto","პაჩუკა","пачука-де-сото","پاچوکا٬ ایدالگو","파추카","帕丘卡","パチューカ","pachuca"]},{"id":2392204,"name":"Parakou","names":{"en":"Parakou","pl":"Parakou","fr":"Parakou","es":"Parakou","id":"Parakou","nl":"Parakou","ru":"Параку","ko":"파라쿠","ja":"パラクー","uk":"Параку","fa":"پاراکو، بنین","zh":"帕拉庫"},"country":"BJ","lat":9.33716,"lon":2.63031,"pop":255478,"search_terms":["파라쿠","پاراکو، بنین","帕拉庫","パラクー","параку","parakou"]},{"id":293918,"name":"Petah Tiqva","names":{"en":"Petah Tikva","ru":"Петах-Тиква","de":"Petach Tikwa","hi":"पेटह टिकवा","pt":"Petah Tikva","hy":"Պետահ Տիկվա","uk":"Петах-Тіква","id":"Petah Tikva","ur":"فتح تکو","mr":"पेताह तिक्वाह","ms":"Petah Tikva","el":"Πετάχ Τίκβα","it":"Petah Tiqwa","es":"Petaj Tikva","zh":"佩塔提克瓦","ar":"بتاح تكفا","vi":"Petah Tikva","ja":"ペタフ・ティクヴァ","az":"Petah-Tikva","fa":"پتخ تیکوا","ro":"Petah Tikva","nl":"Petach Tikwa","fr":"Petah Tikva","bn":"পেটা ঠিকভা","ka":"ფეთახ თიკვა","sv":"Petaẖ Tiqwa","ko":"페타티크바","sw":"Petah Tikva","ta":"பெடஹ் டிக்வா","cs":"Petach Tikva","te":"పెతః తిక్వ","th":"เปตะห์ติกวา","tl":"Petah Tikva","pl":"Petach Tikwa","tr":"Petah Tikva"},"country":"IL","lat":32.08707,"lon":34.88747,"pop":253529,"search_terms":["페타티크바","petah tikwah","بتاح تكفا","petah tiqva","فتح تکو","petaẖ tiqwa","petaẖ tikva","पेताह तिक्वाह","петах-тиква","πετάχ τίκβα","petah tiqwa","పెతః తిక్వ","petach tikva","mulebbis","pethah tiqvā","เปตะห์ติกวา","பெடஹ் டிக்வா","पेटह टिकवा","петах-тіква","ფეთახ თიკვა","պետահ տիկվա","পেটা ঠিকভা","پتخ تیکوا","petah tikva","petah-tikva","petach tikwa","ペタフ・ティクヴァ","petaj tikva","佩塔提克瓦"]},{"id":2735943,"name":"Porto","names":{"en":"Porto","pl":"Porto","es":"Oporto","de":"Porto","fr":"Porto","ar":"بورتو","cs":"Porto","el":"Πόρτο","fa":"پورتو","id":"Porto","ja":"ポルト","ka":"პორტუ","nl":"Porto","pt":"Porto","ro":"Porto","ru":"Порту","sv":"Porto","uk":"Порту","it":"Porto"},"country":"PT","lat":41.1485,"lon":-8.61097,"pop":252687,"search_terms":["oporto","پورتو","ポルト","πόρτο","πορτο","porto","بورتو","порту","პორტუ"]},{"id":3841956,"name":"Parana","names":{"en":"Parana","de":"Paraná","es":"Paraná","pl":"Parana","pt":"Paraná","fr":"Paraná","it":"Paraná","ko":"파라나","el":"Παρανά","ja":"パラナ","ka":"პარანა","uk":"Парана","fa":"پارانا","ru":"Парана","zh":"巴拉那","uz":"Parana","ar":"بارانا، انتري ريوس","hy":"Պարանա","ur":"پارانا، انترے ریوس"},"country":"AR","lat":-31.73271,"lon":-60.52897,"pop":247139,"search_terms":["巴拉那","بارانا، انتري ريوس","paraná","parana","پارانا","パラナ","პარანა","парана","پارانا، انترے ریوس","պարանա","παρανά","파라나"]},{"id":1630634,"name":"Probolinggo","names":{"en":"Probolinggo","pl":"Probolinggo","id":"Kota Probolinggo"},"country":"ID","lat":-7.7543,"lon":113.2159,"pop":246980,"search_terms":["probolinggo","kota probolinggo"]},{"id":3874960,"name":"Puerto Montt","names":{"en":"Puerto Montt","es":"Puerto Montt","de":"Puerto Montt","pl":"Puerto Montt","fr":"Puerto Montt","it":"Puerto Montt","pt":"Puerto Montt","sv":"Puerto Montt","tr":"Puerto Montt","ru":"Пуэрто-Монт","el":"Πουέρτο Μοντ","fa":"پرتو مونت","uk":"Пуерто-Монтт","ja":"プエルトモント","ka":"პუერტო-მონტი","zh":"蒙特港","ko":"푸에르토몬트"},"country":"CL","lat":-41.4693,"lon":-72.94237,"pop":245902,"search_terms":["port montt","пуэрто-монт","puerto montt","プエルトモント","πουέρτο μοντ","პუერტო-მონტი","蒙特港","пуерто-монтт","푸에르토몬트","پرتو مونت"]},{"id":3112737,"name":"Puente de Vallecas","names":{"en":"Puente de Vallecas","ja":"プエンテ・デ・バリェカス"},"country":"ES","lat":40.39354,"lon":-3.662,"pop":244151,"search_terms":["プエンテ・デ・バリェカス","puente de vallecas"]},{"id":3876682,"name":"Penalolen","names":{"en":"Penalolen","ka":"პენიალოლენი","ru":"Пеньялолен","ko":"페냘롤렌","zh":"佩尼亞洛倫"},"country":"CL","lat":-33.46836,"lon":-70.53411,"pop":241599,"search_terms":["페냘롤렌","佩尼亞洛倫","пеньялолен","პენიალოლენი","penalolen"]},{"id":1328421,"name":"Pathein","names":{"en":"Pathein","ru":"Патейн","fa":"پاتین","ja":"パテイン","ko":"파테인","uk":"Пантейн","ur":"پاتھین","pl":"Basejn","zh":"勃生"},"country":"MM","lat":16.77919,"lon":94.73212,"pop":237089,"search_terms":["پاتھین","パテイン","pathein","پاتین","파테인","勃生","пантейн","бассейн","патейн","basejn"]},{"id":3363094,"name":"Paarl","names":{"en":"Paarl","ru":"Паарл","zh":"帕阿爾","ja":"パール"},"country":"ZA","lat":-33.73378,"lon":18.97523,"pop":236910,"search_terms":["帕阿爾","паарл","paarl","パール"]},{"id":3193044,"name":"Podgorica","names":{"en":"Podgorica","de":"Podgorica","es":"Podgorica","cs":"Podgorica","fr":"Podgorica","it":"Podgorica","ja":"ポドゴリツァ","nl":"Podgorica","pl":"Podgorica","pt":"Podgorica","ru":"Подгорица","sv":"Podgorica","th":"พอดกอรีตซา","ar":"بودغوريتسا","ko":"포드고리차","ro":"Podgorica","tr":"Podgorica","am":"ፖድጎሪጻ","el":"Ποντγκόριτσα","fa":"پودگوریتسا","id":"Podgorica","ka":"პოდგორიცა","ku":"Podgorika","uk":"Подгориця","ur":"پوڈگوریکا","hy":"Պոդգորիցա","kk":"Подгорица","tg":"Подгоритса","az":"Podqoritsa","mr":"पॉडगोरिका","zh":"波德戈里察","ta":"பொட்கொரிக்கா"},"country":"ME","lat":42.44124,"lon":19.26309,"pop":236852,"search_terms":["پودگوریتسا","подгориця","ポドゴリツァ","подгоритса","подгорица","포드고리차","पॉडगोरिका","ፖድጎሪጻ","პოდგორიცა","podqoritsa","波德戈里察","پوڈگوریکا","பொட்கொரிக்கா","ποντγκόριτσα","بودغوريتسا","podgorika","พอดกอรีตซา","պոդգորիցա","podgorica"]},{"id":9478811,"name":"Pakdasht","names":{"en":"Pakdasht","fa":"پاکدشت"},"country":"IR","lat":35.47854,"lon":51.6834,"pop":236319,"search_terms":["پاکدشت","pakdasht","مامازان"]},{"id":1214369,"name":"Padangsidempuan","names":{"en":"Padangsidempuan"},"country":"ID","lat":1.37952,"lon":99.27146,"pop":236217,"search_terms":["padangsidempuan"]},{"id":1260692,"name":"Pallavaram","names":{"en":"Pallavaram"},"country":"IN","lat":12.96796,"lon":80.15025,"pop":233984,"search_terms":["pallavaram"]},{"id":1028918,"name":"Pemba","names":{"en":"Pemba","ru":"Пемба","el":"Πέμπα","ja":"ペンバ","ka":"პემბა","ko":"펨바","zh":"彭巴","uk":"Пемба","ur":"پیمبا، موزمبیق"},"country":"MZ","lat":-12.97395,"lon":40.51775,"pop":232932,"search_terms":["彭巴","πέμπα","ペンバ","პემბა","펨바","پیمبا، موزمبیق","pemba","пемба"]},{"id":13589354,"name":"Pho Yen","names":{"en":"Pho Yen","vi":"Phổ Yên"},"country":"VN","lat":21.41978,"lon":105.8899,"pop":231363,"search_terms":["pho yen","phổ yên"]},{"id":1736372,"name":"Pasir Mas","names":{"en":"Pasir Mas","ms":"Pasir Mas"},"country":"MY","lat":6.04934,"lon":102.13987,"pop":230424,"search_terms":["pasir mas"]},{"id":1630328,"name":"Purwokerto","names":{"en":"Purwokerto","pl":"Purwokerto","id":"Kota Purwokerto"},"country":"ID","lat":-7.42139,"lon":109.23444,"pop":230235,"search_terms":["kota purwokerto","purwokerto"]},{"id":1260716,"name":"Pali","names":{"en":"Pali","ru":"Пали"},"country":"IN","lat":25.77276,"lon":73.32335,"pop":230075,"search_terms":["пали","pali"]},{"id":2970479,"name":"Paris 15 Vaugirard","names":{"en":"Paris 15 Vaugirard"},"country":"FR","lat":48.8412,"lon":2.3003,"pop":229713,"search_terms":["paris 15 vaugirard"]},{"id":1571058,"name":"Phan Thiet","names":{"en":"Phan Thiet","vi":"Phan Thiết","zh":"潘切","ru":"Фантьет"},"country":"VN","lat":10.92889,"lon":108.10208,"pop":228536,"search_terms":["潘切","phan thiet","фантхьет","фантьет","phan thiết"]},{"id":13100478,"name":"Paya Terubong","names":{"en":"Paya Terubong"},"country":"MY","lat":5.37278,"lon":100.27972,"pop":226712,"search_terms":["paya terubong"]},{"id":3452324,"name":"Presidente Prudente","names":{"en":"Presidente Prudente","kk":"Президенти-Пруденти","th":"เปรซีเดงชีปรูเดงชี","uk":"Презіденті-Пруденті","ru":"Президенти-Пруденти","zh":"普鲁登特总统城"},"country":"BR","lat":-22.12556,"lon":-51.38889,"pop":225668,"search_terms":["普鲁登特总统城","เปรซีเดงชีปรูเดงชี","презіденті-пруденті","президенти-пруденти","presidente prudente"]},{"id":3991328,"name":"Puerto Vallarta","names":{"en":"Puerto Vallarta","de":"Puerto Vallarta","es":"Puerto Vallarta","fr":"Puerto Vallarta","nl":"Puerto Vallarta","sv":"Puerto Vallarta","pt":"Puerto Vallarta","pl":"Puerto Vallarta","ru":"Пуэрто-Вальярта","fa":"پورتو بایارتا، خالیسکو","ko":"푸에르토바야르타","zh":"巴亚尔塔港","tt":"Пверто-Вальярта","hi":"पुरतो वालार्टा","hy":"Պուերտո Վալյարտա","uk":"Пуерто-Вальярта","id":"Puerto Vallarta","ur":"پورتو ویئیارتا","mr":"प्वेर्टो वलर्टा","ms":"Puerto Vallarta","el":"Πουέρτο Βαλάρτα","it":"Puerto Vallarta","ar":"بويرتو فالارتا","vi":"Puerto Vallarta","ja":"プエルト・バヤルタ","bn":"পুয়ের্তো বাইয়ার্তা","sw":"Puerto Vallarta","ta":"புயெர்டோ வல்லார்ட்ட","cs":"Puerto Vallarta","te":"పుర్తె వల్లార్త","th":"ปอร์ตู บาร์ยาตา","tl":"Puerto Vallarta","tr":"Puerto Vallarta"},"country":"MX","lat":20.617,"lon":-105.23018,"pop":224166,"search_terms":["پورتو ویئیارتا","प्वेर्टो वलर्टा","పుర్తె వల్లార్త","プエルト・バヤルタ","پورتو بایارتا، خالیسکو","পুয়ের্তো বাইয়ার্তা","пуэрто-вальярта","pto vallarta","puerto vallarta","պուերտո վալյարտա","पुरतो वालार्टा","πουέρτο βαλάρτα","пверто-вальярта","புயெர்டோ வல்லார்ட்ட","بويرتو فالارتا","пуерто-вальярта","ปอร์ตู บาร์ยาตา","푸에르토바야르타","巴亚尔塔港"]},{"id":3383330,"name":"Paramaribo","names":{"en":"Paramaribo","de":"Paramaribo","es":"Paramaribo","ar":"باراماريبو","fr":"Paramaribo","id":"Paramaribo","it":"Paramaribo","ja":"パラマリボ","ko":"파라마리보","nl":"Paramaribo","pl":"Paramaribo","pt":"Paramaribo","ru":"Парамарибо","sv":"Paramaribo","fa":"پاراماریبو","el":"Παραμαρίμπο","tr":"Paramaribo","am":"ፓራማሪቦ","sw":"Paramaribo","hy":"Պարամարիբո","uk":"Парамарібо","hi":"पारामरिबो","ka":"პარამარიბო","mr":"पारामारिबो","th":"ปารามารีโบ","ur":"پاراماریبو","zh":"帕拉马里博","kk":"Парамарибо","ky":"Парамарибо","ta":"பரமாரிபோ"},"country":"SR","lat":5.86638,"lon":-55.16682,"pop":223757,"search_terms":["ፓራማሪቦ","पारामारिबो","파라마리보","پاراماریبو","पारामरिबो","帕拉马里博","பரமாரிபோ","парамарибо","ปารามารีโบ","paramaribo","باراماريبو","պարամարիբո","პარამარიბო","パラマリボ","парамарібо","παραμαρίμπο"]},{"id":5509952,"name":"Paradise","names":{"en":"Paradise","de":"Paradise","pl":"Paradise","fr":"Paradise","ko":"패러다이스","ar":"بارادايس","ja":"パラダイス","ru":"Парадайз","fa":"پارادایس، نوادا","ur":"پيراڈائز، نیواڈا","zh":"天堂市"},"country":"US","lat":36.09719,"lon":-115.14666,"pop":223167,"search_terms":["بارادايس","패러다이스","天堂市","パラダイス","paradise","парадайз","پيراڈائز، نیواڈا","پارادایس، نوادا"]},{"id":1692685,"name":"Puerto Princesa","names":{"en":"Puerto Princesa","pl":"Puerto Princesa","es":"Puerto Princesa","de":"Puerto Princesa","nl":"Puerto Princesa City","tl":"Lungsod ng Puerto Princesa","fa":"پورتوپرنسس","ja":"プエルト・プリンセサ","ko":"푸에르토프린세사","ru":"Пуэрто-Принсеса","zh":"普林塞薩港","ar":"بورتوبرنسس","id":"Kota Puerto Princesa","ur":"پویرتو پرنسیسا"},"country":"PH","lat":9.73917,"lon":118.73528,"pop":222673,"search_terms":["пуэрто-принсеса","普林塞薩港","푸에르토프린세사","پویرتو پرنسیسا","プエルト・プリンセサ","پورتوپرنسس","kota puerto princesa","puerto princesa city","بورتوبرنسس","puerto princesa","lungsod ng puerto princesa"]},{"id":1494114,"name":"Prokop'yevsk","names":{"en":"Prokopyevsk","ru":"Прокопьевск","de":"Prokopjewsk"},"country":"RU","lat":53.91518,"lon":86.71891,"pop":219000,"search_terms":["prokopyevsk","прокопьевск","prokopjewsk","prokop'yevsk"]},{"id":1632654,"name":"Pangkalpinang","names":{"en":"Pangkalpinang"},"country":"ID","lat":-2.12914,"lon":106.11377,"pop":216893,"search_terms":["pangkalpinang"]},{"id":3629965,"name":"Porlamar","names":{"en":"Porlamar","es":"Porlamar","pl":"Porlamar","it":"Porlamar","pt":"Porlamar","ru":"Порламар","ka":"პორლამარი","zh":"波拉马尔"},"country":"VE","lat":10.95771,"lon":-63.86971,"pop":216234,"search_terms":["波拉马尔","პორლამარი","porlamar","порламар"]},{"id":1632033,"name":"Pasuruan","names":{"en":"Pasuruan","pl":"Pasuruan","id":"Kota Pasuruan","nl":"Pasoeroean"},"country":"ID","lat":-7.6453,"lon":112.9075,"pop":212466,"search_terms":["pasoeroean","kota pasuruan","pasuruan"]},{"id":6690108,"name":"Panchkula","names":{"en":"Panchkula","ar":"بانتشكولا","bn":"পঞ্চকুলা উপ শহর","fa":"پنج‌کولا","hi":"पंचकुला","mr":"पंचकुला","ms":"Pusat Bandar Panchkula","vi":"Panchkula Urban Estate","pt":"Panchkula Urban Estate","ru":"Панчкула"},"country":"IN","lat":30.69461,"lon":76.8504,"pop":211355,"search_terms":["پنج‌کولا","panchkula","panchkula urban estate","pusat bandar panchkula","بانتشكولا","पंचकुला","панчкула","পঞ্চকুলা উপ শহর"]},{"id":1695804,"name":"Panabo","names":{"en":"Panabo","de":"Panabo City","id":"Panabo","tt":"Панабо","hi":"पानाबो","pt":"Panabo","uk":"Панабо","ur":"پانابو","mr":"पानबो","ms":"Panabo","el":"Πανάμπο","it":"Panabo","es":"Panabo","ar":"بانابو","vi":"Panabo","ja":"パナボ","nl":"Panabo","ru":"Панабо","fr":"Panabo","bn":"পানাবো","sv":"Panabo","ko":"파나보","sw":"Panabo","ta":"பனோபா","te":"పానాబో","th":"ปานาโบ","tl":"Panabo","ha":"Panabo","pl":"Panabo","tr":"Panabo"},"country":"PH","lat":7.30806,"lon":125.68417,"pop":211242,"search_terms":["파나보","panabo city","পানাবো","ปานาโบ","πανάμπο","பனோபா","پانابو","పానాబో","панабо","パナボ","पानबो","पानाबो","بانابو","panabo"]},{"id":504341,"name":"Pskov","names":{"en":"Pskov","de":"Pleskau","ja":"プスコフ","ko":"프스코프","nl":"Pskov","pl":"Psków","sv":"Pskov","zh":"普斯科夫","fr":"Pskov","it":"Pskov","cs":"Pskov","ru":"Псков","ka":"ფსკოვი","ar":"بسكوف","fa":"پسکوف","th":"ปัสคอฟ","hy":"Պսկով","ur":"پسکوف"},"country":"RU","lat":57.81922,"lon":28.33181,"pop":210501,"search_terms":["պսկով","pskov","بسكوف","프스코프","プスコフ","普斯科夫","psków","pleskau","ფსკოვი","پسکوف","ปัสคอฟ","псков","pskow"]},{"id":3114472,"name":"Pamplona","names":{"en":"Pamplona","es":"Pamplona","fr":"Pampelune","de":"Pamplona","pl":"Pampeluna","ar":"بنبلونة","it":"Pamplona","ja":"パンプローナ","nl":"Pamplona","pt":"Pamplona","ru":"Памплона","sv":"Pamplona","tl":"Lungsod ng Iruñea","ta":"இருனியா","th":"ปัมโปลนา","uk":"Памплона","fa":"پامپلونا","hy":"Պամպլոնա","ka":"პამპლონა","ko":"팜플로나","mr":"पाम्पलोना","zh":"潘普洛納"},"country":"ES","lat":42.81687,"lon":-1.64323,"pop":208243,"search_terms":["ปัมโปลนา","潘普洛納","இருனியா","pamplona","بنبلونة","팜플로나","pampeluna","पाम्पलोना","pampelune","პამპლონა","lungsod ng iruñea","پامپلونا","պամպլոնա","パンプローナ","памплона"]},{"id":2639996,"name":"Portsmouth","names":{"en":"Portsmouth","de":"Portsmouth","fr":"Portsmouth","id":"Portsmouth","it":"Portsmouth","ja":"ポーツマス","nl":"Portsmouth","pl":"Portsmouth","pt":"Portsmouth","sv":"Portsmouth","tr":"Portsmouth","es":"Portsmouth","cs":"Portsmouth","ru":"Портсмут","uk":"Портсмут","fa":"پورتسموث","hy":"Պորտսմութ","bn":"পোর্টস্‌মাথ","el":"Πόρτσμουθ","az":"Portsmut","ko":"포츠머스","mr":"पोर्टस्मथ","ar":"بورتسموث","th":"พอร์ตสมัท","zh":"朴次茅斯"},"country":"GB","lat":50.79899,"lon":-1.09125,"pop":208100,"search_terms":["πόρτσμουθ","portsmut","पोर्टस्मथ","portsmouth","портсмут","포츠머스","պորտսմութ","朴次茅斯","পোর্টস্‌মাথ","พอร์ตสมัท","ポーツマス","بورتسموث","پورتسموث"]},{"id":1571067,"name":"Phan Rang-Thap Cham","names":{"en":"Phan Rang-Thap Cham","sv":"Phan Rang-Thap Cham","ja":"ファンラン＝タップチャム","uk":"Фанранг-Тхаптям"},"country":"VN","lat":11.56432,"lon":108.98858,"pop":207998,"search_terms":["ファンラン＝タップチャム","phan rang-thap cham","phan rang","фанранг-тхаптям","phan rang-tháp chàm"]},{"id":1696710,"name":"Pagadian","names":{"en":"Pagadian"},"country":"PH","lat":7.8257,"lon":123.437,"pop":206483,"search_terms":["pagadian"]},{"id":3171728,"name":"Padua","names":{"en":"Padua","de":"Padua","fr":"Padoue","pl":"Padwa","es":"Padua","ar":"بادوفا","cs":"Padova","it":"Padova","ja":"パドヴァ","ka":"პადუა","ko":"파도바","nl":"Padua","pt":"Pádua","ro":"Padova","ru":"Падуя","sv":"Padua","zh":"帕多瓦"},"country":"IT","lat":45.40797,"lon":11.88586,"pop":203725,"search_terms":["padoue","პადუა","بادوفا","padua","padova","padwa","padoa","帕多瓦","パドヴァ","падуя","pádua","파도바"]},{"id":1520172,"name":"Petropavl","names":{"en":"Petropavl","de":"Petropawl","fr":"Petropavl","pl":"Pietropawłowsk","ru":"Петропавловск","kk":"Петропавл","nl":"Petropavl","sv":"Petropavl","ar":"بتروبافل","el":"Πετροπάβλ","fa":"پتروپاول، قزاقستان","ja":"ペトロパブル","ko":"페트로파블","tr":"Kızılyar","tt":"Петропавел","uk":"Петропавловськ","ur":"پیتروپاول","zh":"彼得罗巴甫尔"},"country":"KZ","lat":54.87343,"lon":69.15065,"pop":200920,"search_terms":["petropavl","петропавловськ","pietropawłowsk","kızılyar","петропавел","پتروپاول، قزاقستان","페트로파블","ペトロパブル","پیتروپاول","петропавл","petropavlovsk","彼得罗巴甫尔","بتروبافل","petropawł","petropawl","петропавловск","πετροπάβλ"],"_key":"p","dumk_id":51},{"id":1259184,"name":"Puri","names":{"en":"Puri","fr":"Purî","pl":"Puri","es":"Puri","de":"Puri","ja":"プーリ","nl":"Puri","ro":"Puri","ta":"பூரி","ru":"Пури"},"country":"IN","lat":19.79825,"lon":85.82494,"pop":200564,"search_terms":["пури","பூரி","purî","プーリ","puri"]},{"id":1880348,"name":"Punggol","names":{"en":"Punggol","fa":"پونگل","ta":"பொங்கோல்","zh":"榜鹅"},"country":"SG","lat":1.41444,"lon":103.90694,"pop":199400,"search_terms":["榜鹅","பொங்கோல்","پونگل","punggol"]},{"id":13512576,"name":"Plano Piloto","names":{"en":"Plano Piloto"},"country":"BR","lat":-15.79411,"lon":-47.8825,"pop":198697,"search_terms":["plano piloto"]},{"id":3171457,"name":"Parma","names":{"en":"Parma","de":"Parma","es":"Parma","ar":"بارما","cs":"Parma","fr":"Parme","id":"Parma","it":"Parma","ja":"パルマ","nl":"Parma","pl":"Parma","pt":"Parma","ro":"Parma","ru":"Парма","sv":"Parma","ur":"پارما","vi":"Parma"},"country":"IT","lat":44.79935,"lon":10.32618,"pop":198292,"search_terms":["parme","بارما","پارما","парма","パルマ","parma"]},{"id":696877,"name":"Podil","names":{"en":"Podil","pl":"Padół","uk":"Поділ","ru":"Подол","ja":"ポディル地区"},"country":"UA","lat":50.46936,"lon":30.51627,"pop":198123,"search_terms":["ポディル","ポディル地区","padół","поділ","подільський район","podil","podilskyi rayon","подол"]},{"id":1607508,"name":"Phra Pradaeng","names":{"en":"Phra Pradaeng","de":"Phra Pradaeng","ja":"プラプラデーン郡","nl":"Amphoe Phra Pradaeng","th":"อำเภอพระประแดง"},"country":"TH","lat":13.65855,"lon":100.53362,"pop":196129,"search_terms":["amphoe phra pradaeng","phra pradaeng","อำเภอพระประแดง","พระประแดง","プラプラデーン郡"]},{"id":1260434,"name":"Panvel","names":{"en":"Panvel","mr":"पनवेल","bn":"পানওয়েল","hi":"पनवेल","zh":"潘韦尔","ta":"பன்வேல்","ur":"پنویل"},"country":"IN","lat":18.98878,"lon":73.11013,"pop":195373,"search_terms":["পানওয়েল","பன்வேல்","पनवेल","پنویل","潘韦尔","panvel"]},{"id":1798972,"name":"Peicheng","names":{"en":"Peicheng"},"country":"CN","lat":34.73611,"lon":116.92472,"pop":195363,"search_terms":["peicheng"]},{"id":3169921,"name":"Prato","names":{"en":"Prato","es":"Prato","de":"Prato","pl":"Prato","fr":"Prato","ar":"براتو","cs":"Prato","it":"Prato","ja":"プラート","nl":"Prato","pt":"Prato","ro":"Prato","ru":"Прато","sv":"Prato","zh":"普拉托"},"country":"IT","lat":43.8805,"lon":11.09699,"pop":195089,"search_terms":["prato","普拉托","プラート","براتو","прато"]},{"id":1192366,"name":"Par Naogaon","names":{"en":"Par Naogaon","bn":"Pār Naogaon"},"country":"BD","lat":24.80418,"lon":88.94875,"pop":192464,"search_terms":["naogaon","pār naogaon","par naogaon"]},{"id":5308480,"name":"Peoria","names":{"en":"Peoria","de":"Peoria","fr":"Peoria","nl":"Peoria","pt":"Peoria","sv":"Peoria","ru":"Пеория","ja":"ピオリア","uk":"Піорія","fa":"پیوریا، آریزونا","zh":"皮奧里亞","ar":"بيوريا","ur":"پیوریا، ایریزونا","tt":"Пиория","hi":"प्योरिया","hy":"Պեորիա","id":"Peoria","uz":"Peoria","mr":"पेरीया","ms":"Peoria","el":"Πεόρια","it":"Peoria","es":"Peoria","vi":"Peoria","ro":"Peoria","bn":"পেওরিয়া","sw":"Peoria","ko":"페오리아","ta":"பேயோரிய","cs":"Peoria","te":"పెయోరియా","th":"พีโอเรีย","tl":"Peoria","pl":"Peoria","tr":"Peoria"},"country":"US","lat":33.5806,"lon":-112.23738,"pop":190985,"search_terms":["پیوریا، ایریزونا","皮奧里亞","піорія","페오리아","پیوریا، آریزونا","պեորիա","พีโอเรีย","πεόρια","пиория","пеория","ピオリア","प्योरिया","పెయోరియా","بيوريا","peoria","पेरीया","পেওরিয়া","பேயோரிய"]},{"id":5224151,"name":"Providence","names":{"en":"Providence","de":"Providence","fr":"Providence","it":"Providence","ja":"プロヴィデンス","nl":"Providence","pl":"Providence","pt":"Providence","sv":"Providence","es":"Providence","id":"Providence","ur":"پروویڈنس، روڈ آئلینڈ","ru":"Провиденс","el":"Πρόβιντενς","ta":"பிராவிடென்ஸ்","fa":"پراویدنس","ar":"بروفيدنس","th":"พรอวิเดนซ์","ko":"프로비던스","uk":"Провіденс","mr":"प्रॉव्हिडन्स","hy":"Փրովիդենս","zh":"普罗维登斯","ky":"Провиденс"},"country":"US","lat":41.82399,"lon":-71.41283,"pop":190934,"search_terms":["پروویڈنس، روڈ آئلینڈ","πρόβιντενς","프로비던스","провіденс","プロビデンス","プロヴィデンス","providence","பிராவிடென்ஸ்","փրովիդենս","普罗维登斯","พรอวิเดนซ์","بروفيدنس","پراویدنس","प्रॉव्हिडन्स","провиденс"]},{"id":1633037,"name":"Palopo","names":{"en":"Palopo","id":"Palopo"},"country":"ID","lat":-2.9925,"lon":120.19694,"pop":190867,"search_terms":["palopo"]},{"id":1608048,"name":"Pak Kret","names":{"en":"Pak Kret","de":"Pak Kret","th":"ปากเกร็ด"},"country":"TH","lat":13.91301,"lon":100.49883,"pop":190272,"search_terms":["pak kret","ปากเกร็ด"]},{"id":11184422,"name":"Planaltina","names":{"en":"Planaltina","zh":"高園"},"country":"BR","lat":-15.61791,"lon":-47.64874,"pop":189412,"search_terms":["高園","planaltina"]},{"id":1695743,"name":"Panalanoy","names":{"en":"Panalanoy"},"country":"PH","lat":11.25111,"lon":125.00639,"pop":189090,"search_terms":["panalanoy"]},{"id":3544091,"name":"Pinar del Rio","names":{"en":"Pinar del Rio","de":"Pinar del Río","pl":"Pinar del Río","es":"Pinar del Río","ru":"Пинар-дель-Рио","fr":"Pinar del Río"},"country":"CU","lat":22.41649,"lon":-83.69657,"pop":186990,"search_terms":["pinar del rio","pinar del río","пинар-дель-рио"]},{"id":1336143,"name":"Pabna","names":{"en":"Pabna","ru":"Пабне"},"country":"BD","lat":24.00644,"lon":89.2372,"pop":186781,"search_terms":["pabna","пабне"]},{"id":11127930,"name":"Phusro","names":{"en":"Phusro"},"country":"IN","lat":23.75644,"lon":86.0051,"pop":185555,"search_terms":["phusro"]},{"id":3521168,"name":"Poza Rica de Hidalgo","names":{"en":"Poza Rica de Hidalgo","es":"Poza Rica","tt":"Поса-Рика-де-Идальго","de":"Poza Rica de Hidalgo","ru":"Поса-Рика-де-Идальго","pt":"Poza Rica","fr":"Poza Rica","ur":"پوسا ریکا","sv":"Poza Rica de Hidalgo","it":"Poza Rica","zh":"波薩里卡","ja":"ポサ・リカ・デ・イダルゴ","fa":"پوزا ریکا، وراکروز","pl":"Poza Rica","nl":"Poza Rica"},"country":"MX","lat":20.53315,"lon":-97.45946,"pop":185242,"search_terms":["poza rica de hidalgo","پوزا ریکا، وراکروز","поса-рика-де-идальго","poza rica","پوسا ریکا","波薩里卡","ポサ・リカ・デ・イダルゴ"]},{"id":2994540,"name":"Paris 20 Menilmontant","names":{"en":"Paris 20 Menilmontant"},"country":"FR","lat":48.8646,"lon":2.3984,"pop":185140,"search_terms":["paris 20 menilmontant"]},{"id":9827976,"name":"Paltan","names":{"en":"Paltan"},"country":"BD","lat":23.73625,"lon":90.41426,"pop":184492,"search_terms":["paltan"]},{"id":1963770,"name":"Padalarang","names":{"en":"Padalarang"},"country":"ID","lat":-6.83778,"lon":107.47278,"pop":184182,"search_terms":["padalarang"]},{"id":1631648,"name":"Pemalang","names":{"en":"Pemalang","pl":"Pemalang"},"country":"ID","lat":-6.89193,"lon":109.38263,"pop":184149,"search_terms":["pemalang"]},{"id":3029374,"name":"Paris 18 Buttes-Montmartre","names":{"en":"Paris 18 Buttes-Montmartre","el":"Μονμάρτρη","ja":"モンマルトル","zh":"蒙馬特"},"country":"FR","lat":48.8925,"lon":2.3444,"pop":183127,"search_terms":["モンマルトル","paris 18 buttes-montmartre","μονμάρτρη","蒙馬特"]},{"id":2852458,"name":"Potsdam","names":{"en":"Potsdam","de":"Potsdam","es":"Potsdam","fr":"Potsdam","it":"Potsdam","ja":"ポツダム","ko":"포츠담","nl":"Potsdam","pl":"Poczdam","pt":"Potsdam","ru":"Потсдам","sv":"Potsdam","zh":"波茨坦","cs":"Postupim","el":"Πότσδαμ","id":"Potsdam","ro":"Potsdam","tr":"Potsdam","vi":"Potsdam"},"country":"DE","lat":52.39886,"lon":13.06566,"pop":182112,"search_terms":["ポツダム","потсдам","πότσδαμ","포츠담","波茨坦","potsdam","postupim","poczdam"]},{"id":3015772,"name":"Paris 13 Gobelins","names":{"en":"Paris 13 Gobelins"},"country":"FR","lat":48.8322,"lon":2.3561,"pop":181271,"search_terms":["paris 13 gobelins"]},{"id":2122104,"name":"Petropavlovsk-Kamchatsky","names":{"en":"Petropavlovsk-Kamchatskiy","de":"Petropawlowsk-Kamtschatski","es":"Petropávlovsk-Kamchatski","fr":"Petropavlovsk-Kamtchatski","pl":"Pietropawłowsk Kamczacki","cs":"Petropavlovsk-Kamčatskij","it":"Petropavlovsk-Kamčatskij","ja":"ペトロパブロフスク・カムチャツキー","ko":"페트로파블로프스크 캄차스키","nl":"Petropavlovsk-Kamtsjatski","pt":"Petropavlovsk-Kamchatski","ro":"Petropavlovsk Kamciațki","ru":"Петропавловск-Камчатский","ar":"بتروبافلوفسك","az":"Petropavlovsk-Kamçatski","el":"Πετροπάβλοφσκ Καμτσάτσκι","fa":"پتروپاولوفسک-کامچاتسکیی","hy":"Կամչատկայի Պետրոպավլովսկ","id":"Petropavlovsk Kamchatsky","tr":"Petropavlovsk-Kamçatski","uk":"Петропавловськ-Камчатський","sv":"Petropavlovsk-Kamtjatskij","zh":"堪察加彼得巴甫洛夫斯克","th":"ปิตราปัฟลัฟสค์-คัมชัตสกี","ur":"پٹروپاولوسک-کامچاٹسکی"},"country":"RU","lat":53.06393,"lon":158.62751,"pop":181216,"search_terms":["petropavlovsk-kamčatskij","ปิตราปัฟลัฟสค์-คัมชัตสกี","페트로파블롭스크캄차츠키","petropavlovsk kamchatsky","петропавловськ-камчатський","ペトロパブロフスク・カムチャツキー","петропавловск-камчатский","堪察加彼得巴甫洛夫斯克","petropavlovsk kamciațki","petropavlovsk-kamchatski","petropavlovsk-kamtjatskij","petropávlovsk-kamchatski","կամչատկայի պետրոպավլովսկ","petropavlovsk-kamçatski","petropavlovsk-kamtchatski","pietropawłowsk kamczacki","پتروپاولوفسک-کامچاتسکیی","petropawlowsk-kamtschatski","بتروبافلوفسك","پٹروپاولوسک-کامچاٹسکی","πετροπάβλοφσκ καμτσάτσκι","페트로파블로프스크 캄차스키","petropavlovsk-kamchatskiy","petropavlovsk-kamchatsky","petropavlovsk-kamtsjatski"]},{"id":670474,"name":"Ploiesti","names":{"en":"Ploiesti","de":"Ploieşti","cs":"Ploieşti","fr":"Ploieşti","nl":"Ploieşti","pl":"Ploeszti","ro":"Ploiești","pt":"Ploieşti","es":"Ploieşti","uk":"Плоєшть"},"country":"RO","lat":44.95,"lon":26.01667,"pop":180540,"search_terms":["ploiești","ploiesti","ploeszti","плоєшть","ploieşti"]},{"id":12492669,"name":"Pingwu County","names":{"en":"Pingwu County"},"country":"CN","lat":32.40732,"lon":104.52738,"pop":180000,"search_terms":["pingwu county"]},{"id":1570656,"name":"Phuc Yen","names":{"en":"Phuc Yen"},"country":"VN","lat":21.23695,"lon":105.70483,"pop":180000,"search_terms":["phuc yen"]},{"id":6545348,"name":"Praga Poludnie","names":{"en":"Praga Poludnie"},"country":"PL","lat":52.24424,"lon":21.08545,"pop":179836,"search_terms":["praga poludnie"]},{"id":7614932,"name":"Pirituba","names":{"en":"Pirituba","pt":"Pirituba"},"country":"BR","lat":-23.48982,"lon":-46.7322,"pop":179724,"search_terms":["pirituba"]},{"id":3454857,"name":"Passo Fundo","names":{"en":"Passo Fundo","es":"Passo Fundo","pl":"Passo Fundo","pt":"Passo Fundo","sv":"Passo Fundo","kk":"Пасу-Фунду","th":"ปาสซูฟูนดู","ru":"Пасу-Фунду","zh":"帕苏丰杜"},"country":"BR","lat":-28.26278,"lon":-52.40667,"pop":179529,"search_terms":["пасу-фунду","passo fundo","ปาสซูฟูนดู","帕苏丰杜"]},{"id":12253704,"name":"Phu Quoc","names":{"en":"Phu Quoc"},"country":"VN","lat":10.28715,"lon":104.01047,"pop":179480,"search_terms":["phu quoc"]},{"id":508101,"name":"Podolsk","names":{"en":"Podolsk","ru":"Подольск","de":"Podolsk","fr":"Podolsk"},"country":"RU","lat":55.42419,"lon":37.55472,"pop":179400,"search_terms":["подольск","podolsk"]},{"id":1630341,"name":"Purwakarta","names":{"en":"Purwakarta","pl":"Purwakarta","id":"Kota Purwakarta"},"country":"ID","lat":-6.55694,"lon":107.44333,"pop":179233,"search_terms":["purwakarta","kota purwakarta"]},{"id":3029372,"name":"Paris 19 Buttes-Chaumont","names":{"en":"Paris 19 Buttes-Chaumont"},"country":"FR","lat":48.8817,"lon":2.3822,"pop":178691,"search_terms":["paris 19 buttes-chaumont"]},{"id":964349,"name":"Potchefstroom","names":{"en":"Potchefstroom","fr":"Potchefstroom","de":"Potchefstroom","nl":"Potchefstroom","sv":"Potchefstroom","ru":"Почефструм","ko":"포체프스트롬","mr":"पॉचेफस्ट्रूम","ja":"ポチェフストルーム","zh":"波切夫斯特魯姆"},"country":"ZA","lat":-26.71667,"lon":27.1,"pop":178285,"search_terms":["potchefstroom","波切夫斯特魯姆","पॉचेफस्ट्रूम","потчефструм","почефструм","포체프스트롬","ポチェフストルーム"]},{"id":12808673,"name":"Paris 13e Arrondissement","names":{"en":"Paris 13e Arrondissement"},"country":"FR","lat":48.8262,"lon":2.35986,"pop":177833,"search_terms":["paris 13e arrondissement"]},{"id":1259312,"name":"Proddatur","names":{"en":"Proddatur"},"country":"IN","lat":14.7502,"lon":78.54813,"pop":177797,"search_terms":["proddatur"]},{"id":3455478,"name":"Palhoca","names":{"en":"Palhoca","ru":"Пальоса","zh":"帕略萨"},"country":"BR","lat":-27.64528,"lon":-48.66778,"pop":175272,"search_terms":["帕略萨","palhoca","пальоса"]},{"id":1632937,"name":"Pamulang","names":{"en":"Pamulang"},"country":"ID","lat":-6.34278,"lon":106.73833,"pop":174557,"search_terms":["pamulang"]},{"id":1260137,"name":"Pathankot","names":{"en":"Pathankot","bn":"পাঠানকোট","ru":"Патханкот","zh":"伯坦果德","ur":"پٹھان کوٹ","hi":"पठानकोट","de":"Pathankot","pt":"Pathankot","uk":"Патханкот","mr":"पठाणकोट","ms":"Pathankot","it":"Pathankot","es":"Pathankot","ar":"باثانكوت","vi":"Pathankot","ja":"パサンコトゥ","fa":"پاتانکوت","nl":"Pathankot","fr":"Pathankot","sv":"Pathankot","ko":"파판코트","ta":"பட்டான்கோட்","cs":"Pathánkót","te":"పఠాన్‌కోట్","pl":"Pathankot"},"country":"IN","lat":32.27484,"lon":75.65287,"pop":174306,"search_terms":["پاتانکوت","পাঠানকোট","パサンコトゥ","pathánkót","पठानकोट","باثانكوت","پٹھان کوٹ","伯坦果德","pathankot","патханкот","பட்டான்கோட்","पठाणकोट","పఠాన్‌కోట్","파판코트"]},{"id":3629706,"name":"Puerto Cabello","names":{"en":"Puerto Cabello","ru":"Пуерто Кабелло","ko":"푸에르토카베요","uk":"Пуерто-Кабельйо","ka":"პუერტო-კაბელიო","zh":"卡貝略港","fr":"Puerto Cabello"},"country":"VE","lat":10.47306,"lon":-68.0125,"pop":174000,"search_terms":["пуэрто-кабельо","пуерто кабелло","пуерто-кабельйо","პუერტო-კაბელიო","卡貝略港","푸에르토카베요","puerto cabello"]},{"id":786712,"name":"Prizren","names":{"en":"Prizren","de":"Prizren","es":"Prizren","ar":"بريزرن","it":"Prizren","ru":"Призрен","sv":"Prizren","ja":"プリズレン","el":"Πρίζρεν","ko":"프리즈렌","uk":"Прізрен","fa":"پریزرن","zh":"普里兹伦"},"country":"XK","lat":42.21389,"lon":20.73972,"pop":171464,"search_terms":["πρίζρεν","прізрен","پریزرن","普里兹伦","プリズレン","بريزرن","призрен","prizren","프리즈렌"]},{"id":3068160,"name":"Pilsen","names":{"en":"Pilsen","de":"Pilsen","es":"Pilsen","ar":"بلزن","cs":"Plzeň","fr":"Pilsen","it":"Pilsen","ja":"プルゼニ","ko":"플젠","nl":"Pilsen","pl":"Pilzno","sv":"Plzeň","id":"Plzeň","ru":"Пльзень","el":"Πίλσεν","pt":"Plzeň","th":"เปิลเซน","uk":"Пльзень","ka":"პლზენი","fa":"پلزن","az":"Plzen","tg":"Плзен","mr":"पेलजाईन","ps":"پلزن","vi":"Pilsen","zh":"比尔森","kk":"Пльзень"},"country":"CZ","lat":49.74747,"lon":13.37759,"pop":168733,"search_terms":["πίλζεν","პლზენი","плзен","plzen","比尔森","بلزن","pilzno","пльзень","پلزن","プルゼニ","เปิลเซน","पेलजाईन","pilsen","πίλσεν","plzeň","플젠"]},{"id":3453303,"name":"Pocos de Caldas","names":{"en":"Pocos de Caldas","pt":"Poços de Caldas","sv":"Poços de Caldas","kk":"Посус-ди-Калдас","ru":"Посус-ди-Калдас","zh":"波苏斯－迪卡尔达斯"},"country":"BR","lat":-21.78778,"lon":-46.56139,"pop":168641,"search_terms":["pocos de caldas","波苏斯－迪卡尔达斯","посус-ди-калдас","poços de caldas"]},{"id":3452640,"name":"Porto Seguro","names":{"en":"Porto Seguro","ar":"بورتو سيجورو","ja":"ポルト・セグーロ","ka":"პორტუ-სეგურუ","kk":"Порту-Сегуру","ru":"Порту-Сегуру","zh":"塞古鲁港"},"country":"BR","lat":-16.44972,"lon":-39.06472,"pop":168326,"search_terms":["порту-сегуру","პორტუ-სეგურუ","بورتو سيجورو","porto seguro","塞古鲁港","ポルト・セグーロ"]},{"id":255683,"name":"Patra","names":{"en":"Pátrai","de":"Patras","el":"Πάτρα","fr":"Patras","it":"Patrasso","ja":"パトラ","nl":"Patras","pl":"Patras","pt":"Patras","ro":"Patras","sv":"Patra","es":"Patrás","zh":"帕特雷","id":"Patras","tr":"Patras"},"country":"GR","lat":38.2462,"lon":21.73508,"pop":168034,"search_terms":["pátras","帕特雷","patra","patrasso","patras","pátrai","パトラ","patrás","πάτρα"]},{"id":1630997,"name":"Plumbon","names":{"en":"Plumbon","id":"Plumbon"},"country":"ID","lat":-6.705,"lon":108.47278,"pop":167105,"search_terms":["plumbon"]},{"id":4168139,"name":"Pembroke Pines","names":{"en":"Pembroke Pines","de":"Pembroke Pines","nl":"Pembroke Pines","pt":"Pembroke Pines","ar":"بيمبروك باينز","fa":"پمبروک پاینز، فلوریدا","ja":"ペンブロークパインズ","ko":"펨브로크파인즈","uk":"Пемброк-Пайнс","ru":"Пемброк-Пайнс","zh":"彭布羅克派恩斯","ur":"پیمبروک پائنز، فلوریڈا"},"country":"US","lat":26.00315,"lon":-80.22394,"pop":166611,"search_terms":["pembroke pines","پمبروک پاینز، فلوریدا","彭布羅克派恩斯","پیمبروک پائنز، فلوریڈا","пемброк-пайнс","بيمبروك باينز","ペンブロークパインズ","펨브로크파인즈"]},{"id":3453837,"name":"Pindamonhangaba","names":{"en":"Pindamonhangaba","es":"Pindamonhangaba","it":"Pindamonhangaba","pt":"Pindamonhangaba","kk":"Пиндамоньянгаба","ru":"Пиндамоньянгаба","zh":"平达莫尼扬加巴"},"country":"BR","lat":-22.92389,"lon":-45.46167,"pop":165428,"search_terms":["平达莫尼扬加巴","пиндамоньянгаба","pindamonhangaba"]},{"id":13535745,"name":"Pechersk","names":{"en":"Pechersk","uk":"Печерськ","ja":"ペチェルスク地区"},"country":"UA","lat":50.44441,"lon":30.52348,"pop":165360,"search_terms":["ペチェルスク地区","pechersk","печерський район","pecherskyi rayon","печерськ"]},{"id":4169171,"name":"Port Saint Lucie","names":{"en":"Port Saint Lucie"},"country":"US","lat":27.29393,"lon":-80.35033,"pop":164603,"search_terms":["port saint lucie"]},{"id":2396518,"name":"Port-Gentil","names":{"en":"Port-Gentil","de":"Port-Gentil","fr":"Port-Gentil","pl":"Port Gentil","pt":"Port-Gentil","ar":"بورت جنتيل","az":"Port-Jantil","ja":"ポールジャンティ","kk":"Порт-Жантиль","ko":"포르장티","ro":"Mandji","ru":"Порт-Жантиль","zh":"让蒂尔港"},"country":"GA","lat":-0.71933,"lon":8.78151,"pop":164018,"search_terms":["port-gentil","بورت جنتيل","port-jantil","ポールジャンティ","포르장티","mandji","порт-жантиль","让蒂尔港","port gentil"]},{"id":255274,"name":"Piraeus","names":{"en":"Piraeus","de":"Piräus","es":"El Pireo","el":"Πειραιάς","fr":"Le Pirée","ja":"ピレウス","nl":"Piraeus","pl":"Pireus","pt":"Pireu","ro":"Pireu","ru":"Пирей","sv":"Pireus","uk":"Пірей","zh":"比雷埃夫斯","ar":"بيرايوس","it":"Pireo","tr":"Pire","cs":"Pireus","vi":"Piraeus","th":"ไพรีอัส","ko":"피레아스","id":"Piraeus","fa":"پیره"},"country":"GR","lat":37.94203,"lon":23.64619,"pop":163688,"search_terms":["πειραιάς","ไพรีอัส","ピレウス","peiraiéfs","piräus","pireu","le pirée","piraeus","피레아스","پیره","пирей","il pireo","pire","pireus","el pireo","пірей","pireo","بيرايوس","peiraiás","比雷埃夫斯"]},{"id":11962405,"name":"Pedreira","names":{"en":"Pedreira"},"country":"BR","lat":-23.70675,"lon":-46.64982,"pop":163586,"search_terms":["pedreira"]},{"id":2640354,"name":"Peterborough","names":{"en":"Peterborough","de":"Peterborough","tr":"Peterborough","pl":"Peterborough","es":"Peterborough","fr":"Peterborough","nl":"Peterborough","it":"Peterborough","ja":"ピーターバラ","ro":"Peterborough","sv":"Peterborough","ru":"Питерборо","uk":"Пітерборо","fa":"پیتربورو","ko":"피터버러","zh":"彼得伯勒"},"country":"GB","lat":52.57364,"lon":-0.24777,"pop":163379,"search_terms":["پیتربورو","peterborough","пітерборо","피터버러","彼得伯勒","питерборо","ピーターバラ"]},{"id":3672328,"name":"Piedecuesta","names":{"en":"Piedecuesta"},"country":"CO","lat":6.98789,"lon":-73.04953,"pop":163362,"search_terms":["piedecuesta"]},{"id":1695462,"name":"Pandi","names":{"en":"Pandi","ru":"Панда"},"country":"PH","lat":14.865,"lon":120.95722,"pop":162725,"search_terms":["pandi","панда"]},{"id":1632353,"name":"Parepare","names":{"en":"Parepare","id":"Parepare"},"country":"ID","lat":-4.0135,"lon":119.6255,"pop":160309,"search_terms":["parepare"]},{"id":1873014,"name":"Paech'on-up","names":{"en":"Paech'on-up","ko":"배천읍"},"country":"KP","lat":37.99306,"lon":126.30139,"pop":159825,"search_terms":["paech'on-up","배천읍"]},{"id":7483743,"name":"Puthia","names":{"en":"Puthia","bn":"Puthia","ru":"Путхия"},"country":"BD","lat":24.36537,"lon":88.83431,"pop":159406,"search_terms":["puthia","путхия"]},{"id":2988394,"name":"Paris 16 Passy","names":{"en":"Paris 16 Passy"},"country":"FR","lat":48.8637,"lon":2.2769,"pop":159386,"search_terms":["paris 16 passy"]},{"id":3454783,"name":"Patos de Minas","names":{"en":"Patos de Minas","pt":"Patos de Minas","sv":"Patos de Minas","kk":"Патус-ди-Минас","ru":"Патус-ди-Минас","zh":"帕图斯迪米纳斯"},"country":"BR","lat":-18.57889,"lon":-46.51806,"pop":159235,"search_terms":["patos de minas","帕图斯迪米纳斯","патус-ди-минас"]},{"id":3034610,"name":"Paris 17 Batignolles-Monceau","names":{"en":"Paris 17 Batignolles-Monceau"},"country":"FR","lat":48.8835,"lon":2.3219,"pop":159212,"search_terms":["paris 17 batignolles-monceau"]},{"id":5380698,"name":"Palmdale","names":{"en":"Palmdale","de":"Palmdale","fr":"Palmdale","nl":"Palmdale","ar":"بالمديل","fa":"پالم دیل، کالیفرنیا","ja":"パームデール","ru":"Палмдейл","zh":"棕櫚谷","uk":"Палмдейл"},"country":"US","lat":34.57943,"lon":-118.11646,"pop":158351,"search_terms":["パームデール","棕櫚谷","پالم دیل، کالیفرنیا","بالمديل","палмдейл","palmdale"]},{"id":1214191,"name":"Perbaungan","names":{"en":"Perbaungan","id":"Perbaungan"},"country":"ID","lat":3.5679,"lon":98.956,"pop":157174,"search_terms":["perbaungan"]},{"id":934154,"name":"Port Louis","names":{"en":"Port Louis","de":"Port Louis","fr":"Port-Louis","it":"Port Louis","ja":"ポートルイス","ko":"포트루이스","nl":"Port Louis","pl":"Port Louis","pt":"Port Louis","sv":"Port Louis","es":"Puerto Louis","ru":"Порт-Луи","zh":"路易港","el":"Πορ Λουί","fa":"پورت‌لوئیس","sw":"Port Louis","am":"ፖርት ሉዊስ","ar":"بور لويس","ka":"პორტ-ლუი","uk":"Порт-Луї","tg":"Порт-Луи","hy":"Պորտ Լուի","ky":"Порт-Луи","hi":"पोर्ट लुई","az":"Port Luiz","th":"พอร์ตหลุยส์","ta":"போர்ட் லூயிஸ்","ur":"پورٹ لوئس","so":"Bort Lois","mr":"पोर्ट लुईस","bn":"পোর্ট লুইস","kk":"Порт-Луи","uz":"Port-lui"},"country":"MU","lat":-20.16194,"lon":57.49889,"pop":155226,"search_terms":["port louis","port-louis","bort lois","порт-луї","port luiz","পোর্ট লুইস","ፖርት ሉዊስ","πορ-λουί","พอร์ตหลุยส์","порт-луи","puerto louis","포트루이스","پورٹ لوئس","போர்ட் லூயிஸ்","路易港","ポートルイス","πορ λουί","पोर्ट लुई","port-lui","პორტ-ლუი","पोर्ट लुईस","پورت‌لوئیس","պորտ լուի","بور لويس"]},{"id":4717782,"name":"Pasadena","names":{"en":"Pasadena","nl":"Pasadena","pl":"Pasadena","sv":"Pasadena","ru":"Пасадена","uk":"Пасадена","ko":"패서디나","ar":"باسادينا","ja":"パサデナ","fa":"پاسادنا، تگزاس","zh":"帕薩迪納"},"country":"US","lat":29.69106,"lon":-95.2091,"pop":153784,"search_terms":["パサデナ","باسادينا","pasadena","пасадина","帕薩迪納","پاسادنا، تگزاس","пасадена","패서디나"]},{"id":3454982,"name":"Parelheiros","names":{"en":"Parelheiros"},"country":"BR","lat":-23.8275,"lon":-46.72694,"pop":153695,"search_terms":["parelheiros"]},{"id":5384170,"name":"Pomona","names":{"en":"Pomona","de":"Pomona","nl":"Pomona","it":"Pomona","ru":"Помона","ko":"포모나","ja":"ポモナ","fa":"پومونا، کالیفرنیا","ar":"بومونا","zh":"波莫纳","uk":"Помона","tt":"Помона","hi":"पोमोना","pt":"Pomona","hy":"Պոմոնա","id":"Pomona","ur":"پومونا، کیلیفورنیا","uz":"Pomona","mr":"पोमोना","ms":"Pomona","el":"Πομόνα","es":"Pomona","vi":"Pomona","az":"Pomona","ro":"Pomona","fr":"Pomona","bn":"পমোনা","sv":"Pomona","sw":"Pomona","ta":"பொமோனா","cs":"Pomona","te":"పొమోనా","tg":"Помона","th":"โปโมนา","tl":"Pomona","pl":"Pomona","tr":"Pomona"},"country":"US","lat":34.05529,"lon":-117.75228,"pop":153266,"search_terms":["پومونا، کیلیفورنیا","পমোনা","πομόνα","波莫纳","помона","पोमोना","պոմոնա","பொமோனா","پومونا، کالیفرنیا","పొమోనా","โปโมนา","pomona","ポモナ","بومونا","포모나"]},{"id":1259395,"name":"Porbandar","names":{"en":"Porbandar","fr":"Porbandar","pl":"Porbandar","hi":"पोरबन्दर","sv":"Porbandar","ru":"Порбандаром","ar":"بوربندر","bn":"পোরবন্দর","ko":"포르반다르","mr":"पोरबंदर","ta":"போர்பந்தர்","te":"పోర్‌బందర్","zh":"博尔本德尔"},"country":"IN","lat":21.64219,"lon":69.60929,"pop":152760,"search_terms":["porbandar","порбандар","포르반다르","博尔本德尔","போர்பந்தர்","بوربندر","порбандаром","পোরবন্দর","पोरबंदर","పోర్‌బందర్","पोरबन्दर"]},{"id":1798919,"name":"Pengpu","names":{"en":"Pengpu"},"country":"CN","lat":31.2855,"lon":121.4367,"pop":152725,"search_terms":["pengpu"]},{"id":3452525,"name":"Pouso Alegre","names":{"en":"Pouso Alegre","ru":"Позу-Алегри","kk":"Позу-Алегри","th":"โปซูอาเลกรี","zh":"波苏阿莱格里"},"country":"BR","lat":-22.23,"lon":-45.93639,"pop":152217,"search_terms":["позу-алегри","โปซูอาเลกรี","pouso alegre","波苏阿莱格里"]},{"id":2640101,"name":"Poole","names":{"en":"Poole","de":"Poole","fr":"Poole","nl":"Poole","pl":"Poole","sv":"Poole","ro":"Poole","ru":"Пул","az":"Puul","fa":"پول، انگلستان","ja":"プール","uk":"Пул","zh":"普爾","hy":"Պուլ","ur":"پول، انگلستان"},"country":"GB","lat":50.71429,"lon":-1.98458,"pop":151500,"search_terms":["պուլ","普爾","プール","پول، انگلستان","puul","пул","poole"]},{"id":3992619,"name":"Piedras Negras","names":{"en":"Piedras Negras","fr":"Piedras Negras","es":"Piedras Negras","pl":"Piedras Negras","de":"Piedras Negras","sv":"Piedras Negras","ur":"پیئدراس نیگراس، كواہويلا"},"country":"MX","lat":28.70007,"lon":-100.52353,"pop":150178,"search_terms":["piedrasnegras","piedras negras","پیئدراس نیگراس، كواہويلا"]},{"id":3521342,"name":"Playa del Carmen","names":{"en":"Playa del Carmen","ru":"Плая-дель-Кармен","ja":"プラヤ・デル・カルメン","ko":"플라야델카르멘","ur":"پلائیا دیل کارمین","zh":"普拉亞德爾卡曼","tt":"Плая-дел-Кармен","de":"Playa del Carmen","hi":"प्लाया डेल कारमेन","pt":"Playa del Carmen","hy":"Պլայա դել Կարմեն","uk":"Плая-дель-Кармен","id":"Playa del Carmen","mr":"प्लाइया देल कारमेन","ms":"Playa del Carmen","el":"Πλάγια ντελ Κάρμεν","it":"Playa del Carmen","es":"Playa del Carmen","ar":"بلايا ديل كارمن","vi":"Playa del Carmen","ro":"Playa del Carmen","nl":"Playa del Carmen","fr":"Playa del Carmen","bn":"প্যালায়া ডেল কামেন","sv":"Playa del Carmen","ta":"பிளாயா டெல் கார்மென்","cs":"Playa del Carmen","te":"ప్లాయా డెల్ కార్మెన్","th":"ปลายาเดลการ์เมน","pl":"Playa del Carmen","tr":"Playa del Carmen"},"country":"MX","lat":20.6274,"lon":-87.07987,"pop":149923,"search_terms":["플라야델카르멘","प्लाइया देल कारमेन","плая-дель-кармен","πλάγια ντελ κάρμεν","بلايا ديل كارمن","প্যালায়া ডেল কামেন","պլայա դել կարմեն","பிளாயா டெல் கார்மென்","ప్లాయా డెల్ కార్మెన్","playa del carmen","プラヤ・デル・カルメン","प्लाया डेल कारमेन","плая-дел-кармен","普拉亞德爾卡曼","پلائیا دیل کارمین","ปลายาเดลการ์เมน"]},{"id":2852217,"name":"Prenzlauer Berg Bezirk","names":{"en":"Prenzlauer Berg Bezirk","uk":"Пренцлауер-Берґ","ja":"プレンツラウアー・ベルク","ru":"Пренцлауэр-Берг","zh":"普伦茨劳贝格"},"country":"DE","lat":52.53878,"lon":13.42443,"pop":148878,"search_terms":["пренцлауэр-берг","prenzlauer berg bezirk","普伦茨劳贝格","пренцлауер-берґ","プレンツラウアー・ベルク"]},{"id":5102466,"name":"Paterson","names":{"en":"Paterson","de":"Paterson","nl":"Paterson","pt":"Paterson","pl":"Paterson","fr":"Paterson","ru":"Патерсон","ar":"باترسون","ja":"パターソン","kk":"Патэрсон","uk":"Патерсон","fa":"پترسون، نیوجرسی","ko":"패터슨","zh":"帕特森","th":"แพเทอร์สัน","ur":"پیٹرسن، نیو جرسی"},"country":"US","lat":40.91677,"lon":-74.17181,"pop":147754,"search_terms":["باترسون","پترسون، نیوجرسی","پیٹرسن، نیو جرسی","патерсон","パターソン","패터슨","патэрсон","แพเทอร์สัน","paterson","帕特森"]},{"id":3493175,"name":"Puerto Plata","names":{"en":"Puerto Plata","es":"San Felipe de Puerto Plata","it":"San Felipe de Puerto Plata","tg":"Вилояти Пуэрто Плата","uk":"Сан-Феліпе-де-Пуерто-Плата","ja":"プエルト・プラタ","zh":"聖斐利-銀港","de":"Puerto Plata","fr":"Puerto Plata","ko":"푸에르토플라타","ur":"پورتو پلاتا","ru":"Сан-Фелипе-де-Пуэрто-Плата"},"country":"DO","lat":19.79344,"lon":-70.6884,"pop":146000,"search_terms":["푸에르토플라타","プエルト・プラタ","вилояти пуэрто плата","сан-феліпе-де-пуерто-плата","聖斐利-銀港","پورتو پلاتا","san felipe de puerto plata","puerto plata","сан-фелипе-де-пуэрто-плата"]},{"id":6317837,"name":"Paco do Lumiar","names":{"en":"Paco do Lumiar"},"country":"BR","lat":-2.53222,"lon":-44.1075,"pop":145643,"search_terms":["paco do lumiar"]},{"id":3046526,"name":"Pecs","names":{"en":"Pecs","de":"Fünfkirchen","es":"Pécs","cs":"Pécs","fr":"Pécs","nl":"Pécs","pl":"Pecz","pt":"Pécs","ro":"Pécs","ru":"Печ","sv":"Pécs","it":"Pécs","id":"Pécs","ja":"ペーチ","ko":"페치","ka":"პეჩი","ar":"بيتش","fa":"پچ","mr":"पेच","uk":"Печ","el":"Πετς","zh":"佩奇"},"country":"HU","lat":46.07617,"lon":18.22814,"pop":145347,"search_terms":["페치","cinquechiese","पेच","πετς","პეჩი","pecz","佩奇","pecs","ペーチ","печ","pécs","fünfkirchen","پچ","بيتش"]},{"id":12808658,"name":"Paris 11e Arrondissement","names":{"en":"Paris 11e Arrondissement"},"country":"FR","lat":48.85834,"lon":2.37952,"pop":144292,"search_terms":["paris 11e arrondissement"]},{"id":965154,"name":"Pinetown","names":{"en":"Pinetown"},"country":"ZA","lat":-29.82068,"lon":30.88674,"pop":144026,"search_terms":["pinetown"]},{"id":503550,"name":"Pyatigorsk","names":{"en":"Pyatigorsk","de":"Pjatigorsk","ja":"ピャチゴルスク","ko":"퍄티고르스크","uk":"Пятигорськ","zh":"五山城","pl":"Piatigorsk","ru":"Пятигорск"},"country":"RU","lat":44.05,"lon":43.05036,"pop":142865,"search_terms":["пятигорськ","piatigorsk","пятигорск","pyatigorsk","五山城","ピャチゴルスク","pjatigorsk","퍄티고르스크"]},{"id":5381396,"name":"Pasadena","names":{"en":"Pasadena","de":"Pasadena","es":"Pasadena","fr":"Pasadena","it":"Pasadena","ja":"パサデナ","ko":"패서디나","nl":"Pasadena","pl":"Pasadena","sv":"Pasadena","pt":"Pasadena","uk":"Пасадена","hy":"Փասադենա","fa":"پاسادینا، کالیفرنیا","ar":"باسادينا","ru":"Пасадина","zh":"帕萨迪纳","th":"แพซาดีนา","el":"Πασαντίνα"},"country":"US","lat":34.14778,"lon":-118.14452,"pop":142250,"search_terms":["πασαντίνα","パサデナ","باسادينا","帕萨迪纳","pasadena","пасадина","փասադենա","пасадена","패서디나","پاسادینا، کالیفرنیا","แพซาดีนา"]},{"id":2855745,"name":"Paderborn","names":{"en":"Paderborn","de":"Paderborn","es":"Paderborn","fr":"Paderborn","it":"Paderborn","nl":"Paderborn","pl":"Paderborn","sv":"Paderborn","ja":"パーダーボルン","pt":"Paderborn","ru":"Падерборн","tr":"Paderborn","kk":"Падерборн","fa":"پادربورن","uk":"Падерборн","ar":"بادربورن","ka":"პადერბორნი","ko":"파더보른","zh":"帕德博恩","th":"ปาเดอร์บอร์น"},"country":"DE","lat":51.71905,"lon":8.75439,"pop":142161,"search_terms":["ปาเดอร์บอร์น","پادربورن","بادربورن","падерборн","paderborn","파더보른","パーダーボルン","პადერბორნი","帕德博恩"]},{"id":3629576,"name":"Punto Fijo","names":{"en":"Punto Fijo","ka":"პუნტო-ფიხო","zh":"蓬托菲霍"},"country":"VE","lat":11.69152,"lon":-70.19918,"pop":141729,"search_terms":["punto fijo","蓬托菲霍","პუნტო-ფიხო"]},{"id":1260777,"name":"Palanpur","names":{"en":"Palanpur"},"country":"IN","lat":24.17128,"lon":72.43827,"pop":141592,"search_terms":["palanpur"]},{"id":670609,"name":"Pitesti","names":{"en":"Pitesti","es":"Piteşti","fr":"Piteşti","nl":"Piteşti","pl":"Piteszt","ro":"Pitești","cs":"Pitešť","id":"Pitesti","it":"Piteşti","pt":"Piteşti","de":"Piteşti","ru":"Питешты","uk":"Пітешть"},"country":"RO","lat":44.85,"lon":24.86667,"pop":141275,"search_terms":["piteşti","pitešť","pitesti","питешты","pitești","piteszt","пітешть"]},{"id":3907584,"name":"Potosi","names":{"en":"Potosi","es":"Potosí","pl":"Potosí","de":"Potosí","fr":"Potosí","ja":"ポトシ","nl":"Potosí","pt":"Potosí","sv":"Potosí","it":"Potosí","ru":"Потоси","ko":"포토시","el":"Ποτοσί","ar":"بوتوسي","ka":"პოტოსი","hi":"पोतोसी","uk":"Потосі","zh":"波托西","fa":"پوتوسی","hy":"Պոտոսի","kk":"Потоси","th":"โปโตซี","ur":"پوتوسی"},"country":"BO","lat":-19.58361,"lon":-65.75306,"pop":141251,"search_terms":["პოტოსი","потоси","포토시","potosi","պոտոսի","पोतोसी","بوتوسي","ポトシ","potosí","โปโตซี","پوتوسی","потосі","波托西","ποτοσί"]},{"id":3455070,"name":"Paranagua","names":{"en":"Paranagua","es":"Paranaguá","de":"Paranaguá","pt":"Paranaguá","sv":"Paranaguá","ru":"Паранагуа","el":"Παραναγκουά","ja":"パラナグア","zh":"巴拉那瓜"},"country":"BR","lat":-25.51626,"lon":-48.52537,"pop":141013,"search_terms":["παραναγκουά","パラナグア","巴拉那瓜","paranagua","paranaguá","паранагуа"]},{"id":12808663,"name":"Paris 12e Arrondissement","names":{"en":"Paris 12e Arrondissement"},"country":"FR","lat":48.83523,"lon":2.43505,"pop":140311,"search_terms":["paris 12e arrondissement"]},{"id":255524,"name":"Peristeri","names":{"en":"Peristeri","de":"Peristeri","ro":"Peristerion","pl":"Peristeri","nl":"Peristeri","el":"Περιστέρι","ru":"Перистерион"},"country":"GR","lat":38.01539,"lon":23.69187,"pop":139981,"search_terms":["peristeri","περιστέριον","περιστέρι","περιστέρι αττικής","peristerion","перистерион"]},{"id":1631905,"name":"Payakumbuh","names":{"en":"Payakumbuh","pl":"Payakumbuh","id":"Kota Payakumbuh","ms":"Payakumbuh","nl":"Payakumbuh"},"country":"ID","lat":-0.2159,"lon":100.6334,"pop":139576,"search_terms":["payakumbuh","kota payakumbuh"]},{"id":1630333,"name":"Purwodadi","names":{"en":"Purwodadi","id":"Purwodadi"},"country":"ID","lat":-7.0868,"lon":110.9158,"pop":139387,"search_terms":["purwodadi grobogan","purwodadi"]},{"id":8393989,"name":"Plaza de la Revolucion","names":{"en":"Plaza de la Revolucion"},"country":"CU","lat":23.11936,"lon":-82.39197,"pop":139135,"search_terms":["plaza de la revolucion"]},{"id":2986082,"name":"Paris 11 Popincourt","names":{"en":"Paris 11 Popincourt"},"country":"FR","lat":48.8574,"lon":2.3795,"pop":138170,"search_terms":["paris 11 popincourt"]},{"id":2983854,"name":"Paris 12 Reuilly","names":{"en":"Paris 12 Reuilly"},"country":"FR","lat":48.8412,"lon":2.3876,"pop":138024,"search_terms":["paris 12 reuilly"]},{"id":3393001,"name":"Parnaiba","names":{"en":"Parnaiba","ru":"Парнаиба","el":"Παρναΐμπα","kk":"Парнаиба","zh":"巴纳伊巴"},"country":"BR","lat":-2.90472,"lon":-41.77667,"pop":138008,"search_terms":["巴纳伊巴","παρναΐμπα","парнаиба","parnaiba"]},{"id":3374333,"name":"Praia","names":{"en":"Praia","de":"Praia","es":"Praia","fr":"Praia","id":"Praia","it":"Praia","ja":"プライア","ko":"프라이아","nl":"Praia","pl":"Praia","pt":"Cidade da Praia","sv":"Praia","ru":"Прая","el":"Πράγια","sw":"Praia","am":"ፕራያ","so":"Braia","fa":"پرایا","ky":"Прая","th":"ไปรอา","ka":"პრაია","ar":"برايا","az":"Praya","tg":"Прая","hy":"Պրայա","uk":"Прая","ur":"پرائیا","mr":"प्राईया","zh":"培亞","uz":"Praya"},"country":"CV","lat":14.93152,"lon":-23.51254,"pop":137868,"search_terms":["ፕራያ","պրայա","პრაია","プライア","πράγια","प्राईया","cidade da praia","πράια","ไปรอา","прая","praia","braia","프라이아","praya","پرائیا","پرایا","برايا","培亞","município da praia"]},{"id":4566880,"name":"Ponce","names":{"en":"Ponce","es":"Ponce","pl":"Ponce","de":"Ponce","fr":"Ponce","ru":"Понсе","ja":"ポンセ","ko":"폰세","uk":"Понсе","zh":"龐塞"},"country":"PR","lat":18.01031,"lon":-66.62398,"pop":137491,"search_terms":["ponce","폰세","ポンセ","龐塞","понсе"]},{"id":1735545,"name":"Pasir Puteh","names":{"en":"Pasir Puteh"},"country":"MY","lat":5.83333,"lon":102.4,"pop":137400,"search_terms":["pasir puteh"]},{"id":1570449,"name":"Phu Ly","names":{"en":"Phu Ly","vi":"Thành Phố Phủ Lý"},"country":"VN","lat":20.54531,"lon":105.91221,"pop":136654,"search_terms":["phu ly","thành phố phủ lý"]},{"id":2989781,"name":"Paris 14 Observatoire","names":{"en":"Paris 14 Observatoire"},"country":"FR","lat":48.8331,"lon":2.3264,"pop":136455,"search_terms":["paris 14 observatoire"]},{"id":3672110,"name":"Pitalito","names":{"en":"Pitalito","es":"Pitalito","ka":"პიტალიტო","ru":"Питалито","zh":"皮塔利托"},"country":"CO","lat":1.85371,"lon":-76.05071,"pop":135711,"search_terms":["皮塔利托","pitalito","питалито","პიტალიტო"]},{"id":3591415,"name":"Petapa","names":{"en":"Petapa"},"country":"GT","lat":14.50189,"lon":-90.56196,"pop":135447,"search_terms":["petapa"]},{"id":1299154,"name":"Pyay","names":{"en":"Pyay","ru":"Проме","de":"Pyay","pt":"Prome","fr":"Prome","bn":"প্রোম","uk":"П'ї","ur":"پیاے","sv":"Pyay","ko":"프롬","it":"Prome","zh":"卑謬市","es":"Pyay","cs":"Pyay","th":"แปร","ja":"ピイ","pl":"Pyain","nl":"Pyay"},"country":"MM","lat":18.81996,"lon":95.21562,"pop":135308,"search_terms":["проме","prome","প্রোম","ピイ","پیاے","프롬","п'ї","แปร","pyain","卑謬市","pyay"]},{"id":1260173,"name":"Patan","names":{"en":"Patan","ru":"Патан"},"country":"IN","lat":23.8507,"lon":72.12963,"pop":133737,"search_terms":["патан","patan"]},{"id":510808,"name":"Pervouralsk","names":{"en":"Pervouralsk","ru":"Первоуральск","zh":"第一烏拉爾斯克","ar":"بيرفورالسك","de":"Perwouralsk"},"country":"RU","lat":56.90528,"lon":59.94361,"pop":133600,"search_terms":["perwouralsk","第一烏拉爾斯克","بيرفورالسك","pervouralsk","первоуральск"]},{"id":1798473,"name":"Puqi","names":{"en":"Puqi"},"country":"CN","lat":29.71667,"lon":113.88333,"pop":132891,"search_terms":["puqi"]},