[{"id":1168197,"name":"Peshawar","local":"Пешавар","country":"PK","lat":34.008,"lon":71.578,"pop":4758762,"tz":"Asia/Karachi"},{"id":1798425,"name":"Puyang","local":"Puyang","country":"CN","lat":29.457,"lon":119.889,"pop":3590000,"tz":"Asia/Shanghai"},{"id":1871859,"name":"Pyongyang","local":"Пхеньян","country":"KP","lat":39.034,"lon":125.754,"pop":3222000,"tz":"Asia/Pyongyang"},{"id":1259229,"name":"Pune","local":"Пуна","country":"IN","lat":18.52,"lon":73.855,"pop":3124458,"tz":"Asia/Kolkata"},{"id":2063523,"name":"Perth","local":"Перт","country":"AU","lat":-31.952,"lon":115.861,"pop":2309338,"tz":"Australia/Perth"},{"id":2988507,"name":"Paris","local":"Париж","country":"FR","lat":48.853,"lon":2.349,"pop":2138551,"tz":"Europe/Paris"},{"id":2324774,"name":"Port Harcourt","local":"Порт-Харкорт","country":"NG","lat":4.777,"lon":7.013,"pop":2120000,"tz":"Africa/Lagos"},{"id":964137,"name":"Pretoria","local":"Претория","country":"ZA","lat":-25.745,"lon":28.188,"pop":2112693,"tz":"Africa/Johannesburg"},{"id":7626690,"name":"Pimpri-Chinchwad","local":"Пимпри-Чинчвад","country":"IN","lat":18.619,"lon":73.804,"pop":1727692,"tz":"Asia/Kolkata"},{"id":3521081,"name":"Puebla","local":"Пуэбла-де-Сарагоса","country":"MX","lat":19.048,"lon":-98.207,"pop":1692181,"tz":"America/Mexico_City"},{"id":1260086,"name":"Patna","local":"Патна","country":"IN","lat":25.594,"lon":85.136,"pop":1684297,"tz":"Asia/Kolkata"},{"id":1633070,"name":"Palembang","local":"Палембанг","country":"ID","lat":-2.917,"lon":104.746,"pop":1668848,"tz":"Asia/Jakarta"},{"id":5308655,"name":"Phoenix","local":"Финикс","country":"US","lat":33.448,"lon":-112.074,"pop":1650070,"tz":"America/Phoenix"},{"id":4560349,"name":"Philadelphia","local":"Филадельфия","country":"US","lat":39.952,"lon":-75.164,"pop":1573916,"tz":"America/New_York"},{"id":1821306,"name":"Phnom Penh","local":"Пномпень","country":"KH","lat":11.562,"lon":104.916,"pop":1573544,"tz":"Asia/Phnom_Penh"},{"id":1798449,"name":"Putian","local":"Путянь","country":"CN","lat":25.439,"lon":119.01,"pop":1539389,"tz":"Asia/Shanghai"},{"id":3452925,"name":"Porto Alegre","local":"Порту-Алегри","country":"BR","lat":-30.033,"lon":-51.23,"pop":1488252,"tz":"America/Sao_Paulo"},{"id":1259652,"name":"Pimpri","local":"Пимпри","country":"IN","lat":18.623,"lon":73.807,"pop":1284606,"tz":"Asia/Kolkata"},{"id":3718426,"name":"Port-au-Prince","local":"Порт-о-Пренс","country":"HT","lat":18.543,"lon":-72.339,"pop":1234742,"tz":"America/Port-au-Prince"},{"id":3067696,"name":"Prague","local":"Прага","country":"CZ","lat":50.088,"lon":14.421,"pop":1165581,"tz":"Europe/Prague"},{"id":1631761,"name":"Pekanbaru","local":"Пеканбару","country":"ID","lat":0.517,"lon":101.442,"pop":1085000,"tz":"Asia/Jakarta"},{"id":1278994,"name":"Prayagraj","local":"Аллахабад","country":"IN","lat":25.445,"lon":81.843,"pop":1073438,"tz":"Asia/Kolkata"},{"id":2255414,"name":"Pointe-Noire","local":"Пуэнт-Нуар","country":"CG","lat":-4.776,"lon":11.864,"pop":1032000,"tz":"Africa/Brazzaville"},{"id":511196,"name":"Perm","local":"Пермь","country":"RU","lat":58.01,"lon":56.25,"pop":982419,"tz":"Asia/Yekaterinburg"},{"id":1798827,"name":"Pingdingshan","local":"Пиндиншань","country":"CN","lat":33.731,"lon":113.316,"pop":979130,"tz":"Asia/Shanghai"},{"id":1633419,"name":"Padang","local":"Паданг","country":"ID","lat":-0.949,"lon":100.354,"pop":909040,"tz":"Asia/Jakarta"},{"id":1798654,"name":"Pingxiang","local":"Пинсян","country":"CN","lat":27.617,"lon":113.854,"pop":893550,"tz":"Asia/Shanghai"},{"id":1802940,"name":"Puning","local":"Puning","country":"CN","lat":23.311,"lon":116.169,"pop":874954,"tz":"Asia/Shanghai"},{"id":2246678,"name":"Pikine","local":"Пикин","country":"SN","lat":14.765,"lon":-17.391,"pop":874062,"tz":"Africa/Dakar"},{"id":7290466,"name":"Pasig City","local":"Pasig City","country":"PH","lat":14.587,"lon":121.061,"pop":853050,"tz":"Asia/Manila"},{"id":965301,"name":"Pietermaritzburg","local":"Питермарицбург","country":"ZA","lat":-29.617,"lon":30.393,"pop":839327,"tz":"Africa/Johannesburg"},{"id":1735158,"name":"Petaling Jaya","local":"Петалинг-Джая","country":"MY","lat":3.107,"lon":101.607,"pop":807879,"tz":"Asia/Kuala_Lumpur"},{"id":6929460,"name":"Panzhihua","local":"Panzhihua","country":"CN","lat":26.585,"lon":101.713,"pop":787177,"tz":"Asia/Shanghai"},{"id":358619,"name":"Port Said","local":"Порт-Саид","country":"EG","lat":31.265,"lon":32.302,"pop":780515,"tz":"Africa/Cairo"},{"id":1694781,"name":"Paranaque City","local":"Paranaque City","country":"PH","lat":14.482,"lon":121.017,"pop":703245,"tz":"Asia/Manila"},{"id":1630789,"name":"Pontianak","local":"Понтианак","country":"ID","lat":-0.032,"lon":109.325,"pop":658685,"tz":"Asia/Pontianak"},{"id":1259425,"name":"Puducherry","local":"Пондишери","country":"IN","lat":11.934,"lon":79.83,"pop":657209,"tz":"Asia/Kolkata"},{"id":9181182,"name":"Puyang","local":"Пуян","country":"CN","lat":35.756,"lon":115.044,"pop":655674,"tz":"Asia/Shanghai"},{"id":5746545,"name":"Portland","local":"Портленд","country":"US","lat":45.523,"lon":-122.676,"pop":652503,"tz":"America/Los_Angeles"},{"id":2523920,"name":"Palermo","local":"Палермо","country":"IT","lat":38.117,"lon":13.364,"pop":648260,"tz":"Europe/Rome"},{"id":2035513,"name":"Panshan","local":"Panshan","country":"CN","lat":41.188,"lon":122.049,"pop":625040,"tz":"Asia/Shanghai"},{"id":1282898,"name":"Pokhara","local":"Покхара","country":"NP","lat":28.267,"lon":83.969,"pop":600051,"tz":"Asia/Kathmandu"},{"id":7696679,"name":"Pallabi","local":"Pallabi","country":"BD","lat":23.825,"lon":90.37,"pop":597574,"tz":"Asia/Dhaka"},{"id":1732747,"name":"Pelentong","local":"Pelentong","country":"MY","lat":1.524,"lon":103.824,"pop":583640,"tz":"Asia/Kuala_Lumpur"},{"id":3875024,"name":"Puente Alto","local":"Пуэнте-Альто","country":"CL","lat":-33.612,"lon":-70.576,"pop":568106,"tz":"America/Santiago"},{"id":786714,"name":"Pristina","local":"Приштина","country":"XK","lat":42.673,"lon":21.167,"pop":550000,"tz":"Europe/Belgrade"},{"id":3662762,"name":"Porto Velho","local":"Порту-Велью","country":"BR","lat":-8.762,"lon":-63.904,"pop":548952,"tz":"America/Porto_Velho"},{"id":1798821,"name":"Pingdu","local":"Пинду","country":"CN","lat":36.784,"lon":119.946,"pop":542234,"tz":"Asia/Shanghai"},{"id":3088171,"name":"Poznan","local":"Познань","country":"PL","lat":52.407,"lon":16.93,"pop":536151,"tz":"Europe/Warsaw"},{"id":1732722,"name":"Pasir Gudang","local":"Pasir Gudang","country":"MY","lat":1.462,"lon":103.905,"pop":534659,"tz":"Asia/Kuala_Lumpur"},{"id":511565,"name":"Penza","local":"Пенза","country":"RU","lat":53.196,"lon":45.011,"pop":523553,"tz":"Europe/Moscow"},{"id":1798760,"name":"Pingliang","local":"Пинлян","country":"CN","lat":35.539,"lon":106.686,"pop":504848,"tz":"Asia/Shanghai"},{"id":1839071,"name":"Pohang","local":"Pohang","country":"KR","lat":36.029,"lon":129.365,"pop":492041,"tz":"Asia/Seoul"},{"id":377039,"name":"Port Sudan","local":"Порт-Судан","country":"SD","lat":19.617,"lon":37.216,"pop":489725,"tz":"Africa/Khartoum"},{"id":3693528,"name":"Piura","local":"Пиура","country":"PE","lat":-5.182,"lon":-80.657,"pop":484475,"tz":"America/Lima"},{"id":3672486,"name":"Pereira","local":"Перейра","country":"CO","lat":4.814,"lon":-75.695,"pop":467269,"tz":"America/Bogota"},{"id":1260107,"name":"Patiala","local":"Патьяла","country":"IN","lat":30.336,"lon":76.392,"pop":446246,"tz":"Asia/Kolkata"},{"id":2512989,"name":"Palma","local":"Пальма","country":"ES","lat":39.569,"lon":2.65,"pop":438234,"tz":"Europe/Madrid"},{"id":1694611,"name":"Pasay","local":"Pasay","country":"PH","lat":14.537,"lon":121.001,"pop":416522,"tz":"Asia/Manila"},{"id":3703443,"name":"Panama","local":"Панама","country":"PA","lat":8.994,"lon":-79.52,"pop":408168,"tz":"America/Panama"},{"id":3453643,"name":"Piracicaba","local":"Пирасикаба","country":"BR","lat":-22.725,"lon":-47.649,"pop":407252,"tz":"America/Sao_Paulo"},{"id":3672778,"name":"Pasto","local":"Пасто","country":"CO","lat":1.215,"lon":-77.278,"pop":392930,"tz":"America/Bogota"},{"id":3392242,"name":"Petrolina","local":"Петролина","country":"BR","lat":-9.399,"lon":-40.501,"pop":386791,"tz":"America/Recife"},{"id":1260482,"name":"Panihati","local":"Pānihāti","country":"IN","lat":22.691,"lon":88.374,"pop":378705,"tz":"Asia/Kolkata"},{"id":1749822,"name":"Puchong","local":"Puchong","country":"MY","lat":3.0,"lon":101.617,"pop":375181,"tz":"Asia/Kuala_Lumpur"},{"id":1633034,"name":"Palu","local":"Пал","country":"ID","lat":-0.908,"lon":119.871,"pop":373218,"tz":"Asia/Makassar"},{"id":3629672,"name":"Puerto La Cruz","local":"Пуэрто Ла Круз","country":"VE","lat":10.214,"lon":-64.633,"pop":370000,"tz":"America/Caracas"},{"id":1838343,"name":"Pyeongtaek","local":"Pyeongtaek","country":"KR","lat":36.995,"lon":127.089,"pop":364694,"tz":"Asia/Seoul"},{"id":3630297,"name":"Petare","local":"Петаре","country":"VE","lat":10.477,"lon":-66.808,"pop":364684,"tz":"America/Caracas"},{"id":1798900,"name":"Pengze","local":"Pengze","country":"CN","lat":29.899,"lon":116.546,"pop":350000,"tz":"Asia/Shanghai"},{"id":1259239,"name":"Punasa","local":"Punāsa","country":"IN","lat":22.235,"lon":76.393,"pop":350000,"tz":"Asia/Kolkata"},{"id":3452465,"name":"Praia Grande","local":"Прайя-Гранди","country":"BR","lat":-24.006,"lon":-46.403,"pop":349935,"tz":"America/Sao_Paulo"},{"id":1785716,"name":"Pizhou","local":"Pizhou","country":"CN","lat":34.311,"lon":117.95,"pop":343421,"tz":"Asia/Shanghai"},{"id":3392740,"name":"Paulista","local":"Паулиста","country":"BR","lat":-7.941,"lon":-34.873,"pop":342167,"tz":"America/Recife"},{"id":728193,"name":"Plovdiv","local":"Пловдив","country":"BG","lat":42.154,"lon":24.75,"pop":329489,"tz":"Europe/Sofia"},{"id":1520240,"name":"Pavlodar","local":"Павлодар","country":"KZ","lat":52.276,"lon":76.969,"pop":329002,"tz":"Asia/Almaty"},{"id":3693345,"name":"Pucallpa","local":"Пукальпа","country":"PE","lat":-8.379,"lon":-74.554,"pop":326040,"tz":"America/Lima"},{"id":3652941,"name":"Portoviejo","local":"Портовьехо","country":"EC","lat":-1.058,"lon":-80.451,"pop":321800,"tz":"America/Guayaquil"},{"id":3454244,"name":"Pelotas","local":"Пелотас","country":"BR","lat":-31.77,"lon":-52.341,"pop":320674,"tz":"America/Sao_Paulo"},{"id":3671916,"name":"Popayan","local":"Попаян","country":"CO","lat":2.438,"lon":-76.613,"pop":318059,"tz":"America/Bogota"},{"id":1631766,"name":"Pekalongan","local":"Pekalongan","country":"ID","lat":-6.889,"lon":109.675,"pop":317524,"tz":"Asia/Jakarta"},{"id":2639912,"name":"Preston","local":"Престон","country":"GB","lat":53.763,"lon":-2.705,"pop":313332,"tz":"Europe/London"},{"id":3673164,"name":"Palmira","local":"Palmira","country":"CO","lat":3.539,"lon":-76.304,"pop":312519,"tz":"America/Bogota"},{"id":1214189,"name":"Percut","local":"Percut","country":"ID","lat":3.625,"lon":98.864,"pop":311063,"tz":"Asia/Jakarta"},{"id":1260341,"name":"Parbhani","local":"Парбхани","country":"IN","lat":19.269,"lon":76.771,"pop":307170,"tz":"Asia/Kolkata"},{"id":3474574,"name":"Palmas","local":"Палмас","country":"BR","lat":-10.167,"lon":-48.328,"pop":306296,"tz":"America/Araguaina"},{"id":3718420,"name":"Port-de-Paix","local":"Пор-де-Пе","country":"HT","lat":19.94,"lon":-72.83,"pop":306217,"tz":"America/Port-au-Prince"},{"id":3429886,"name":"Posadas","local":"Посадас","country":"AR","lat":-27.392,"lon":-55.924,"pop":305874,"tz":"America/Argentina/Cordoba"},{"id":5206379,"name":"Pittsburgh","local":"Питтсбург","country":"US","lat":40.441,"lon":-79.996,"pop":304391,"tz":"America/New_York"},{"id":1282931,"name":"Patan","local":"Лалитпур","country":"NP","lat":27.677,"lon":85.314,"pop":299283,"tz":"Asia/Kathmandu"},{"id":1260476,"name":"Panipat","local":"Панипата","country":"IN","lat":29.387,"lon":76.968,"pop":295970,"tz":"Asia/Kolkata"},{"id":8531735,"name":"Phu Quoc","local":"Фукуок","country":"VN","lat":10.224,"lon":103.972,"pop":294419,"tz":"Asia/Ho_Chi_Minh"},{"id":1633118,"name":"Palangkaraya","local":"Паланкарая","country":"ID","lat":-2.208,"lon":113.917,"pop":293500,"tz":"Asia/Pontianak"},{"id":3453186,"name":"Ponta Grossa","local":"Понта-Гроса","country":"BR","lat":-25.095,"lon":-50.162,"pop":292177,"tz":"America/Sao_Paulo"},{"id":1570357,"name":"Phu My","local":"Phú Mỹ","country":"VN","lat":10.633,"lon":107.067,"pop":287055,"tz":"Asia/Ho_Chi_Minh"},{"id":2088122,"name":"Port Moresby","local":"Порт-Морсби","country":"PG","lat":-9.477,"lon":147.151,"pop":283733,"tz":"Pacific/Port_Moresby"},{"id":4719457,"name":"Plano","local":"Планом","country":"US","lat":33.02,"lon":-96.699,"pop":283558,"tz":"America/Chicago"},{"id":696643,"name":"Poltava","local":"Полтава","country":"UA","lat":49.589,"lon":34.554,"pop":283402,"tz":"Europe/Kyiv"},{"id":3719028,"name":"Petionville","local":"Pétionville","country":"HT","lat":18.512,"lon":-72.285,"pop":283052,"tz":"America/Port-au-Prince"},{"id":1259166,"name":"Purnia","local":"Пурния","country":"IN","lat":25.779,"lon":87.474,"pop":282248,"tz":"Asia/Kolkata"},{"id":509820,"name":"Petrozavodsk","local":"Петрозаводск","country":"RU","lat":61.785,"lon":34.347,"pop":279190,"tz":"Europe/Moscow"},{"id":1214204,"name":"Pematangsiantar","local":"Pematangsiantar","country":"ID","lat":2.959,"lon":99.069,"pop":274838,"tz":"Asia/Jakarta"},{"id":1632228,"name":"Pasarkemis","local":"Pasarkemis","country":"ID","lat":-6.17,"lon":106.53,"pop":273659,"tz":"Asia/Jakarta"},{"id":3454031,"name":"Petropolis","local":"Петрополис","country":"BR","lat":-22.505,"lon":-43.179,"pop":272691,"tz":"America/Sao_Paulo"},{"id":965289,"name":"Polokwane","local":"Полокване","country":"ZA","lat":-23.904,"lon":29.469,"pop":272461,"tz":"Africa/Johannesburg"},{"id":6317872,"name":"Parauapebas","local":"Парауапебас","country":"BR","lat":-6.067,"lon":-49.902,"pop":267836,"tz":"America/Belem"},{"id":3392998,"name":"Parnamirim","local":"Парнамирин","country":"BR","lat":-5.916,"lon":-35.263,"pop":267036,"tz":"America/Fortaleza"},{"id":2392087,"name":"Porto-Novo","local":"Порто-Ново","country":"BJ","lat":6.496,"lon":2.604,"pop":264320,"tz":"Africa/Porto-Novo"},{"id":2640194,"name":"Plymouth","local":"Плимут","country":"GB","lat":50.372,"lon":-4.143,"pop":260203,"tz":"Europe/London"},{"id":3522210,"name":"Pachuca de Soto","local":"Пачука-де-Сото","country":"MX","lat":20.117,"lon":-98.733,"pop":256584,"tz":"America/Mexico_City"},{"id":2392204,"name":"Parakou","local":"Параку","country":"BJ","lat":9.337,"lon":2.63,"pop":255478,"tz":"Africa/Porto-Novo"},{"id":293918,"name":"Petah Tiqva","local":"Петах-Тиква","country":"IL","lat":32.087,"lon":34.887,"pop":253529,"tz":"Asia/Jerusalem"},{"id":2735943,"name":"Porto","local":"Порту","country":"PT","lat":41.148,"lon":-8.611,"pop":252687,"tz":"Europe/Lisbon"},{"id":3841956,"name":"Parana","local":"Парана","country":"AR","lat":-31.733,"lon":-60.529,"pop":247139,"tz":"America/Argentina/Cordoba"},{"id":1630634,"name":"Probolinggo","local":"Probolinggo","country":"ID","lat":-7.754,"lon":113.216,"pop":246980,"tz":"Asia/Jakarta"},{"id":3874960,"name":"Puerto Montt","local":"Пуэрто-Монт","country":"CL","lat":-41.469,"lon":-72.942,"pop":245902,"tz":"America/Santiago"},{"id":3112737,"name":"Puente de Vallecas","local":"Puente de Vallecas","country":"ES","lat":40.394,"lon":-3.662,"pop":244151,"tz":"Europe/Madrid"},{"id":3876682,"name":"Penalolen","local":"Пеньялолен","country":"CL","lat":-33.468,"lon":-70.534,"pop":241599,"tz":"America/Santiago"},{"id":1328421,"name":"Pathein","local":"Патейн","country":"MM","lat":16.779,"lon":94.732,"pop":237089,"tz":"Asia/Yangon"},{"id":3363094,"name":"Paarl","local":"Паарл","country":"ZA","lat":-33.734,"lon":18.975,"pop":236910,"tz":"Africa/Johannesburg"},{"id":3193044,"name":"Podgorica","local":"Подгорица","country":"ME","lat":42.441,"lon":19.263,"pop":236852,"tz":"Europe/Podgorica"},{"id":9478811,"name":"Pakdasht","local":"Pākdasht","country":"IR","lat":35.479,"lon":51.683,"pop":236319,"tz":"Asia/Tehran"},{"id":1214369,"name":"Padangsidempuan","local":"Padangsidempuan","country":"ID","lat":1.38,"lon":99.271,"pop":236217,"tz":"Asia/Jakarta"},{"id":1260692,"name":"Pallavaram","local":"Pallāvaram","country":"IN","lat":12.968,"lon":80.15,"pop":233984,"tz":"Asia/Kolkata"},{"id":1028918,"name":"Pemba","local":"Пемба","country":"MZ","lat":-12.974,"lon":40.518,"pop":232932,"tz":"Africa/Maputo"},{"id":13589354,"name":"Pho Yen","local":"Phổ Yên","country":"VN","lat":21.42,"lon":105.89,"pop":231363,"tz":"Asia/Bangkok"},{"id":1736372,"name":"Pasir Mas","local":"Pasir Mas","country":"MY","lat":6.049,"lon":102.14,"pop":230424,"tz":"Asia/Kuala_Lumpur"},{"id":1630328,"name":"Purwokerto","local":"Purwokerto","country":"ID","lat":-7.421,"lon":109.234,"pop":230235,"tz":"Asia/Jakarta"},{"id":1260716,"name":"Pali","local":"Пали","country":"IN","lat":25.773,"lon":73.323,"pop":230075,"tz":"Asia/Kolkata"},{"id":1571058,"name":"Phan Thiet","local":"Фантьет","country":"VN","lat":10.929,"lon":108.102,"pop":228536,"tz":"Asia/Ho_Chi_Minh"},{"id":13100478,"name":"Paya Terubong","local":"Paya Terubong","country":"MY","lat":5.373,"lon":100.28,"pop":226712,"tz":"Asia/Kuala_Lumpur"},{"id":3452324,"name":"Presidente Prudente","local":"Президенти-Пруденти","country":"BR","lat":-22.126,"lon":-51.389,"pop":225668,"tz":"America/Sao_Paulo"},{"id":3991328,"name":"Puerto Vallarta","local":"Пуэрто-Вальярта","country":"MX","lat":20.617,"lon":-105.23,"pop":224166,"tz":"America/Mexico_City"},{"id":3383330,"name":"Paramaribo","local":"Парамарибо","country":"SR","lat":5.866,"lon":-55.167,"pop":223757,"tz":"America/Paramaribo"},{"id":5509952,"name":"Paradise","local":"Парадайз","country":"US","lat":36.097,"lon":-115.147,"pop":223167,"tz":"America/Los_Angeles"},{"id":1692685,"name":"Puerto Princesa","local":"Пуэрто-Принсеса","country":"PH","lat":9.739,"lon":118.735,"pop":222673,"tz":"Asia/Manila"},{"id":1494114,"name":"Prokop'yevsk","local":"Прокопьевск","country":"RU","lat":53.915,"lon":86.719,"pop":219000,"tz":"Asia/Novokuznetsk"},{"id":1632654,"name":"Pangkalpinang","local":"Pangkalpinang","country":"ID","lat":-2.129,"lon":106.114,"pop":216893,"tz":"Asia/Jakarta"},{"id":3629965,"name":"Porlamar","local":"Порламар","country":"VE","lat":10.958,"lon":-63.87,"pop":216234,"tz":"America/Caracas"},{"id":1632033,"name":"Pasuruan","local":"Pasuruan","country":"ID","lat":-7.645,"lon":112.907,"pop":212466,"tz":"Asia/Jakarta"},{"id":6690108,"name":"Panchkula","local":"Панчкула","country":"IN","lat":30.695,"lon":76.85,"pop":211355,"tz":"Asia/Kolkata"},{"id":1695804,"name":"Panabo","local":"Панабо","country":"PH","lat":7.308,"lon":125.684,"pop":211242,"tz":"Asia/Manila"},{"id":504341,"name":"Pskov","local":"Псков","country":"RU","lat":57.819,"lon":28.332,"pop":210501,"tz":"Europe/Moscow"},{"id":3114472,"name":"Pamplona","local":"Памплона","country":"ES","lat":42.817,"lon":-1.643,"pop":208243,"tz":"Europe/Madrid"},{"id":2639996,"name":"Portsmouth","local":"Портсмут","country":"GB","lat":50.799,"lon":-1.091,"pop":208100,"tz":"Europe/London"},{"id":1571067,"name":"Phan Rang-Thap Cham","local":"Фанранг-Тхаптям","country":"VN","lat":11.564,"lon":108.989,"pop":207998,"tz":"Asia/Ho_Chi_Minh"},{"id":1696710,"name":"Pagadian","local":"Pagadian","country":"PH","lat":7.826,"lon":123.437,"pop":206483,"tz":"Asia/Manila"},{"id":3171728,"name":"Padova","local":"Падуя","country":"IT","lat":45.408,"lon":11.886,"pop":203725,"tz":"Europe/Rome"},{"id":1520172,"name":"Petropavl","local":"Петропавловск","country":"KZ","lat":54.873,"lon":69.151,"pop":200920,"tz":"Asia/Almaty"},{"id":1259184,"name":"Puri","local":"Пури","country":"IN","lat":19.798,"lon":85.825,"pop":200564,"tz":"Asia/Kolkata"},{"id":1880348,"name":"Punggol","local":"Punggol","country":"SG","lat":1.414,"lon":103.907,"pop":199400,"tz":"Asia/Singapore"},{"id":13512576,"name":"Plano Piloto","local":"Plano Piloto","country":"BR","lat":-15.794,"lon":-47.883,"pop":198697,"tz":"America/Sao_Paulo"},{"id":3171457,"name":"Parma","local":"Парма","country":"IT","lat":44.799,"lon":10.326,"pop":198292,"tz":"Europe/Rome"},{"id":1607508,"name":"Phra Pradaeng","local":"Phra Pradaeng","country":"TH","lat":13.659,"lon":100.534,"pop":196129,"tz":"Asia/Bangkok"},{"id":1260434,"name":"Panvel","local":"Panvel","country":"IN","lat":18.989,"lon":73.11,"pop":195373,"tz":"Asia/Kolkata"},{"id":1798972,"name":"Peicheng","local":"Peicheng","country":"CN","lat":34.736,"lon":116.925,"pop":195363,"tz":"Asia/Shanghai"},{"id":3169921,"name":"Prato","local":"Прато","country":"IT","lat":43.88,"lon":11.097,"pop":195089,"tz":"Europe/Rome"},{"id":1192366,"name":"Par Naogaon","local":"Pār Naogaon","country":"BD","lat":24.804,"lon":88.949,"pop":192464,"tz":"Asia/Dhaka"},{"id":5308480,"name":"Peoria","local":"Пеория","country":"US","lat":33.581,"lon":-112.237,"pop":190985,"tz":"America/Phoenix"},{"id":5224151,"name":"Providence","local":"Провиденс","country":"US","lat":41.824,"lon":-71.413,"pop":190934,"tz":"America/New_York"},{"id":1633037,"name":"Palopo","local":"Palopo","country":"ID","lat":-2.993,"lon":120.197,"pop":190867,"tz":"Asia/Makassar"},{"id":1608048,"name":"Pak Kret","local":"Pak Kret","country":"TH","lat":13.913,"lon":100.499,"pop":190272,"tz":"Asia/Bangkok"},{"id":11184422,"name":"Planaltina","local":"Planaltina","country":"BR","lat":-15.618,"lon":-47.649,"pop":189412,"tz":"America/Sao_Paulo"},{"id":1695743,"name":"Panalanoy","local":"Panalanoy","country":"PH","lat":11.251,"lon":125.006,"pop":189090,"tz":"Asia/Manila"},{"id":3544091,"name":"Pinar del Rio","local":"Пинар-дель-Рио","country":"CU","lat":22.416,"lon":-83.697,"pop":186990,"tz":"America/Havana"},{"id":1336143,"name":"Pabna","local":"Пабне","country":"BD","lat":24.006,"lon":89.237,"pop":186781,"tz":"Asia/Dhaka"},{"id":11127930,"name":"Phusro","local":"Phusro","country":"IN","lat":23.756,"lon":86.005,"pop":185555,"tz":"Asia/Kolkata"},{"id":3521168,"name":"Poza Rica de Hidalgo","local":"Поса-Рика-де-Идальго","country":"MX","lat":20.533,"lon":-97.459,"pop":185242,"tz":"America/Mexico_City"},{"id":9827976,"name":"Paltan","local":"Paltan","country":"BD","lat":23.736,"lon":90.414,"pop":184492,"tz":"Asia/Dhaka"},{"id":1963770,"name":"Padalarang","local":"Padalarang","country":"ID","lat":-6.838,"lon":107.473,"pop":184182,"tz":"Asia/Jakarta"},{"id":1631648,"name":"Pemalang","local":"Pemalang","country":"ID","lat":-6.892,"lon":109.383,"pop":184149,"tz":"Asia/Jakarta"},{"id":2852458,"name":"Potsdam","local":"Потсдам","country":"DE","lat":52.399,"lon":13.066,"pop":182112,"tz":"Europe/Berlin"},{"id":2122104,"name":"Petropavlovsk-Kamchatsky","local":"Петропавловск-Камчатский","country":"RU","lat":53.064,"lon":158.628,"pop":181216,"tz":"Asia/Kamchatka"},{"id":670474,"name":"Ploiesti","local":"Плоещ","country":"RO","lat":44.95,"lon":26.017,"pop":180540,"tz":"Europe/Bucharest"},{"id":12492669,"name":"Pingwu County","local":"Pingwu County","country":"CN","lat":32.407,"lon":104.527,"pop":180000,"tz":"Asia/Shanghai"},{"id":1570656,"name":"Phuc Yen","local":"Phúc Yên","country":"VN","lat":21.237,"lon":105.705,"pop":180000,"tz":"Asia/Bangkok"},{"id":6545348,"name":"Praga Poludnie","local":"Praga Południe","country":"PL","lat":52.244,"lon":21.085,"pop":179836,"tz":"Europe/Warsaw"},{"id":7614932,"name":"Pirituba","local":"Pirituba","country":"BR","lat":-23.49,"lon":-46.732,"pop":179724,"tz":"America/Sao_Paulo"},{"id":3454857,"name":"Passo Fundo","local":"Пасу-Фунду","country":"BR","lat":-28.263,"lon":-52.407,"pop":179529,"tz":"America/Sao_Paulo"},{"id":12253704,"name":"Phu Quoc","local":"Phú Quốc","country":"VN","lat":10.287,"lon":104.01,"pop":179480,"tz":"Asia/Ho_Chi_Minh"},{"id":508101,"name":"Podolsk","local":"Подольск","country":"RU","lat":55.424,"lon":37.555,"pop":179400,"tz":"Europe/Moscow"},{"id":1630341,"name":"Purwakarta","local":"Purwakarta","country":"ID","lat":-6.557,"lon":107.443,"pop":179233,"tz":"Asia/Jakarta"},{"id":964349,"name":"Potchefstroom","local":"Почефструм","country":"ZA","lat":-26.717,"lon":27.1,"pop":178285,"tz":"Africa/Johannesburg"},{"id":12808673,"name":"Paris 13e Arrondissement","local":"Paris 13e Arrondissement","country":"FR","lat":48.826,"lon":2.36,"pop":177833,"tz":"Europe/Paris"},{"id":1259312,"name":"Proddatur","local":"Proddatūr","country":"IN","lat":14.75,"lon":78.548,"pop":177797,"tz":"Asia/Kolkata"},{"id":3455478,"name":"Palhoca","local":"Пальоса","country":"BR","lat":-27.645,"lon":-48.668,"pop":175272,"tz":"America/Sao_Paulo"},{"id":1632937,"name":"Pamulang","local":"Pamulang","country":"ID","lat":-6.343,"lon":106.738,"pop":174557,"tz":"Asia/Jakarta"},{"id":1260137,"name":"Pathankot","local":"Патханкот","country":"IN","lat":32.275,"lon":75.653,"pop":174306,"tz":"Asia/Kolkata"},{"id":3629706,"name":"Puerto Cabello","local":"Пуерто Кабелло","country":"VE","lat":10.473,"lon":-68.013,"pop":174000,"tz":"America/Caracas"},{"id":786712,"name":"Prizren","local":"Призрен","country":"XK","lat":42.214,"lon":20.74,"pop":171464,"tz":"Europe/Belgrade"},{"id":3068160,"name":"Pilsen","local":"Пльзень","country":"CZ","lat":49.747,"lon":13.378,"pop":168733,"tz":"Europe/Prague"},{"id":3453303,"name":"Pocos de Caldas","local":"Посус-ди-Калдас","country":"BR","lat":-21.788,"lon":-46.561,"pop":168641,"tz":"America/Sao_Paulo"},{"id":3452640,"name":"Porto Seguro","local":"Порту-Сегуру","country":"BR","lat":-16.45,"lon":-39.065,"pop":168326,"tz":"America/Bahia"},{"id":255683,"name":"Patra","local":"Патра","country":"GR","lat":38.246,"lon":21.735,"pop":168034,"tz":"Europe/Athens"},{"id":1630997,"name":"Plumbon","local":"Plumbon","country":"ID","lat":-6.705,"lon":108.473,"pop":167105,"tz":"Asia/Jakarta"},{"id":4168139,"name":"Pembroke Pines","local":"Пемброк-Пайнс","country":"US","lat":26.003,"lon":-80.224,"pop":166611,"tz":"America/New_York"},{"id":3453837,"name":"Pindamonhangaba","local":"Пиндамоньянгаба","country":"BR","lat":-22.924,"lon":-45.462,"pop":165428,"tz":"America/Sao_Paulo"},{"id":13535745,"name":"Pechersk","local":"Печерськ","country":"UA","lat":50.444,"lon":30.523,"pop":165360,"tz":"Europe/Kyiv"},{"id":4169171,"name":"Port Saint Lucie","local":"Port Saint Lucie","country":"US","lat":27.294,"lon":-80.35,"pop":164603,"tz":"America/New_York"},{"id":2396518,"name":"Port-Gentil","local":"Порт-Жантиль","country":"GA","lat":-0.719,"lon":8.782,"pop":164018,"tz":"Africa/Libreville"},{"id":255274,"name":"Piraeus","local":"Пирей","country":"GR","lat":37.942,"lon":23.646,"pop":163688,"tz":"Europe/Athens"},{"id":11962405,"name":"Pedreira","local":"Pedreira","country":"BR","lat":-23.707,"lon":-46.65,"pop":163586,"tz":"America/Sao_Paulo"},{"id":2640354,"name":"Peterborough","local":"Питерборо","country":"GB","lat":52.574,"lon":-0.248,"pop":163379,"tz":"Europe/London"},{"id":3672328,"name":"Piedecuesta","local":"Piedecuesta","country":"CO","lat":6.988,"lon":-73.05,"pop":163362,"tz":"America/Bogota"},{"id":1695462,"name":"Pandi","local":"Панда","country":"PH","lat":14.865,"lon":120.957,"pop":162725,"tz":"Asia/Manila"},{"id":1632353,"name":"Parepare","local":"Parepare","country":"ID","lat":-4.013,"lon":119.626,"pop":160309,"tz":"Asia/Makassar"},{"id":1873014,"name":"Paech'on-up","local":"Paech’ŏn-ŭp","country":"KP","lat":37.993,"lon":126.301,"pop":159825,"tz":"Asia/Pyongyang"},{"id":7483743,"name":"Puthia","local":"Путхия","country":"BD","lat":24.365,"lon":88.834,"pop":159406,"tz":"Asia/Dhaka"},{"id":3454783,"name":"Patos de Minas","local":"Патус-ди-Минас","country":"BR","lat":-18.579,"lon":-46.518,"pop":159235,"tz":"America/Sao_Paulo"},{"id":5380698,"name":"Palmdale","local":"Палмдейл","country":"US","lat":34.579,"lon":-118.116,"pop":158351,"tz":"America/Los_Angeles"},{"id":1214191,"name":"Perbaungan","local":"Perbaungan","country":"ID","lat":3.568,"lon":98.956,"pop":157174,"tz":"Asia/Jakarta"},{"id":934154,"name":"Port Louis","local":"Порт-Луи","country":"MU","lat":-20.162,"lon":57.499,"pop":155226,"tz":"Indian/Mauritius"},{"id":4717782,"name":"Pasadena","local":"Пасадена","country":"US","lat":29.691,"lon":-95.209,"pop":153784,"tz":"America/Chicago"},{"id":3454982,"name":"Parelheiros","local":"Parelheiros","country":"BR","lat":-23.828,"lon":-46.727,"pop":153695,"tz":"America/Sao_Paulo"},{"id":5384170,"name":"Pomona","local":"Помона","country":"US","lat":34.055,"lon":-117.752,"pop":153266,"tz":"America/Los_Angeles"},{"id":1259395,"name":"Porbandar","local":"Порбандаром","country":"IN","lat":21.642,"lon":69.609,"pop":152760,"tz":"Asia/Kolkata"},{"id":1798919,"name":"Pengpu","local":"Pengpu","country":"CN","lat":31.285,"lon":121.437,"pop":152725,"tz":"Asia/Shanghai"},{"id":3452525,"name":"Pouso Alegre","local":"Позу-Алегри","country":"BR","lat":-22.23,"lon":-45.936,"pop":152217,"tz":"America/Sao_Paulo"},{"id":3992619,"name":"Piedras Negras","local":"Пједрас Неграс","country":"MX","lat":28.7,"lon":-100.524,"pop":150178,"tz":"America/Matamoros"},{"id":2640101,"name":"Poole","local":"Пул","country":"GB","lat":50.714,"lon":-1.985,"pop":150092,"tz":"Europe/London"},{"id":3521342,"name":"Playa del Carmen","local":"Плая-дель-Кармен","country":"MX","lat":20.627,"lon":-87.08,"pop":149923,"tz":"America/Cancun"},{"id":2852217,"name":"Prenzlauer Berg Bezirk","local":"Пренцлауэр-Берг","country":"DE","lat":52.539,"lon":13.424,"pop":148878,"tz":"Europe/Berlin"},{"id":5102466,"name":"Paterson","local":"Патерсон","country":"US","lat":40.917,"lon":-74.172,"pop":147754,"tz":"America/New_York"},{"id":3493175,"name":"Puerto Plata","local":"Сан-Фелипе-де-Пуэрто-Плата","country":"DO","lat":19.793,"lon":-70.688,"pop":146000,"tz":"America/Santo_Domingo"},{"id":6317837,"name":"Paco do Lumiar","local":"Paço do Lumiar","country":"BR","lat":-2.532,"lon":-44.108,"pop":145643,"tz":"America/Fortaleza"},{"id":3046526,"name":"Pecs","local":"Печ","country":"HU","lat":46.076,"lon":18.228,"pop":145347,"tz":"Europe/Budapest"},{"id":12808658,"name":"Paris 11e Arrondissement","local":"Paris 11e Arrondissement","country":"FR","lat":48.858,"lon":2.38,"pop":144292,"tz":"Europe/Paris"},{"id":965154,"name":"Pinetown","local":"Pinetown","country":"ZA","lat":-29.821,"lon":30.887,"pop":144026,"tz":"Africa/Johannesburg"},{"id":503550,"name":"Pyatigorsk","local":"Пятигорск","country":"RU","lat":44.05,"lon":43.05,"pop":142865,"tz":"Europe/Moscow"},{"id":5381396,"name":"Pasadena","local":"Пасадина","country":"US","lat":34.148,"lon":-118.145,"pop":142250,"tz":"America/Los_Angeles"},{"id":2855745,"name":"Paderborn","local":"Падерборн","country":"DE","lat":51.719,"lon":8.754,"pop":142161,"tz":"Europe/Berlin"},{"id":3629576,"name":"Punto Fijo","local":"Punto Fijo","country":"VE","lat":11.692,"lon":-70.199,"pop":141729,"tz":"America/Caracas"},{"id":1260777,"name":"Palanpur","local":"Pālanpur","country":"IN","lat":24.171,"lon":72.438,"pop":141592,"tz":"Asia/Kolkata"},{"id":670609,"name":"Pitesti","local":"Питешты","country":"RO","lat":44.85,"lon":24.867,"pop":141275,"tz":"Europe/Bucharest"},{"id":3907584,"name":"Potosi","local":"Потоси","country":"BO","lat":-19.584,"lon":-65.753,"pop":141251,"tz":"America/La_Paz"},{"id":3455070,"name":"Paranagua","local":"Паранагуа","country":"BR","lat":-25.516,"lon":-48.525,"pop":141013,"tz":"America/Sao_Paulo"},{"id":12808663,"name":"Paris 12e Arrondissement","local":"Paris 12e Arrondissement","country":"FR","lat":48.835,"lon":2.435,"pop":140311,"tz":"Europe/Paris"},{"id":255524,"name":"Peristeri","local":"Перистерион","country":"GR","lat":38.015,"lon":23.692,"pop":139981,"tz":"Europe/Athens"},{"id":1631905,"name":"Payakumbuh","local":"Payakumbuh","country":"ID","lat":-0.216,"lon":100.633,"pop":139576,"tz":"Asia/Jakarta"},{"id":1630333,"name":"Purwodadi","local":"Purwodadi","country":"ID","lat":-7.087,"lon":110.916,"pop":139387,"tz":"Asia/Jakarta"},{"id":8393989,"name":"Plaza de la Revolucion","local":"Plaza de la Revolución","country":"CU","lat":23.119,"lon":-82.392,"pop":139135,"tz":"America/Havana"},{"id":3393001,"name":"Parnaiba","local":"Парнаиба","country":"BR","lat":-2.905,"lon":-41.777,"pop":138008,"tz":"America/Fortaleza"},{"id":3374333,"name":"Praia","local":"Прая","country":"CV","lat":14.932,"lon":-23.513,"pop":137868,"tz":"Atlantic/Cape_Verde"},{"id":4566880,"name":"Ponce","local":"Понсе","country":"PR","lat":18.01,"lon":-66.624,"pop":137491,"tz":"America/Puerto_Rico"},{"id":1735545,"name":"Pasir Puteh","local":"Pasir Puteh","country":"MY","lat":5.833,"lon":102.4,"pop":137400,"tz":"Asia/Kuala_Lumpur"},{"id":1570449,"name":"Phu Ly","local":"Phủ Lý","country":"VN","lat":20.545,"lon":105.912,"pop":136654,"tz":"Asia/Bangkok"},{"id":3672110,"name":"Pitalito","local":"Питалито","country":"CO","lat":1.854,"lon":-76.051,"pop":135711,"tz":"America/Bogota"},{"id":3591415,"name":"Petapa","local":"Petapa","country":"GT","lat":14.502,"lon":-90.562,"pop":135447,"tz":"America/Guatemala"},{"id":1299154,"name":"Pyay","local":"Проме","country":"MM","lat":18.82,"lon":95.216,"pop":135308,"tz":"Asia/Yangon"},{"id":1260173,"name":"Patan","local":"Патан","country":"IN","lat":23.851,"lon":72.13,"pop":133737,"tz":"Asia/Kolkata"},{"id":510808,"name":"Pervouralsk","local":"Первоуральск","country":"RU","lat":56.905,"lon":59.944,"pop":133600,"tz":"Asia/Yekaterinburg"},{"id":1798473,"name":"Puqi","local":"Puqi","country":"CN","lat":29.717,"lon":113.883,"pop":132891,"tz":"Asia/Shanghai"},{"id":1260728,"name":"Palakkad","local":"Палаккад","country":"IN","lat":10.773,"lon":76.654,"pop":132728,"tz":"Asia/Kolkata"},{"id":1260637,"name":"Palwal","local":"Палвал","country":"IN","lat":28.145,"lon":77.325,"pop":131926,"tz":"Asia/Kolkata"},{"id":1259686,"name":"Pilibhit","local":"Пилибхит","country":"IN","lat":28.631,"lon":79.804,"pop":131008,"tz":"Asia/Kolkata"},{"id":8504948,"name":"Petrogradka","local":"Петроградка","country":"RU","lat":59.966,"lon":30.312,"pop":130455,"tz":"Europe/Moscow"},{"id":1798655,"name":"Pingxiang","local":"Pingxiang","country":"CN","lat":22.097,"lon":106.757,"pop":129843,"tz":"Asia/Shanghai"},{"id":3630932,"name":"Palo Negro","local":"Palo Negro","country":"VE","lat":10.174,"lon":-67.542,"pop":128875,"tz":"America/Caracas"},{"id":3931276,"name":"Puno","local":"Пуно","country":"PE","lat":-15.84,"lon":-70.022,"pop":128637,"tz":"America/Lima"},{"id":3088825,"name":"Plock","local":"Плоцк","country":"PL","lat":52.547,"lon":19.706,"pop":127474,"tz":"Europe/Warsaw"},{"id":1302439,"name":"Pakokku","local":"Пакокку","country":"MM","lat":21.335,"lon":95.084,"pop":126938,"tz":"Asia/Yangon"},{"id":1692520,"name":"Pulong Santa Cruz","local":"Pulong Santa Cruz","country":"PH","lat":14.273,"lon":121.076,"pop":126844,"tz":"Asia/Manila"},{"id":1168555,"name":"Pakpattan","local":"Pakpattan","country":"PK","lat":30.343,"lon":73.389,"pop":126706,"tz":"Asia/Karachi"},{"id":7279595,"name":"Pithampur","local":"Pithampur","country":"IN","lat":22.602,"lon":75.696,"pop":126200,"tz":"Asia/Kolkata"},{"id":1632197,"name":"Paseh","local":"Paseh","country":"ID","lat":-7.068,"lon":107.794,"pop":126181,"tz":"Asia/Jakarta"},{"id":1950953,"name":"Paek'ak","local":"Paek'ak","country":"KP","lat":39.463,"lon":125.606,"pop":125924,"tz":"Asia/Pyongyang"},{"id":3629710,"name":"Puerto Ayacucho","local":"Пуэрто-Аякучо","country":"VE","lat":5.66,"lon":-67.583,"pop":125840,"tz":"America/Caracas"},{"id":623549,"name":"Pinsk","local":"Пинск","country":"BY","lat":52.122,"lon":26.067,"pop":124295,"tz":"Europe/Minsk"},{"id":1632276,"name":"Parung","local":"Parung","country":"ID","lat":-6.421,"lon":106.733,"pop":123078,"tz":"Asia/Jakarta"},{"id":1259163,"name":"Puruliya","local":"Puruliya","country":"IN","lat":23.331,"lon":86.363,"pop":122533,"tz":"Asia/Kolkata"},{"id":1607782,"name":"Phasi Charoen","local":"Phasi Charoen","country":"TH","lat":13.715,"lon":100.437,"pop":122070,"tz":"Asia/Bangkok"},{"id":542634,"name":"Presnenskiy","local":"Красная Пресня","country":"RU","lat":55.75,"lon":37.55,"pop":122000,"tz":"Europe/Moscow"},{"id":1693239,"name":"Plaridel","local":"Plaridel","country":"PH","lat":14.887,"lon":120.857,"pop":120939,"tz":"Asia/Manila"},{"id":3171180,"name":"Perugia","local":"Перуджа","country":"IT","lat":43.112,"lon":12.389,"pop":120137,"tz":"Europe/Rome"},{"id":4167499,"name":"Palm Bay","local":"Палм-Бей","country":"US","lat":28.034,"lon":-80.589,"pop":119760,"tz":"America/New_York"},{"id":3171168,"name":"Pescara","local":"Пескара","country":"IT","lat":42.458,"lon":14.203,"pop":119554,"tz":"Europe/Rome"},{"id":2853969,"name":"Pforzheim","local":"Пфорцхайм","country":"DE","lat":48.884,"lon":8.699,"pop":119313,"tz":"Europe/Berlin"},{"id":1734815,"name":"Port Dickson","local":"Port Dickson","country":"MY","lat":2.525,"lon":101.797,"pop":119300,"tz":"Asia/Kuala_Lumpur"},{"id":3453535,"name":"Piraquara","local":"Piraquara","country":"BR","lat":-25.442,"lon":-49.068,"pop":118730,"tz":"America/Sao_Paulo"},{"id":1230089,"name":"Pita Kotte","local":"Pita Kotte","country":"LK","lat":6.891,"lon":79.901,"pop":118179,"tz":"Asia/Colombo"},{"id":1259297,"name":"Pudukkottai","local":"Пудуккоттай","country":"IN","lat":10.381,"lon":78.821,"pop":117630,"tz":"Asia/Kolkata"},{"id":3874787,"name":"Punta Arenas","local":"Пунта Аренас","country":"CL","lat":-53.163,"lon":-70.909,"pop":117430,"tz":"America/Punta_Arenas"},{"id":1309937,"name":"Pyin Oo Lwin","local":"Pyin Oo Lwin","country":"MM","lat":22.035,"lon":96.457,"pop":117303,"tz":"Asia/Yangon"},{"id":6317953,"name":"Pinhais","local":"Pinhais","country":"BR","lat":-25.445,"lon":-49.193,"pop":117000,"tz":"America/Sao_Paulo"},{"id":1614295,"name":"Pattaya","local":"Паттайя","country":"TH","lat":12.933,"lon":100.883,"pop":116417,"tz":"Asia/Bangkok"},{"id":3114256,"name":"Parla","local":"Парла","country":"ES","lat":40.236,"lon":-3.768,"pop":115611,"tz":"Europe/Madrid"},{"id":5780026,"name":"Provo","local":"Прово","country":"US","lat":40.234,"lon":-111.659,"pop":115162,"tz":"America/Denver"},{"id":4905687,"name":"Peoria","local":"Пеория","country":"US","lat":40.694,"lon":-89.589,"pop":115070,"tz":"America/Chicago"},{"id":1570863,"name":"Phong GJien","local":"Phong Điền","country":"VN","lat":16.583,"lon":107.364,"pop":114820,"tz":"Asia/Bangkok"},{"id":1182829,"name":"Phool Nagar","local":"Phool Nagar","country":"PK","lat":31.202,"lon":73.949,"pop":114530,"tz":"Asia/Karachi"},{"id":1632998,"name":"Pamanukan","local":"Pamanukan","country":"ID","lat":-6.284,"lon":107.811,"pop":114290,"tz":"Asia/Jakarta"},{"id":1569684,"name":"Pleiku","local":"Плейку","country":"VN","lat":13.983,"lon":108.0,"pop":114225,"tz":"Asia/Ho_Chi_Minh"},{"id":3629614,"name":"Punta Cardon","local":"Пунта-Кардон","country":"VE","lat":11.658,"lon":-70.215,"pop":113999,"tz":"America/Caracas"},{"id":1798713,"name":"Pingshan","local":"Pingshan","country":"CN","lat":22.994,"lon":114.713,"pop":113631,"tz":"Asia/Shanghai"},{"id":2852566,"name":"Porz am Rhein","local":"Porz am Rhein","country":"DE","lat":50.886,"lon":7.058,"pop":113415,"tz":"Europe/Berlin"},{"id":3392734,"name":"Paulo Afonso","local":"Паулу-Афонсу","country":"BR","lat":-9.406,"lon":-38.215,"pop":112870,"tz":"America/Bahia"},{"id":3058213,"name":"Petrzalka","local":"Петржалка","country":"SK","lat":48.123,"lon":17.129,"pop":112380,"tz":"Europe/Bratislava"},{"id":1259385,"name":"Port Blair","local":"Порт-Блэр","country":"IN","lat":11.666,"lon":92.746,"pop":112050,"tz":"Asia/Kolkata"},{"id":3454690,"name":"Paulinia","local":"Паулиния","country":"BR","lat":-22.761,"lon":-47.154,"pop":112003,"tz":"America/Sao_Paulo"},{"id":3454847,"name":"Passos","local":"Пассос","country":"BR","lat":-20.719,"lon":-46.61,"pop":111939,"tz":"America/Sao_Paulo"},{"id":1692565,"name":"Pulilan","local":"Pulilan","country":"PH","lat":14.902,"lon":120.849,"pop":111384,"tz":"Asia/Manila"},{"id":2987914,"name":"Perpignan","local":"Перпиньян","country":"FR","lat":42.698,"lon":2.895,"pop":110706,"tz":"Europe/Paris"},{"id":3170647,"name":"Pisa","local":"Пиза","country":"IT","lat":43.709,"lon":10.404,"pop":109960,"tz":"Europe/Rome"},{"id":1631733,"name":"Pelabuhanratu","local":"Pelabuhanratu","country":"ID","lat":-6.987,"lon":106.551,"pop":109523,"tz":"Asia/Jakarta"},{"id":965528,"name":"Phalaborwa","local":"Палаборва","country":"ZA","lat":-23.943,"lon":31.141,"pop":109468,"tz":"Africa/Johannesburg"},{"id":5435464,"name":"Pueblo","local":"Пуэбло","country":"US","lat":38.254,"lon":-104.609,"pop":109412,"tz":"America/Denver"},{"id":4718097,"name":"Pearland","local":"Пэрленд","country":"US","lat":29.564,"lon":-95.286,"pop":108821,"tz":"America/Chicago"},{"id":4169014,"name":"Pompano Beach","local":"Помпано-Бич","country":"US","lat":26.238,"lon":-80.125,"pop":107762,"tz":"America/New_York"},{"id":1631992,"name":"Pati","local":"Пати","country":"ID","lat":-6.756,"lon":111.038,"pop":107028,"tz":"Asia/Jakarta"},{"id":2324857,"name":"Pindiga","local":"Pindiga","country":"NG","lat":9.984,"lon":10.952,"pop":106322,"tz":"Africa/Lagos"},{"id":1695097,"name":"Paniqui","local":"Паники","country":"PH","lat":15.669,"lon":120.581,"pop":106190,"tz":"Asia/Manila"},{"id":3393106,"name":"Paragominas","local":"Paragominas","country":"BR","lat":-2.996,"lon":-47.355,"pop":105550,"tz":"America/Belem"},{"id":1259411,"name":"Ponnani","local":"Ponnāni","country":"IN","lat":10.767,"lon":75.925,"pop":105512,"tz":"Asia/Kolkata"},{"id":3453420,"name":"Planaltina","local":"Planaltina","country":"BR","lat":-15.453,"lon":-47.614,"pop":105031,"tz":"America/Sao_Paulo"},{"id":1798422,"name":"Puyang Chengguanzhen","local":"Puyang Chengguanzhen","country":"CN","lat":35.706,"lon":115.028,"pop":104994,"tz":"Asia/Shanghai"},{"id":4004867,"name":"Parral","local":"Парраль","country":"MX","lat":26.93,"lon":-105.666,"pop":104836,"tz":"America/Chihuahua"},{"id":13580094,"name":"Pozniaky","local":"Позняки","country":"UA","lat":50.403,"lon":30.624,"pop":104400,"tz":"Europe/Kyiv"},{"id":8403616,"name":"Pailou","local":"Pailou","country":"CN","lat":30.796,"lon":108.386,"pop":104351,"tz":"Asia/Shanghai"},{"id":1798490,"name":"Pulandian","local":"Pulandian","country":"CN","lat":39.395,"lon":121.967,"pop":104277,"tz":"Asia/Shanghai"},{"id":3453406,"name":"Poa","local":"Poá","country":"BR","lat":-23.528,"lon":-46.345,"pop":103765,"tz":"America/Sao_Paulo"},{"id":3171058,"name":"Piacenza","local":"Пьяченца","country":"IT","lat":45.052,"lon":9.693,"pop":103607,"tz":"Europe/Rome"},{"id":1631393,"name":"Prabumulih","local":"Prabumulih","country":"ID","lat":-3.434,"lon":104.231,"pop":103470,"tz":"Asia/Jakarta"},{"id":13561150,"name":"Proletarskyi","local":"Пролетарський","country":"UA","lat":47.957,"lon":37.942,"pop":103005,"tz":"Europe/Kyiv"},{"id":3488981,"name":"Portmore","local":"Portmore","country":"JM","lat":17.971,"lon":-76.887,"pop":102861,"tz":"America/Jamaica"},{"id":3545064,"name":"Palma Soriano","local":"Palma Soriano","country":"CU","lat":20.211,"lon":-75.994,"pop":102826,"tz":"America/Havana"},{"id":503977,"name":"Pushkino","local":"Пушкино","country":"RU","lat":55.995,"lon":37.829,"pop":102816,"tz":"Europe/Moscow"},{"id":670889,"name":"Piatra Neamt","local":"Пятра-Нямц","country":"RO","lat":46.917,"lon":26.333,"pop":102688,"tz":"Europe/Bucharest"},{"id":11962417,"name":"Perdizes","local":"Perdizes","country":"BR","lat":-23.539,"lon":-46.681,"pop":102391,"tz":"America/Sao_Paulo"},{"id":3393008,"name":"Parintins","local":"Паринтинса","country":"BR","lat":-2.628,"lon":-56.736,"pop":101956,"tz":"America/Manaus"},{"id":8603563,"name":"Por do Sol","local":"Pôr do Sol","country":"BR","lat":-15.855,"lon":-48.124,"pop":101866,"tz":"America/Sao_Paulo"},{"id":121380,"name":"Parsabad","local":"Парсабад","country":"IR","lat":39.648,"lon":47.917,"pop":101661,"tz":"Asia/Tehran"},{"id":697889,"name":"Pavlohrad","local":"Павлоград","country":"UA","lat":48.532,"lon":35.869,"pop":101430,"tz":"Europe/Kyiv"},{"id":12750652,"name":"Perling","local":"Perling","country":"MY","lat":1.481,"lon":103.684,"pop":101263,"tz":"Asia/Kuala_Lumpur"},{"id":3591062,"name":"Puerto Barrios","local":"Пуэрто-Барриос","country":"GT","lat":15.727,"lon":-88.598,"pop":100593,"tz":"America/Guatemala"},{"id":1259827,"name":"Phagwara","local":"Phagwāra","country":"IN","lat":31.225,"lon":75.774,"pop":100146,"tz":"Asia/Kolkata"},{"id":3494242,"name":"Punta Cana","local":"Пунта Кана","country":"DO","lat":18.582,"lon":-68.404,"pop":100023,"tz":"America/Santo_Domingo"},{"id":1871871,"name":"P'yongsong","local":"P’yŏngsŏng","country":"KP","lat":39.246,"lon":125.872,"pop":100000,"tz":"Asia/Pyongyang"},{"id":4780011,"name":"Portsmouth Heights","local":"Portsmouth Heights","country":"US","lat":36.821,"lon":-76.369,"pop":99049,"tz":"America/New_York"},{"id":1830194,"name":"Paoy Paet","local":"Пойпет","country":"KH","lat":13.658,"lon":102.564,"pop":98934,"tz":"Asia/Phnom_Penh"},{"id":1260546,"name":"Pandharpur","local":"Пандхарпур","country":"IN","lat":17.679,"lon":75.331,"pop":98923,"tz":"Asia/Kolkata"},{"id":1570864,"name":"Phong GJien","local":"Phong Điền","country":"VN","lat":9.998,"lon":105.667,"pop":98424,"tz":"Asia/Ho_Chi_Minh"},{"id":2775371,"name":"Penzing","local":"Penzing","country":"AT","lat":48.2,"lon":16.267,"pop":98176,"tz":"Europe/Vienna"},{"id":6659672,"name":"Parand","local":"Parand","country":"IR","lat":35.472,"lon":50.975,"pop":97464,"tz":"Asia/Tehran"},{"id":1298987,"name":"Pyinmana","local":"Пьинмана","country":"MM","lat":19.738,"lon":96.207,"pop":97409,"tz":"Asia/Yangon"},{"id":3455161,"name":"Para de Minas","local":"Пара-ди-Минас","country":"BR","lat":-19.86,"lon":-44.608,"pop":97139,"tz":"America/Sao_Paulo"},{"id":2356300,"name":"Pouytenga","local":"Pouytenga","country":"BF","lat":12.252,"lon":-0.426,"pop":96469,"tz":"Africa/Ouagadougou"},{"id":4779999,"name":"Portsmouth","local":"Портсмут","country":"US","lat":36.835,"lon":-76.298,"pop":96201,"tz":"America/New_York"},{"id":10263050,"name":"Puth Kalan","local":"Pūth Kalān","country":"IN","lat":28.712,"lon":77.079,"pop":96002,"tz":"Asia/Kolkata"},{"id":13562335,"name":"Psie Pole","local":"Psie Pole","country":"PL","lat":51.146,"lon":17.035,"pop":95615,"tz":"Europe/Warsaw"},{"id":1260387,"name":"Paramagudi","local":"Paramagudi","country":"IN","lat":9.546,"lon":78.591,"pop":95579,"tz":"Asia/Kolkata"},{"id":1732859,"name":"Pagoh","local":"Pagoh","country":"MY","lat":2.15,"lon":102.77,"pop":95202,"tz":"Asia/Kuala_Lumpur"},{"id":1260290,"name":"Parli Vaijnath","local":"Parli Vaijnāth","country":"IN","lat":18.851,"lon":76.532,"pop":94863,"tz":"Asia/Kolkata"},{"id":1765769,"name":"Pendang","local":"Pendang","country":"MY","lat":5.995,"lon":100.479,"pop":94033,"tz":"Asia/Kuala_Lumpur"},{"id":3455168,"name":"Paracatu","local":"Паракату","country":"BR","lat":-17.222,"lon":-46.875,"pop":94023,"tz":"America/Sao_Paulo"},{"id":302525,"name":"Polatli","local":"Полатли","country":"TR","lat":39.577,"lon":32.141,"pop":93262,"tz":"Europe/Istanbul"},{"id":6545347,"name":"Praga Polnoc","local":"Praga Północ","country":"PL","lat":52.254,"lon":21.035,"pop":93192,"tz":"Europe/Warsaw"},{"id":504003,"name":"Pushkin","local":"Пушкин","country":"RU","lat":59.714,"lon":30.396,"pop":92889,"tz":"Europe/Moscow"},{"id":1633056,"name":"Palimanan","local":"Palimanan","country":"ID","lat":-6.707,"lon":108.424,"pop":92600,"tz":"Asia/Jakarta"},{"id":3392887,"name":"Patos","local":"Патус","country":"BR","lat":-7.024,"lon":-37.28,"pop":92575,"tz":"America/Fortaleza"},{"id":4168782,"name":"Plantation","local":"Плантация","country":"US","lat":26.134,"lon":-80.232,"pop":92560,"tz":"America/New_York"},{"id":1632978,"name":"Pamekasan","local":"Pamekasan","country":"ID","lat":-7.157,"lon":113.475,"pop":92447,"tz":"Asia/Jakarta"},{"id":1632823,"name":"Pandeglang","local":"Pandeglang","country":"ID","lat":-6.308,"lon":106.107,"pop":92316,"tz":"Asia/Jakarta"},{"id":1632334,"name":"Pariaman","local":"Pariaman","country":"ID","lat":-0.619,"lon":100.12,"pop":92183,"tz":"Asia/Jakarta"},{"id":3453150,"name":"Ponta Pora","local":"Понта-Поран","country":"BR","lat":-22.536,"lon":-55.726,"pop":92017,"tz":"America/Campo_Grande"},{"id":3455051,"name":"Paranavai","local":"Paranavaí","country":"BR","lat":-23.073,"lon":-52.465,"pop":92001,"tz":"America/Sao_Paulo"},{"id":3454818,"name":"Pato Branco","local":"Пату-Бранку","country":"BR","lat":-26.229,"lon":-52.671,"pop":91836,"tz":"America/Sao_Paulo"},{"id":6104111,"name":"Pickering","local":"Пикеринг","country":"CA","lat":43.9,"lon":-79.133,"pop":91771,"tz":"America/Toronto"},{"id":1569901,"name":"Phu Tho","local":"Phú Thọ","country":"VN","lat":21.4,"lon":105.222,"pop":91650,"tz":"Asia/Bangkok"},{"id":3346661,"name":"Porto Amboim","local":"Порту Амбоим","country":"AO","lat":-10.733,"lon":13.768,"pop":91605,"tz":"Africa/Luanda"},{"id":3841490,"name":"Pergamino","local":"Пергамино","country":"AR","lat":-33.891,"lon":-60.575,"pop":91399,"tz":"America/Argentina/Buenos_Aires"},{"id":2185018,"name":"Palmerston North","local":"Палмерстон-Норт","country":"NZ","lat":-40.356,"lon":175.611,"pop":91300,"tz":"Pacific/Auckland"},{"id":1607542,"name":"Phra Khanong","local":"Phra Khanong","country":"TH","lat":13.702,"lon":100.602,"pop":90354,"tz":"Asia/Bangkok"},{"id":728203,"name":"Pleven","local":"Плевен","country":"BG","lat":43.418,"lon":24.617,"pop":90209,"tz":"Europe/Sofia"},{"id":1259440,"name":"Pollachi","local":"Pollachi","country":"IN","lat":10.658,"lon":77.008,"pop":90180,"tz":"Asia/Kolkata"},{"id":1692747,"name":"Prosperidad","local":"Prosperidad","country":"PH","lat":8.58,"lon":125.896,"pop":90162,"tz":"Asia/Manila"},{"id":11962418,"name":"Ponte Rasa","local":"Ponte Rasa","country":"BR","lat":-23.516,"lon":-46.494,"pop":89881,"tz":"America/Sao_Paulo"},{"id":3454763,"name":"Patrocinio","local":"Патросиниу","country":"BR","lat":-18.944,"lon":-46.992,"pop":89826,"tz":"America/Sao_Paulo"},{"id":1229989,"name":"Point Pedro","local":"Пойнт-Педро","country":"LK","lat":9.817,"lon":80.233,"pop":89810,"tz":"Asia/Colombo"},{"id":1693136,"name":"Polangui","local":"Polangui","country":"PH","lat":13.292,"lon":123.486,"pop":89176,"tz":"Asia/Manila"},{"id":3068582,"name":"Pardubice","local":"Пардубице","country":"CZ","lat":50.041,"lon":15.777,"pop":88520,"tz":"Europe/Prague"},{"id":1654379,"name":"Pakse","local":"Паксе","country":"LA","lat":15.12,"lon":105.799,"pop":88332,"tz":"Asia/Vientiane"},{"id":3454054,"name":"Perus","local":"Perus","country":"BR","lat":-23.405,"lon":-46.755,"pop":87823,"tz":"America/Sao_Paulo"},{"id":302819,"name":"Patnos","local":"Патнос","country":"TR","lat":39.225,"lon":42.857,"pop":87451,"tz":"Europe/Istanbul"},{"id":1260390,"name":"Paralakhemundi","local":"Paralakhemundi","country":"IN","lat":18.776,"lon":84.095,"pop":87152,"tz":"Asia/Kolkata"},{"id":13546532,"name":"Podilsk","local":"Подільськ","country":"UA","lat":48.504,"lon":32.28,"pop":86652,"tz":"Europe/Kyiv"},{"id":3521912,"name":"Paraiso","local":"Paraiso","country":"MX","lat":18.401,"lon":-93.214,"pop":86632,"tz":"America/Mexico_City"},{"id":1670310,"name":"Puli","local":"Пули","country":"TW","lat":23.966,"lon":120.97,"pop":86406,"tz":"Asia/Taipei"},{"id":2324767,"name":"Potiskum","local":"Potiskum","country":"NG","lat":11.714,"lon":11.081,"pop":86002,"tz":"Africa/Lagos"},{"id":2986495,"name":"Poitiers","local":"Пуатье","country":"FR","lat":46.583,"lon":0.343,"pop":85960,"tz":"Europe/Paris"},{"id":596128,"name":"Panevezys","local":"Паневежис","country":"LT","lat":55.732,"lon":24.36,"pop":85885,"tz":"Europe/Vilnius"},{"id":1260393,"name":"Paradip Garh","local":"Parādīp Garh","country":"IN","lat":20.316,"lon":86.609,"pop":85868,"tz":"Asia/Kolkata"},{"id":6101645,"name":"Peterborough","local":"Питерборо","country":"CA","lat":44.3,"lon":-78.316,"pop":85807,"tz":"America/Toronto"},{"id":697302,"name":"Petrovskyi","local":"Петровський","country":"UA","lat":47.932,"lon":37.63,"pop":85399,"tz":"Europe/Kyiv"},{"id":3931470,"name":"Puerto Maldonado","local":"Пуэрто-Мальдонадо","country":"PE","lat":-12.589,"lon":-69.199,"pop":85024,"tz":"America/Lima"},{"id":3392054,"name":"Pinheiro","local":"Пиньейру","country":"BR","lat":-2.521,"lon":-45.083,"pop":84621,"tz":"America/Fortaleza"},{"id":965241,"name":"Piet Retief","local":"Piet Retief","country":"ZA","lat":-27.007,"lon":30.813,"pop":84349,"tz":"Africa/Johannesburg"},{"id":965401,"name":"Phuthaditjhaba","local":"Phuthaditjhaba","country":"ZA","lat":-28.524,"lon":28.816,"pop":84258,"tz":"Africa/Johannesburg"},{"id":12808653,"name":"Paris 10e Arrondissement","local":"Paris 10e Arrondissement","country":"FR","lat":48.877,"lon":2.359,"pop":83459,"tz":"Europe/Paris"},{"id":640999,"name":"Pori","local":"Пори","country":"FI","lat":61.481,"lon":21.785,"pop":83157,"tz":"Europe/Helsinki"},{"id":3392167,"name":"Picos","local":"Пикус","country":"BR","lat":-7.077,"lon":-41.467,"pop":83090,"tz":"America/Fortaleza"},{"id":723819,"name":"Presov","local":"Прешов","country":"SK","lat":48.999,"lon":21.235,"pop":82927,"tz":"Europe/Bratislava"},{"id":4167538,"name":"Palm Coast","local":"Палм Коуст","country":"US","lat":29.585,"lon":-81.208,"pop":82893,"tz":"America/New_York"},{"id":3113209,"name":"Pontevedra","local":"Понтеведра","country":"ES","lat":42.431,"lon":-8.644,"pop":82802,"tz":"Europe/Madrid"},{"id":2988358,"name":"Pau","local":"Пау","country":"FR","lat":43.311,"lon":-0.356,"pop":82697,"tz":"Europe/Paris"},{"id":728330,"name":"Pernik","local":"Перник","country":"BG","lat":42.597,"lon":23.033,"pop":82467,"tz":"Europe/Sofia"},{"id":3112989,"name":"Pozuelo de Alarcon","local":"Посуэло-де-Аларкон","country":"ES","lat":40.433,"lon":-3.813,"pop":82428,"tz":"Europe/Madrid"},{"id":1732680,"name":"Parit Sulung","local":"Parit Sulung","country":"MY","lat":1.976,"lon":102.883,"pop":82399,"tz":"Asia/Kuala_Lumpur"},{"id":1696614,"name":"Pagbilao","local":"Pagbilao","country":"PH","lat":13.967,"lon":121.698,"pop":82132,"tz":"Asia/Manila"},{"id":3840300,"name":"Presidencia Roque Saenz Pena","local":"Presidencia Roque Sáenz Peña","country":"AR","lat":-26.791,"lon":-60.441,"pop":81879,"tz":"America/Argentina/Cordoba"},{"id":13156931,"name":"Phulwari Sharif","local":"Phulwari Sharif","country":"IN","lat":25.578,"lon":85.072,"pop":81740,"tz":"Asia/Kolkata"},{"id":3393400,"name":"Pacatuba","local":"Pacatuba","country":"BR","lat":-3.984,"lon":-38.62,"pop":81524,"tz":"America/Fortaleza"},{"id":3169984,"name":"Pozzuoli","local":"Поцуоли","country":"IT","lat":40.844,"lon":14.095,"pop":81231,"tz":"Europe/Rome"},{"id":1260792,"name":"Palakollu","local":"Palakollu","country":"IN","lat":16.517,"lon":81.73,"pop":81199,"tz":"Asia/Kolkata"},{"id":3429980,"name":"Pilar","local":"Pilar","country":"AR","lat":-34.459,"lon":-58.914,"pop":81120,"tz":"America/Argentina/Buenos_Aires"},{"id":2035511,"name":"Panshi","local":"Паньши","country":"CN","lat":42.937,"lon":126.057,"pop":80200,"tz":"Asia/Shanghai"},{"id":7302847,"name":"Palwancha","local":"Palwancha","country":"IN","lat":17.582,"lon":80.677,"pop":80199,"tz":"Asia/Kolkata"},{"id":3088972,"name":"Piotrkow Trybunalski","local":"Пётркув-Трыбунальский","country":"PL","lat":51.405,"lon":19.703,"pop":80128,"tz":"Europe/Warsaw"},{"id":2748413,"name":"Purmerend","local":"Пюрмеренд","country":"NL","lat":52.505,"lon":4.96,"pop":80117,"tz":"Europe/Amsterdam"},{"id":5166177,"name":"Parma","local":"Парма","country":"US","lat":41.405,"lon":-81.723,"pop":79937,"tz":"America/New_York"},{"id":1696817,"name":"Paco","local":"Paco","country":"PH","lat":14.588,"lon":120.993,"pop":79839,"tz":"Asia/Manila"},{"id":1871932,"name":"Pongch'on-up","local":"Pongch’ŏn-ŭp","country":"KP","lat":38.124,"lon":126.205,"pop":79740,"tz":"Asia/Pyongyang"},{"id":623317,"name":"Polotsk","local":"Полоцк","country":"BY","lat":55.488,"lon":28.786,"pop":79579,"tz":"Europe/Minsk"},{"id":5383777,"name":"Pleasanton","local":"Плезантон","country":"US","lat":37.662,"lon":-121.875,"pop":79510,"tz":"America/Los_Angeles"},{"id":1151254,"name":"Phuket","local":"Пхукет","country":"TH","lat":7.891,"lon":98.398,"pop":79308,"tz":"Asia/Bangkok"},{"id":1630798,"name":"Ponorogo","local":"Ponorogo","country":"ID","lat":-7.869,"lon":111.462,"pop":79026,"tz":"Asia/Jakarta"},{"id":6113365,"name":"Prince George","local":"Принс-Джордж","country":"CA","lat":53.917,"lon":-122.753,"pop":78943,"tz":"America/Vancouver"},{"id":3114531,"name":"Palencia","local":"Паленсия","country":"ES","lat":42.01,"lon":-4.524,"pop":78629,"tz":"Europe/Madrid"},{"id":1733440,"name":"Putatan","local":"Putatan","country":"MY","lat":5.926,"lon":116.061,"pop":78340,"tz":"Asia/Kuching"},{"id":1798634,"name":"Pingyi","local":"Pingyi","country":"CN","lat":35.501,"lon":117.631,"pop":78254,"tz":"Asia/Shanghai"},{"id":2640677,"name":"Paisley","local":"Пейсли","country":"GB","lat":55.832,"lon":-4.433,"pop":77270,"tz":"Europe/London"},{"id":3171173,"name":"Pesaro","local":"Пезаро","country":"IT","lat":43.909,"lon":12.916,"pop":77241,"tz":"Europe/Rome"},{"id":2639835,"name":"Putney","local":"Патни","country":"GB","lat":51.461,"lon":-0.218,"pop":77140,"tz":"Europe/London"},{"id":1819091,"name":"Pok Fu Lam","local":"Pok Fu Lam","country":"HK","lat":22.269,"lon":114.129,"pop":77100,"tz":"Asia/Hong_Kong"},{"id":3543299,"name":"Puerto Padre","local":"Пуэрто-Падре","country":"CU","lat":21.195,"lon":-76.604,"pop":76838,"tz":"America/Havana"},{"id":787237,"name":"Pancevo","local":"Панчево","country":"RS","lat":44.872,"lon":20.642,"pop":76654,"tz":"Europe/Belgrade"},{"id":4718721,"name":"Pharr","local":"Фарра","country":"US","lat":26.195,"lon":-98.184,"pop":76538,"tz":"America/Chicago"},{"id":5041926,"name":"Plymouth","local":"Плимут","country":"US","lat":45.011,"lon":-93.456,"pop":75907,"tz":"America/Chicago"},{"id":9972720,"name":"Pammal","local":"Pammal","country":"IN","lat":12.975,"lon":80.135,"pop":75870,"tz":"Asia/Kolkata"},{"id":3089033,"name":"Pila","local":"Пилы","country":"PL","lat":53.151,"lon":16.738,"pop":75532,"tz":"Europe/Warsaw"},{"id":1260667,"name":"Paloncha","local":"Pāloncha","country":"IN","lat":17.602,"lon":80.705,"pop":75224,"tz":"Asia/Kolkata"},{"id":3437547,"name":"Pedro Juan Caballero","local":"Педро-Хуан-Кабальеро","country":"PY","lat":-22.549,"lon":-55.739,"pop":75109,"tz":"America/Asuncion"},{"id":5382146,"name":"Perris","local":"Перрис","country":"US","lat":33.783,"lon":-117.229,"pop":74971,"tz":"America/Los_Angeles"},{"id":11962416,"name":"Parque Do Carmo","local":"Parque Do Carmo","country":"BR","lat":-23.576,"lon":-46.463,"pop":74677,"tz":"America/Sao_Paulo"},{"id":1259680,"name":"Pilkhua","local":"Pilkhua","country":"IN","lat":28.713,"lon":77.656,"pop":74212,"tz":"Asia/Kolkata"},{"id":3170621,"name":"Pistoia","local":"Пистойя","country":"IT","lat":43.931,"lon":10.924,"pop":73832,"tz":"Europe/Rome"},{"id":786735,"name":"Prilep","local":"Прилеп","country":"MK","lat":41.346,"lon":21.554,"pop":73814,"tz":"Europe/Skopje"},{"id":3453639,"name":"Pirassununga","local":"Пирасунунга","country":"BR","lat":-21.996,"lon":-47.426,"pop":73545,"tz":"America/Sao_Paulo"},{"id":6681051,"name":"Pardis","local":"Pardīs","country":"IR","lat":35.747,"lon":51.812,"pop":73363,"tz":"Asia/Tehran"},{"id":3441243,"name":"Paysandu","local":"Пайсанду","country":"UY","lat":-32.317,"lon":-58.081,"pop":73249,"tz":"America/Montevideo"},{"id":510291,"name":"Peterhof","local":"Петергоф","country":"RU","lat":59.883,"lon":29.9,"pop":73199,"tz":"Europe/Moscow"},{"id":13546321,"name":"Pierrefonds-Roxboro","local":"Pierrefonds-Roxboro","country":"CA","lat":45.502,"lon":-73.842,"pop":73194,"tz":"America/Toronto"},{"id":1260040,"name":"Pattukkottai","local":"Паттукоттаи","country":"IN","lat":10.424,"lon":79.319,"pop":73135,"tz":"Asia/Kolkata"},{"id":1259154,"name":"Pusad","local":"Pusad","country":"IN","lat":19.913,"lon":77.578,"pop":73046,"tz":"Asia/Kolkata"},{"id":3877793,"name":"Padre Las Casas","local":"Padre Las Casas","country":"CL","lat":-38.761,"lon":-72.598,"pop":72892,"tz":"America/Santiago"},{"id":1168412,"name":"Pano Aqil","local":"Pano Aqil","country":"PK","lat":27.856,"lon":69.111,"pop":72881,"tz":"Asia/Karachi"},{"id":3877739,"name":"Paine","local":"Пейн","country":"CL","lat":-33.808,"lon":-70.741,"pop":72759,"tz":"America/Santiago"},{"id":1692872,"name":"Port Area","local":"Port Area","country":"PH","lat":14.589,"lon":120.967,"pop":72605,"tz":"Asia/Manila"},{"id":1260730,"name":"Palghar","local":"Pālghar","country":"IN","lat":19.697,"lon":72.765,"pop":72335,"tz":"Asia/Kolkata"},{"id":1259994,"name":"Payyanur","local":"Payyanur","country":"IN","lat":12.094,"lon":75.202,"pop":72111,"tz":"Asia/Kolkata"},{"id":2639842,"name":"Purley","local":"Purley","country":"GB","lat":51.337,"lon":-0.112,"pop":72000,"tz":"Europe/London"},{"id":3591676,"name":"Panzos","local":"Panzos","country":"GT","lat":15.399,"lon":-89.641,"pop":71846,"tz":"America/Guatemala"},{"id":5223869,"name":"Pawtucket","local":"Потакет","country":"US","lat":41.879,"lon":-71.383,"pop":71591,"tz":"America/New_York"},{"id":8224580,"name":"Peckham","local":"Пекам","country":"GB","lat":51.474,"lon":-0.07,"pop":71552,"tz":"Europe/London"},{"id":966166,"name":"Parys","local":"Парис","country":"ZA","lat":-26.903,"lon":27.457,"pop":71319,"tz":"Africa/Johannesburg"},{"id":5102443,"name":"Passaic","local":"Пасејик Сити","country":"US","lat":40.857,"lon":-74.128,"pop":71085,"tz":"America/New_York"},{"id":1260607,"name":"Panjim","local":"Панаджи","country":"IN","lat":15.496,"lon":73.826,"pop":70991,"tz":"Asia/Kolkata"},{"id":3393409,"name":"Pacajus","local":"Pacajus","country":"BR","lat":-4.173,"lon":-38.461,"pop":70983,"tz":"America/Fortaleza"},{"id":1798548,"name":"Poyang","local":"Поянху","country":"CN","lat":28.992,"lon":116.668,"pop":70787,"tz":"Asia/Shanghai"},{"id":2426240,"name":"Pala","local":"Пала","country":"TD","lat":9.365,"lon":14.907,"pop":70677,"tz":"Africa/Ndjamena"},{"id":3089578,"name":"Pabianice","local":"Пабьянице","country":"PL","lat":51.664,"lon":19.355,"pop":70542,"tz":"Europe/Warsaw"},{"id":1260671,"name":"Palani","local":"Палани","country":"IN","lat":10.45,"lon":77.521,"pop":70467,"tz":"Asia/Kolkata"},{"id":1168226,"name":"Pattoki","local":"Паттоки","country":"PK","lat":31.02,"lon":73.853,"pop":70436,"tz":"Asia/Karachi"},{"id":1633308,"name":"Pagar Alam","local":"Pagar Alam","country":"ID","lat":-4.025,"lon":103.247,"pop":70386,"tz":"Asia/Jakarta"},{"id":7026870,"name":"Phaya Thai","local":"Phaya Thai","country":"TH","lat":13.78,"lon":100.543,"pop":70238,"tz":"Asia/Bangkok"},{"id":1799100,"name":"Pan'an","local":"Pan’an","country":"CN","lat":34.755,"lon":105.112,"pop":70072,"tz":"Asia/Shanghai"},{"id":3672068,"name":"Planeta Rica","local":"Планета-Рики","country":"CO","lat":8.412,"lon":-75.585,"pop":69708,"tz":"America/Bogota"},{"id":13157011,"name":"Pul Pehlad","local":"Pul Pehlad","country":"IN","lat":28.499,"lon":77.291,"pop":69657,"tz":"Asia/Kolkata"},{"id":5806298,"name":"Pasco","local":"Паско","country":"US","lat":46.24,"lon":-119.101,"pop":69451,"tz":"America/Los_Angeles"},{"id":5383465,"name":"Pittsburg","local":"Питтсбург","country":"US","lat":38.028,"lon":-121.885,"pop":69424,"tz":"America/Los_Angeles"},{"id":4905211,"name":"Palatine","local":"Палатин","country":"US","lat":42.11,"lon":-88.034,"pop":69308,"tz":"America/Chicago"},{"id":3113236,"name":"Ponferrada","local":"Понферрада","country":"ES","lat":42.547,"lon":-6.596,"pop":68736,"tz":"Europe/Madrid"},{"id":3452711,"name":"Porto Nacional","local":"Porto Nacional","country":"BR","lat":-10.708,"lon":-48.417,"pop":68555,"tz":"America/Araguaina"},{"id":1798946,"name":"Pengcheng","local":"Pengcheng","country":"CN","lat":36.431,"lon":114.17,"pop":68442,"tz":"Asia/Shanghai"},{"id":3454061,"name":"Peruibe","local":"Перуиби","country":"BR","lat":-24.32,"lon":-46.998,"pop":68352,"tz":"America/Sao_Paulo"},{"id":13157159,"name":"Panipat Taraf Makhdum Zadgan","local":"Panipat Taraf Makhdum Zadgan","country":"IN","lat":29.416,"lon":76.988,"pop":67998,"tz":"Asia/Kolkata"},{"id":1191368,"name":"Palang","local":"Pālang","country":"BD","lat":23.218,"lon":90.351,"pop":67652,"tz":"Asia/Dhaka"},{"id":2035453,"name":"Pingzhuang","local":"Pingzhuang","country":"CN","lat":42.037,"lon":119.289,"pop":67273,"tz":"Asia/Shanghai"},{"id":761168,"name":"Przemysl","local":"Перемышль","country":"PL","lat":49.785,"lon":22.767,"pop":67013,"tz":"Europe/Warsaw"},{"id":4975802,"name":"Portland","local":"Портленд","country":"US","lat":43.657,"lon":-70.259,"pop":66881,"tz":"America/New_York"},{"id":5380748,"name":"Palo Alto","local":"Пало Альто","country":"US","lat":37.442,"lon":-122.143,"pop":66853,"tz":"America/Los_Angeles"},{"id":2152819,"name":"Point Cook","local":"Point Cook","country":"AU","lat":-37.915,"lon":144.751,"pop":66781,"tz":"Australia/Melbourne"},{"id":8504950,"name":"Parnas","local":"Парнас","country":"RU","lat":60.07,"lon":30.349,"pop":66693,"tz":"Europe/Moscow"},{"id":2853292,"name":"Plauen","local":"Плауэн","country":"DE","lat":50.497,"lon":12.138,"pop":66412,"tz":"Europe/Berlin"},{"id":1259263,"name":"Puliyankudi","local":"Puliyankudi","country":"IN","lat":9.175,"lon":77.398,"pop":66034,"tz":"Asia/Kolkata"},{"id":5130572,"name":"Parkchester","local":"Parkchester","country":"US","lat":40.839,"lon":-73.86,"pop":65876,"tz":"America/New_York"},{"id":3591833,"name":"Palin","local":"Palín","country":"GT","lat":14.404,"lon":-90.697,"pop":65873,"tz":"America/Guatemala"},{"id":1260771,"name":"Palasa","local":"Palāsa","country":"IN","lat":18.773,"lon":84.41,"pop":65833,"tz":"Asia/Kolkata"},{"id":1630935,"name":"Polewali","local":"Polewali","country":"ID","lat":-3.432,"lon":119.344,"pop":65800,"tz":"Asia/Makassar"},{"id":1494573,"name":"Polevskoy","local":"Полевской","country":"RU","lat":56.442,"lon":60.188,"pop":65770,"tz":"Asia/Yekaterinburg"},{"id":3171366,"name":"Pavia","local":"Павия","country":"IT","lat":45.192,"lon":9.159,"pop":65734,"tz":"Europe/Rome"},{"id":1259264,"name":"Pulivendla","local":"Pulivendla","country":"IN","lat":14.421,"lon":78.225,"pop":65706,"tz":"Asia/Kolkata"},{"id":3391908,"name":"Piripiri","local":"Piripiri","country":"BR","lat":-4.273,"lon":-41.777,"pop":65538,"tz":"America/Fortaleza"},{"id":3876685,"name":"Penaflor","local":"Пеньяфлор","country":"CL","lat":-33.606,"lon":-70.876,"pop":65495,"tz":"America/Santiago"},{"id":2855598,"name":"Pankow","local":"Панков","country":"DE","lat":52.569,"lon":13.402,"pop":65375,"tz":"Europe/Berlin"},{"id":1735077,"name":"Perai","local":"Perai","country":"MY","lat":5.383,"lon":100.383,"pop":65301,"tz":"Asia/Kuala_Lumpur"},{"id":3453732,"name":"Pinheiros","local":"Pinheiros","country":"BR","lat":-23.567,"lon":-46.692,"pop":65145,"tz":"America/Sao_Paulo"},{"id":5130561,"name":"Park Slope","local":"Park Slope","country":"US","lat":40.67,"lon":-73.986,"pop":65047,"tz":"America/New_York"},{"id":7646711,"name":"Patuakhali","local":"Patuakhali","country":"BD","lat":22.368,"lon":90.346,"pop":65000,"tz":"Asia/Dhaka"},{"id":3630893,"name":"Pampatar","local":"Pampatar","country":"VE","lat":11.001,"lon":-63.793,"pop":64983,"tz":"America/Caracas"},{"id":4906500,"name":"Portage Park","local":"Portage Park","country":"US","lat":41.958,"lon":-87.765,"pop":64841,"tz":"America/Chicago"},{"id":1798973,"name":"Picheng","local":"Picheng","country":"CN","lat":34.467,"lon":117.967,"pop":64585,"tz":"Asia/Shanghai"},{"id":3840092,"name":"Puerto Madryn","local":"Пуэрто-Мадрин","country":"AR","lat":-42.768,"lon":-65.038,"pop":64555,"tz":"America/Argentina/Catamarca"},{"id":1260707,"name":"Palitana","local":"Палитана","country":"IN","lat":21.525,"lon":71.823,"pop":64497,"tz":"Asia/Kolkata"},{"id":1825978,"name":"Preaek Prasab","local":"Preaek Prasab","country":"KH","lat":12.354,"lon":106.036,"pop":64466,"tz":"Asia/Phnom_Penh"},{"id":5382496,"name":"Pico Rivera","local":"Пико-Ривера","country":"US","lat":33.983,"lon":-118.097,"pop":64218,"tz":"America/Los_Angeles"},{"id":2512862,"name":"Paterna","local":"Патерна","country":"ES","lat":39.503,"lon":-0.441,"pop":64023,"tz":"Europe/Madrid"},{"id":256075,"name":"Palaio Faliro","local":"Palaió Fáliro","country":"GR","lat":37.928,"lon":23.701,"pop":64021,"tz":"Europe/Athens"},{"id":1693077,"name":"Polomolok","local":"Polomolok","country":"PH","lat":6.222,"lon":125.064,"pop":63987,"tz":"Asia/Manila"},{"id":3455047,"name":"Paranoa","local":"Paranoá","country":"BR","lat":-15.776,"lon":-47.781,"pop":63923,"tz":"America/Sao_Paulo"},{"id":1694403,"name":"Pateros","local":"Pateros","country":"PH","lat":14.539,"lon":121.073,"pop":63840,"tz":"Asia/Manila"},{"id":827329,"name":"Pavlovo","local":"Павлово","country":"RU","lat":55.969,"lon":43.091,"pop":63338,"tz":"Europe/Moscow"},{"id":3877794,"name":"Padre Hurtado","local":"Padre Hurtado","country":"CL","lat":-33.568,"lon":-70.806,"pop":63250,"tz":"America/Santiago"},{"id":1259704,"name":"Piduguralla","local":"Pidugurālla","country":"IN","lat":16.479,"lon":79.886,"pop":63103,"tz":"Asia/Kolkata"},{"id":1896953,"name":"Pubal","local":"Pubal","country":"KR","lat":37.292,"lon":127.508,"pop":63026,"tz":"Asia/Seoul"},{"id":11549981,"name":"Pueblo Nuevo","local":"Pueblo Nuevo","country":"ES","lat":40.426,"lon":-3.635,"pop":62840,"tz":"Europe/Madrid"},{"id":3392251,"name":"Pesqueira","local":"Pesqueira","country":"BR","lat":-8.358,"lon":-36.696,"pop":62722,"tz":"America/Recife"},{"id":3991347,"name":"Puerto Penasco","local":"Пуэрто-Пеньяско","country":"MX","lat":31.317,"lon":-113.538,"pop":62689,"tz":"America/Hermosillo"},{"id":1607708,"name":"Phitsanulok","local":"Пхитсанулок","country":"TH","lat":16.825,"lon":100.259,"pop":62584,"tz":"Asia/Bangkok"},{"id":3454358,"name":"Pedro Leopoldo","local":"Pedro Leopoldo","country":"BR","lat":-19.618,"lon":-44.043,"pop":62580,"tz":"America/Sao_Paulo"},{"id":3391412,"name":"Portel","local":"Portel","country":"BR","lat":-1.936,"lon":-50.821,"pop":62503,"tz":"America/Belem"},{"id":1798733,"name":"Pingnan","local":"Pingnan","country":"CN","lat":23.542,"lon":110.389,"pop":62483,"tz":"Asia/Shanghai"},{"id":697593,"name":"Pervomaysk","local":"Первомайск","country":"UA","lat":48.045,"lon":30.848,"pop":62426,"tz":"Europe/Kyiv"},{"id":1798632,"name":"Pingyin","local":"Pingyin","country":"CN","lat":36.283,"lon":116.445,"pop":62050,"tz":"Asia/Shanghai"},{"id":121110,"name":"Piranshahr","local":"Пираншехр","country":"IR","lat":36.701,"lon":45.141,"pop":61973,"tz":"Asia/Tehran"},{"id":510225,"name":"Petrodvorets","local":"Петродворец","country":"RU","lat":59.896,"lon":29.801,"pop":61973,"tz":"Europe/Moscow"},{"id":12547038,"name":"Picpus","local":"Picpus","country":"FR","lat":48.843,"lon":2.4,"pop":61920,"tz":"Europe/Paris"},{"id":3932145,"name":"Pisco","local":"Писко","country":"PE","lat":-13.71,"lon":-76.205,"pop":61869,"tz":"America/Lima"},{"id":2184397,"name":"Porirua","local":"Порируа","country":"NZ","lat":-41.133,"lon":174.85,"pop":61800,"tz":"Pacific/Auckland"},{"id":3454235,"name":"Penapolis","local":"Пенаполис","country":"BR","lat":-21.42,"lon":-50.078,"pop":61679,"tz":"America/Sao_Paulo"},{"id":3629606,"name":"Punta de Mata","local":"Punta de Mata","country":"VE","lat":9.691,"lon":-63.609,"pop":61080,"tz":"America/Caracas"},{"id":1631851,"name":"Pecangaan","local":"Pecangaan","country":"ID","lat":-6.698,"lon":110.711,"pop":61046,"tz":"Asia/Jakarta"},{"id":1735433,"name":"Parit","local":"Parit","country":"MY","lat":4.483,"lon":100.917,"pop":60988,"tz":"Asia/Kuala_Lumpur"},{"id":504935,"name":"Prokhladnyy","local":"Прохладный","country":"RU","lat":43.757,"lon":44.03,"pop":60800,"tz":"Europe/Moscow"},{"id":1259400,"name":"Poonamalle","local":"Poonamalle","country":"IN","lat":13.049,"lon":80.115,"pop":60607,"tz":"Asia/Kolkata"},{"id":5382232,"name":"Petaluma","local":"Петалума","country":"US","lat":38.232,"lon":-122.637,"pop":60438,"tz":"America/Los_Angeles"},{"id":1260448,"name":"Panruti","local":"Panruti","country":"IN","lat":11.777,"lon":79.553,"pop":60323,"tz":"Asia/Kolkata"},{"id":1513017,"name":"Parkent","local":"Паркент","country":"UZ","lat":41.294,"lon":69.676,"pop":60200,"tz":"Asia/Tashkent"},{"id":3454231,"name":"Penedo","local":"Penedo","country":"BR","lat":-10.29,"lon":-36.586,"pop":60189,"tz":"America/Maceio"},{"id":704422,"name":"Pokrovsk","local":"Покровск","country":"UA","lat":48.282,"lon":37.178,"pop":60127,"tz":"Europe/Kyiv"},{"id":4168459,"name":"Pine Hills","local":"Pine Hills","country":"US","lat":28.558,"lon":-81.453,"pop":60076,"tz":"America/New_York"},{"id":512023,"name":"Pavlovskiy Posad","local":"Павловский Посад","country":"RU","lat":55.782,"lon":38.65,"pop":60051,"tz":"Europe/Moscow"},{"id":10792382,"name":"Putra Heights","local":"Putra Heights","country":"MY","lat":2.994,"lon":101.573,"pop":60000,"tz":"Asia/Kuala_Lumpur"},{"id":5006166,"name":"Pontiac","local":"Понтиак","country":"US","lat":42.639,"lon":-83.291,"pop":59917,"tz":"America/Detroit"},{"id":7302844,"name":"Ponnur","local":"Ponnur","country":"IN","lat":16.071,"lon":80.549,"pop":59913,"tz":"Asia/Kolkata"},{"id":4169156,"name":"Port Orange","local":"Port Orange","country":"US","lat":29.138,"lon":-80.996,"pop":59866,"tz":"America/New_York"},{"id":1799832,"name":"Pucheng","local":"Pucheng","country":"CN","lat":27.923,"lon":118.533,"pop":59832,"tz":"Asia/Shanghai"},{"id":3089125,"name":"Piekary Slaskie","local":"Пекары-Слёнске","country":"PL","lat":50.38,"lon":18.927,"pop":59757,"tz":"Europe/Warsaw"},{"id":1607284,"name":"Prachantakham","local":"Prachantakham","country":"TH","lat":14.064,"lon":101.515,"pop":59696,"tz":"Asia/Bangkok"},{"id":3630896,"name":"Pampan","local":"Pampán","country":"VE","lat":9.445,"lon":-70.476,"pop":59657,"tz":"America/Caracas"},{"id":1260959,"name":"Pachora","local":"Pāchora","country":"IN","lat":20.667,"lon":75.353,"pop":59609,"tz":"Asia/Kolkata"},{"id":6104319,"name":"Pierrefonds","local":"Pierrefonds","country":"CA","lat":45.46,"lon":-73.893,"pop":59093,"tz":"America/Toronto"},{"id":1260454,"name":"Panna","local":"Panna","country":"IN","lat":24.721,"lon":80.188,"pop":59091,"tz":"Asia/Kolkata"},{"id":255377,"name":"Petroupolis","local":"Петроуполис","country":"GR","lat":38.042,"lon":23.685,"pop":58979,"tz":"Europe/Athens"},{"id":3046433,"name":"Pestlorinc","local":"Pestlőrinc","country":"HU","lat":47.43,"lon":19.216,"pop":58722,"tz":"Europe/Budapest"},{"id":1633375,"name":"Padangpanjang","local":"Padangpanjang","country":"ID","lat":-0.456,"lon":100.405,"pop":58627,"tz":"Asia/Jakarta"},{"id":1694861,"name":"Paombong","local":"Paombong","country":"PH","lat":14.831,"lon":120.789,"pop":58453,"tz":"Asia/Manila"},{"id":3591512,"name":"Patzun","local":"Patzún","country":"GT","lat":14.682,"lon":-91.014,"pop":58240,"tz":"America/Guatemala"},{"id":899825,"name":"Petauke","local":"Петауке","country":"ZM","lat":-14.241,"lon":31.32,"pop":58156,"tz":"Africa/Lusaka"},{"id":6111706,"name":"Port Coquitlam","local":"Порт Коквитлам","country":"CA","lat":49.266,"lon":-122.769,"pop":58000,"tz":"America/Vancouver"},{"id":2987805,"name":"Pessac","local":"Пессаке","country":"FR","lat":44.806,"lon":-0.632,"pop":57944,"tz":"Europe/Paris"},{"id":3170921,"name":"Pianura","local":"Пьянура","country":"IT","lat":40.859,"lon":14.173,"pop":57821,"tz":"Europe/Rome"},{"id":3453078,"name":"Ponte Nova","local":"Ponte Nova","country":"BR","lat":-20.416,"lon":-42.909,"pop":57776,"tz":"America/Sao_Paulo"},{"id":4167545,"name":"Palm Harbor","local":"Палм-Харбор","country":"US","lat":28.078,"lon":-82.764,"pop":57439,"tz":"America/New_York"},{"id":3839982,"name":"Punta Alta","local":"Пунта-Альта","country":"AR","lat":-38.88,"lon":-62.075,"pop":57209,"tz":"America/Argentina/Buenos_Aires"},{"id":1259408,"name":"Ponnuru","local":"Ponnūru","country":"IN","lat":16.065,"lon":80.552,"pop":57170,"tz":"Asia/Kolkata"},{"id":4718711,"name":"Pflugerville","local":"Флугервилл","country":"US","lat":30.439,"lon":-97.62,"pop":57122,"tz":"America/Chicago"},{"id":1607512,"name":"Phra Phutthabat","local":"Phra Phutthabat","country":"TH","lat":14.725,"lon":100.795,"pop":57008,"tz":"Asia/Bangkok"},{"id":1630366,"name":"Purbalingga","local":"Purbalingga","country":"ID","lat":-7.388,"lon":109.364,"pop":56903,"tz":"Asia/Jakarta"},{"id":1632358,"name":"Pare","local":"Pare","country":"ID","lat":-7.768,"lon":112.198,"pop":56699,"tz":"Asia/Jakarta"},{"id":734538,"name":"Polichni","local":"Полихни","country":"GR","lat":40.667,"lon":22.949,"pop":56685,"tz":"Europe/Athens"},{"id":3392829,"name":"Paudalho","local":"Paudalho","country":"BR","lat":-7.897,"lon":-35.18,"pop":56665,"tz":"America/Recife"},{"id":3170027,"name":"Potenza","local":"Potenza","country":"IT","lat":40.642,"lon":15.808,"pop":56433,"tz":"Europe/Rome"},{"id":1130490,"name":"Pul-e Khumri","local":"Пули-Хумри","country":"AF","lat":35.945,"lon":68.715,"pop":56369,"tz":"Asia/Kabul"},{"id":3694112,"name":"Paita","local":"Паита","country":"PE","lat":-5.089,"lon":-81.114,"pop":56151,"tz":"America/Lima"},{"id":5384471,"name":"Porterville","local":"Портервил","country":"US","lat":36.065,"lon":-119.017,"pop":56058,"tz":"America/Los_Angeles"},{"id":5102713,"name":"Piscataway","local":"Piscataway","country":"US","lat":40.499,"lon":-74.399,"pop":56044,"tz":"America/New_York"},{"id":1632861,"name":"Pandak","local":"Pandak","country":"ID","lat":-7.913,"lon":110.294,"pop":56043,"tz":"Asia/Jakarta"},{"id":3453546,"name":"Pirapora","local":"Пирапора","country":"BR","lat":-17.345,"lon":-44.942,"pop":55606,"tz":"America/Sao_Paulo"},{"id":5381110,"name":"Paramount","local":"Парамаунт","country":"US","lat":33.889,"lon":-118.16,"pop":55412,"tz":"America/Los_Angeles"},{"id":3543961,"name":"Placetas","local":"Placetas","country":"CU","lat":22.312,"lon":-79.654,"pop":55408,"tz":"America/Havana"},{"id":761228,"name":"Pruszkow","local":"Прушкув","country":"PL","lat":52.171,"lon":20.812,"pop":55371,"tz":"Europe/Warsaw"},{"id":4720039,"name":"Port Arthur","local":"Порт-Артур","country":"US","lat":29.885,"lon":-93.942,"pop":55340,"tz":"America/Chicago"},{"id":1259841,"name":"Petlad","local":"Petlād","country":"IN","lat":22.477,"lon":72.8,"pop":55330,"tz":"Asia/Kolkata"},{"id":3993179,"name":"Patzcuaro","local":"Пацкуаро","country":"MX","lat":19.513,"lon":-101.61,"pop":55298,"tz":"America/Mexico_City"},{"id":11522307,"name":"Periya Semur","local":"Periya Semūr","country":"IN","lat":11.361,"lon":77.69,"pop":55282,"tz":"Asia/Kolkata"},{"id":728378,"name":"Pazardzhik","local":"Пазарджик","country":"BG","lat":42.199,"lon":24.333,"pop":55220,"tz":"Europe/Sofia"},{"id":3479329,"name":"Paraiso do Tocantins","local":"Paraíso do Tocantins","country":"BR","lat":-10.176,"lon":-48.867,"pop":55164,"tz":"America/Araguaina"},{"id":1798778,"name":"Pingjin","local":"Pingjin","country":"CN","lat":30.612,"lon":107.545,"pop":55139,"tz":"Asia/Shanghai"},{"id":507338,"name":"Pokrovskoye-Streshnevo","local":"Покровское-Стрешнёво","country":"RU","lat":55.808,"lon":37.458,"pop":55000,"tz":"Europe/Moscow"},{"id":1259508,"name":"Pithapuram","local":"Pithāpuram","country":"IN","lat":17.117,"lon":82.253,"pop":54859,"tz":"Asia/Kolkata"},{"id":3453060,"name":"Pontes e Lacerda","local":"Pontes e Lacerda","country":"BR","lat":-15.226,"lon":-59.335,"pop":54795,"tz":"America/Cuiaba"},{"id":6232008,"name":"Papatoetoe","local":"Papatoetoe","country":"NZ","lat":-36.968,"lon":174.84,"pop":54780,"tz":"Pacific/Auckland"},{"id":11288641,"name":"Pozzo Strada","local":"Pozzo Strada","country":"IT","lat":45.068,"lon":7.625,"pop":54766,"tz":"Europe/Rome"},{"id":1259228,"name":"Punganuru","local":"Punganūru","country":"IN","lat":13.367,"lon":78.572,"pop":54746,"tz":"Asia/Kolkata"},{"id":3393264,"name":"Palmares","local":"Палмарис","country":"BR","lat":-8.683,"lon":-35.592,"pop":54584,"tz":"America/Recife"},{"id":5604045,"name":"Pocatello","local":"Покателло","country":"US","lat":42.871,"lon":-112.446,"pop":54441,"tz":"America/Boise"},{"id":1884385,"name":"Pasir Ris New Town","local":"Pasir Ris New Town","country":"SG","lat":1.372,"lon":103.948,"pop":54420,"tz":"Asia/Singapore"},{"id":1185138,"name":"Pirojpur","local":"Pirojpur","country":"BD","lat":22.58,"lon":89.975,"pop":54418,"tz":"Asia/Dhaka"},{"id":4169130,"name":"Port Charlotte","local":"Порт-Шарлотт","country":"US","lat":26.976,"lon":-82.091,"pop":54392,"tz":"America/New_York"},{"id":3437444,"name":"Presidente Franco","local":"Presidente Franco","country":"PY","lat":-25.564,"lon":-54.611,"pop":54292,"tz":"America/Asuncion"},{"id":3429790,"name":"Puerto Eldorado","local":"Puerto Eldorado","country":"AR","lat":-26.408,"lon":-54.695,"pop":54189,"tz":"America/Argentina/Cordoba"},{"id":2153953,"name":"Pakenham","local":"Pakenham","country":"AU","lat":-38.07,"lon":145.474,"pop":54118,"tz":"Australia/Melbourne"},{"id":1259123,"name":"Puttur","local":"Puttūr","country":"IN","lat":13.442,"lon":79.553,"pop":54092,"tz":"Asia/Kolkata"},{"id":1260674,"name":"Palmaner","local":"Palmaner","country":"IN","lat":13.2,"lon":78.747,"pop":54035,"tz":"Asia/Kolkata"},{"id":13118146,"name":"Pandamaran","local":"Pandamaran","country":"MY","lat":3.011,"lon":101.421,"pop":53916,"tz":"Asia/Kuala_Lumpur"},{"id":1570819,"name":"Phong Thanh","local":"Phong Thạnh","country":"VN","lat":9.324,"lon":105.346,"pop":53912,"tz":"Asia/Ho_Chi_Minh"},{"id":13353583,"name":"Pallichal","local":"Pallichal","country":"IN","lat":8.45,"lon":77.026,"pop":53861,"tz":"Asia/Kolkata"},{"id":120972,"name":"Pishva","local":"Pīshvā","country":"IR","lat":35.308,"lon":51.727,"pop":53856,"tz":"Asia/Tehran"},{"id":1260222,"name":"Parvatipuram","local":"Pārvatipuram","country":"IN","lat":18.784,"lon":83.426,"pop":53844,"tz":"Asia/Kolkata"},{"id":3170116,"name":"Portici","local":"Портичи","country":"IT","lat":40.816,"lon":14.337,"pop":53801,"tz":"Europe/Rome"},{"id":2851746,"name":"Pulheim","local":"Пульхайм","country":"DE","lat":51.0,"lon":6.806,"pop":53762,"tz":"Europe/Berlin"},{"id":4168228,"name":"Pensacola","local":"Пенсакола","country":"US","lat":30.421,"lon":-87.217,"pop":53724,"tz":"America/Chicago"},{"id":3673045,"name":"Pamplona","local":"Памплона","country":"CO","lat":7.376,"lon":-72.648,"pop":53587,"tz":"America/Bogota"},{"id":3521922,"name":"Papantla de Olarte","local":"Papantla de Olarte","country":"MX","lat":20.447,"lon":-97.325,"pop":53546,"tz":"America/Mexico_City"},{"id":3452779,"name":"Porto Feliz","local":"Порту-Фелис","country":"BR","lat":-23.215,"lon":-47.524,"pop":53402,"tz":"America/Sao_Paulo"},{"id":1168307,"name":"Pasrur","local":"Pasrur","country":"PK","lat":32.263,"lon":74.663,"pop":53364,"tz":"Asia/Karachi"},{"id":1259124,"name":"Puttur","local":"Puttūr","country":"IN","lat":12.76,"lon":75.202,"pop":53331,"tz":"Asia/Kolkata"},{"id":7026842,"name":"Pathum Wan","local":"Pathum Wan","country":"TH","lat":13.736,"lon":100.524,"pop":53263,"tz":"Asia/Bangkok"},{"id":1259811,"name":"Phaltan","local":"Phaltan","country":"IN","lat":17.991,"lon":74.432,"pop":53202,"tz":"Asia/Kolkata"},{"id":4168930,"name":"Poinciana","local":"Poinciana","country":"US","lat":28.14,"lon":-81.458,"pop":53193,"tz":"America/New_York"},{"id":3453926,"name":"Piedade","local":"Piedade","country":"BR","lat":-23.712,"lon":-47.428,"pop":52970,"tz":"America/Sao_Paulo"},{"id":4167519,"name":"Palm Beach Gardens","local":"Палм-Бич-Гарденс","country":"US","lat":26.823,"lon":-80.139,"pop":52923,"tz":"America/New_York"},{"id":2988621,"name":"Pantin","local":"Пантин","country":"FR","lat":48.894,"lon":2.409,"pop":52922,"tz":"Europe/Paris"},{"id":1694290,"name":"Patuto","local":"Patuto","country":"PH","lat":14.117,"lon":120.967,"pop":52883,"tz":"Asia/Manila"},{"id":964406,"name":"Port Shepstone","local":"Порт-Шепстон","country":"ZA","lat":-30.741,"lon":30.455,"pop":52793,"tz":"Africa/Johannesburg"},{"id":1168680,"name":"Pabbi","local":"Pabbi","country":"PK","lat":34.01,"lon":71.794,"pop":52701,"tz":"Asia/Karachi"},{"id":5102578,"name":"Perth Amboy","local":"Перт Амбој","country":"US","lat":40.507,"lon":-74.265,"pop":52682,"tz":"America/New_York"},{"id":3452775,"name":"Porto Ferreira","local":"Порту-Феррейра","country":"BR","lat":-21.854,"lon":-47.479,"pop":52649,"tz":"America/Sao_Paulo"},{"id":933182,"name":"Palapye","local":"Палапье","country":"BW","lat":-22.546,"lon":27.125,"pop":52636,"tz":"Africa/Gaborone"},{"id":1798462,"name":"Puji","local":"Puji","country":"CN","lat":36.132,"lon":119.721,"pop":52563,"tz":"Asia/Shanghai"},{"id":696108,"name":"Pryluky","local":"Прилуки","country":"UA","lat":50.593,"lon":32.388,"pop":52553,"tz":"Europe/Kyiv"},{"id":4946863,"name":"Peabody","local":"Пибоди","country":"US","lat":42.528,"lon":-70.929,"pop":52504,"tz":"America/New_York"},{"id":5383527,"name":"Placentia","local":"Пласентия","country":"US","lat":33.872,"lon":-117.87,"pop":52495,"tz":"America/Los_Angeles"},{"id":1822768,"name":"Pursat","local":"Pursat","country":"KH","lat":12.539,"lon":103.919,"pop":52476,"tz":"Asia/Phnom_Penh"},{"id":3170206,"name":"Ponticelli","local":"Ponticelli","country":"IT","lat":40.854,"lon":14.33,"pop":52284,"tz":"Europe/Rome"},{"id":3192224,"name":"Pula","local":"Пула","country":"HR","lat":44.868,"lon":13.848,"pop":52220,"tz":"Europe/Zagreb"},{"id":3454954,"name":"Parobe","local":"Parobé","country":"BR","lat":-29.629,"lon":-50.835,"pop":52058,"tz":"America/Sao_Paulo"},{"id":11550020,"name":"Pinar del Rey","local":"Pinar del Rey","country":"ES","lat":40.472,"lon":-3.647,"pop":52031,"tz":"Europe/Madrid"},{"id":2152659,"name":"Port Macquarie","local":"Порт Маккуори","country":"AU","lat":-31.431,"lon":152.909,"pop":51965,"tz":"Australia/Sydney"},{"id":5380626,"name":"Palm Desert","local":"Палм-Дезерт","country":"US","lat":33.723,"lon":-116.377,"pop":51869,"tz":"America/Los_Angeles"},{"id":660561,"name":"Porvoo","local":"Порвоо","country":"FI","lat":60.392,"lon":25.665,"pop":51853,"tz":"Europe/Helsinki"},{"id":2512177,"name":"Puertollano","local":"Пуэртольяно","country":"ES","lat":38.687,"lon":-4.107,"pop":51842,"tz":"Europe/Madrid"},{"id":3703227,"name":"Pedregal","local":"Pedregal","country":"PA","lat":9.066,"lon":-79.426,"pop":51641,"tz":"America/Panama"},{"id":4168630,"name":"Pinellas Park","local":"Пинелас Парк","country":"US","lat":27.843,"lon":-82.7,"pop":51617,"tz":"America/New_York"},{"id":1185148,"name":"Patiya","local":"Patiya","country":"BD","lat":22.295,"lon":91.979,"pop":51360,"tz":"Asia/Dhaka"},{"id":1259892,"name":"Peranampattu","local":"Peranāmpattu","country":"IN","lat":12.934,"lon":78.719,"pop":51271,"tz":"Asia/Kolkata"},{"id":10128831,"name":"Phra Nakhon","local":"Phra Nakhon","country":"TH","lat":13.765,"lon":100.499,"pop":51231,"tz":"Asia/Bangkok"},{"id":5102720,"name":"Plainfield","local":"Плейнфилд","country":"US","lat":40.634,"lon":-74.407,"pop":51217,"tz":"America/New_York"},{"id":1799037,"name":"Panlong","local":"Panlong","country":"CN","lat":29.5,"lon":105.371,"pop":51177,"tz":"Asia/Shanghai"},{"id":5102427,"name":"Parsippany","local":"Парсиппани","country":"US","lat":40.858,"lon":-74.426,"pop":51144,"tz":"America/New_York"},{"id":3671540,"name":"Puerto Berrio","local":"Puerto Berrío","country":"CO","lat":6.492,"lon":-74.403,"pop":51079,"tz":"America/Bogota"},{"id":1607327,"name":"Pom Prap Sattru Phai","local":"Pom Prap Sattru Phai","country":"TH","lat":13.758,"lon":100.513,"pop":51006,"tz":"Asia/Bangkok"},{"id":1607532,"name":"Phra Nakhon Si Ayutthaya","local":"Аюттхая","country":"TH","lat":14.352,"lon":100.577,"pop":50830,"tz":"Asia/Bangkok"},{"id":1734418,"name":"Padang Serai","local":"Padang Serai","country":"MY","lat":5.513,"lon":100.554,"pop":50757,"tz":"Asia/Kuala_Lumpur"},{"id":1607737,"name":"Phetchabun","local":"Пхетчабун","country":"TH","lat":16.419,"lon":101.161,"pop":50656,"tz":"Asia/Bangkok"},{"id":2855328,"name":"Passau","local":"Пассау","country":"DE","lat":48.566,"lon":13.431,"pop":50560,"tz":"Europe/Berlin"},{"id":2457410,"name":"Pelengana","local":"Pèlèngana","country":"ML","lat":13.427,"lon":-6.222,"pop":50552,"tz":"Africa/Bamako"},{"id":5384690,"name":"Poway","local":"Поуэй","country":"US","lat":32.963,"lon":-117.036,"pop":50157,"tz":"America/Los_Angeles"},{"id":3521476,"name":"Pijijiapan","local":"Пихихьяпан","country":"MX","lat":15.686,"lon":-93.209,"pop":50079,"tz":"America/Mexico_City"},{"id":3521305,"name":"Polanco","local":"Polanco","country":"MX","lat":19.433,"lon":-99.199,"pop":50000,"tz":"America/Mexico_City"},{"id":6697380,"name":"Putrajaya","local":"Putrajaya","country":"MY","lat":2.935,"lon":101.691,"pop":50000,"tz":"Asia/Kuala_Lumpur"},{"id":2855047,"name":"Peine","local":"Пайне","country":"DE","lat":52.319,"lon":10.235,"pop":49953,"tz":"Europe/Berlin"},{"id":1259813,"name":"Phalodi","local":"Пхалоди","country":"IN","lat":27.131,"lon":72.368,"pop":49914,"tz":"Asia/Kolkata"},{"id":2640681,"name":"Paignton","local":"Пэйнтон","country":"GB","lat":50.436,"lon":-3.568,"pop":49886,"tz":"Europe/London"},{"id":3170147,"name":"Pordenone","local":"Порденоне","country":"IT","lat":45.957,"lon":12.661,"pop":49878,"tz":"Europe/Rome"},{"id":760924,"name":"Pulawy","local":"Пулавы","country":"PL","lat":51.417,"lon":21.969,"pop":49759,"tz":"Europe/Warsaw"},{"id":1259881,"name":"Perintalmanna","local":"Периталманна","country":"IN","lat":10.977,"lon":76.225,"pop":49723,"tz":"Asia/Kolkata"},{"id":1259896,"name":"Perambalur","local":"Перамбалур","country":"IN","lat":11.233,"lon":78.883,"pop":49648,"tz":"Asia/Kolkata"},{"id":5434006,"name":"Parker","local":"Паркер","country":"US","lat":39.519,"lon":-104.761,"pop":49550,"tz":"America/Denver"},{"id":1259954,"name":"Peddapuram","local":"Peddāpuram","country":"IN","lat":17.077,"lon":82.138,"pop":49477,"tz":"Asia/Kolkata"},{"id":3452216,"name":"Prudentopolis","local":"Prudentópolis","country":"BR","lat":-25.213,"lon":-50.978,"pop":49393,"tz":"America/Sao_Paulo"},{"id":2392108,"name":"Pobe","local":"Pobé","country":"BJ","lat":6.98,"lon":2.665,"pop":49232,"tz":"Africa/Porto-Novo"},{"id":1131316,"name":"Paghman","local":"Пагман","country":"AF","lat":34.588,"lon":68.951,"pop":49157,"tz":"Asia/Kabul"},{"id":723846,"name":"Poprad","local":"Попрад","country":"SK","lat":49.061,"lon":20.298,"pop":49091,"tz":"Europe/Bratislava"},{"id":3573890,"name":"Port of Spain","local":"Порт-оф-Спейн","country":"TT","lat":10.667,"lon":-61.519,"pop":49031,"tz":"America/Port_of_Spain"},{"id":375495,"name":"Pajok","local":"Pajok","country":"SS","lat":3.865,"lon":32.482,"pop":49000,"tz":"Africa/Juba"},{"id":1608057,"name":"Pak Chong","local":"Pak Chong","country":"TH","lat":14.708,"lon":101.416,"pop":48999,"tz":"Asia/Bangkok"},{"id":787157,"name":"Peje","local":"Печ","country":"XK","lat":42.659,"lon":20.288,"pop":48962,"tz":"Europe/Belgrade"},{"id":2041702,"name":"Puryong-up","local":"Puryŏng-ŭp","country":"KP","lat":42.062,"lon":129.705,"pop":48958,"tz":"Asia/Pyongyang"},{"id":1259602,"name":"Piparia","local":"Pipariā","country":"IN","lat":22.757,"lon":78.355,"pop":48826,"tz":"Asia/Kolkata"},{"id":3792392,"name":"Plato","local":"Plato","country":"CO","lat":9.79,"lon":-74.782,"pop":48606,"tz":"America/Bogota"},{"id":1185141,"name":"Panchagarh","local":"Panchagarh","country":"BD","lat":26.333,"lon":88.558,"pop":48531,"tz":"Asia/Dhaka"},{"id":1632974,"name":"Pameungpeuk","local":"Pameungpeuk","country":"ID","lat":-7.018,"lon":107.604,"pop":48294,"tz":"Asia/Jakarta"},{"id":3453337,"name":"Pocoes","local":"Poções","country":"BR","lat":-14.53,"lon":-40.365,"pop":48293,"tz":"America/Bahia"},{"id":3455459,"name":"Palmas","local":"Пальмас","country":"BR","lat":-26.484,"lon":-51.991,"pop":48247,"tz":"America/Sao_Paulo"},{"id":3842190,"name":"Palpala","local":"Palpalá","country":"AR","lat":-24.258,"lon":-65.214,"pop":48199,"tz":"America/Argentina/Jujuy"},{"id":5006250,"name":"Portage","local":"Портидж","country":"US","lat":42.201,"lon":-85.58,"pop":48177,"tz":"America/Detroit"},{"id":3652743,"name":"Puerto Francisco de Orellana","local":"Puerto Francisco de Orellana","country":"EC","lat":-0.45,"lon":-76.997,"pop":48144,"tz":"America/Guayaquil"},{"id":3630982,"name":"Palmira","local":"Palmira","country":"VE","lat":7.838,"lon":-72.228,"pop":48087,"tz":"America/Caracas"},{"id":1185149,"name":"Parbatipur","local":"Parbatipur","country":"BD","lat":25.664,"lon":88.931,"pop":48020,"tz":"Asia/Dhaka"},{"id":3600026,"name":"Puerto Cortez","local":"Пуэрто-Кортес","country":"HN","lat":15.826,"lon":-87.93,"pop":48013,"tz":"America/Tegucigalpa"},{"id":1570549,"name":"Phu Khuong","local":"Phú Khương","country":"VN","lat":11.283,"lon":106.133,"pop":47966,"tz":"Asia/Ho_Chi_Minh"},{"id":2383523,"name":"Paoua","local":"Paoua","country":"CF","lat":7.243,"lon":16.441,"pop":47703,"tz":"Africa/Bangui"},{"id":5852275,"name":"Pearl City","local":"Пърл Сити","country":"US","lat":21.397,"lon":-157.975,"pop":47698,"tz":"Pacific/Honolulu"},{"id":1259503,"name":"Pithoragarh","local":"Pithorāgarh","country":"IN","lat":29.583,"lon":80.209,"pop":47571,"tz":"Asia/Kolkata"},{"id":1630723,"name":"Poso","local":"Посо","country":"ID","lat":-1.396,"lon":120.752,"pop":47477,"tz":"Asia/Makassar"},{"id":5380668,"name":"Palm Springs","local":"Палм-Спрингс","country":"US","lat":33.83,"lon":-116.545,"pop":47371,"tz":"America/Los_Angeles"},{"id":2640358,"name":"Perth","local":"Перт","country":"GB","lat":56.395,"lon":-3.431,"pop":47350,"tz":"Europe/London"},{"id":1151063,"name":"Pran Buri","local":"Pran Buri","country":"TH","lat":12.385,"lon":99.902,"pop":47293,"tz":"Asia/Bangkok"},{"id":1259243,"name":"Punalur","local":"Punalūr","country":"IN","lat":9.02,"lon":76.923,"pop":47263,"tz":"Asia/Kolkata"},{"id":1260909,"name":"Padrauna","local":"Падарауна","country":"IN","lat":26.904,"lon":83.981,"pop":47181,"tz":"Asia/Kolkata"},{"id":1299237,"name":"Pyapon","local":"Пьяпон","country":"MM","lat":16.285,"lon":95.679,"pop":47082,"tz":"Asia/Yangon"},{"id":13353579,"name":"Pallikal","local":"Pallikal","country":"IN","lat":11.137,"lon":75.926,"pop":46962,"tz":"Asia/Kolkata"},{"id":1260168,"name":"Patancheru","local":"Patancheru","country":"IN","lat":17.533,"lon":78.264,"pop":46821,"tz":"Asia/Kolkata"},{"id":11288649,"name":"Parella","local":"Parella","country":"IT","lat":45.08,"lon":7.626,"pop":46795,"tz":"Europe/Rome"},{"id":1465622,"name":"Porur","local":"Порур","country":"IN","lat":13.036,"lon":80.158,"pop":46690,"tz":"Asia/Kolkata"},{"id":1260911,"name":"Padra","local":"Padra","country":"IN","lat":22.24,"lon":73.085,"pop":46660,"tz":"Asia/Kolkata"},{"id":1149698,"name":"Phetchaburi","local":"Пхетчабури","country":"TH","lat":13.112,"lon":99.945,"pop":46601,"tz":"Asia/Bangkok"},{"id":7963596,"name":"Panauti","local":"Panauti","country":"NP","lat":27.585,"lon":85.521,"pop":46595,"tz":"Asia/Kathmandu"},{"id":3171737,"name":"Paderno Dugnano","local":"Paderno Dugnano","country":"IT","lat":45.569,"lon":9.165,"pop":46235,"tz":"Europe/Rome"},{"id":3671315,"name":"Puerto Tejada","local":"Puerto Tejada","country":"CO","lat":3.231,"lon":-76.417,"pop":46215,"tz":"America/Bogota"},{"id":511794,"name":"Pechora","local":"Печора","country":"RU","lat":65.147,"lon":57.224,"pop":46113,"tz":"Europe/Moscow"},{"id":3876664,"name":"Penco","local":"Пенко","country":"CL","lat":-36.741,"lon":-72.995,"pop":46091,"tz":"America/Santiago"},{"id":781988,"name":"Pogradec","local":"Поградец","country":"AL","lat":40.903,"lon":20.652,"pop":46070,"tz":"Europe/Tirane"},{"id":2523866,"name":"Paterno","local":"Патерно","country":"IT","lat":37.567,"lon":14.903,"pop":46030,"tz":"Europe/Rome"},{"id":3455553,"name":"Paicandu","local":"Paiçandu","country":"BR","lat":-23.457,"lon":-52.049,"pop":45962,"tz":"America/Sao_Paulo"},{"id":7926419,"name":"Paotana Hat","local":"Paotana Hat","country":"BD","lat":25.665,"lon":89.503,"pop":45911,"tz":"Asia/Dhaka"},{"id":2736680,"name":"Paranhos","local":"Параньюш","country":"PT","lat":41.173,"lon":-8.599,"pop":45883,"tz":"Europe/Lisbon"},{"id":1260824,"name":"Pakur","local":"Pakur","country":"IN","lat":24.639,"lon":87.842,"pop":45840,"tz":"Asia/Kolkata"},{"id":3113082,"name":"Portugalete","local":"Португалете","country":"ES","lat":43.321,"lon":-3.021,"pop":45826,"tz":"Europe/Madrid"},{"id":1229293,"name":"Puttalam","local":"Путталам","country":"LK","lat":8.036,"lon":79.828,"pop":45661,"tz":"Asia/Colombo"},{"id":11549974,"name":"Pilar","local":"Pilar","country":"ES","lat":40.477,"lon":-3.71,"pop":45610,"tz":"Europe/Madrid"},{"id":1798763,"name":"Pingli","local":"Pingli","country":"CN","lat":32.385,"lon":109.346,"pop":45493,"tz":"Asia/Shanghai"},{"id":1260543,"name":"Pandhurna","local":"Pāndhurnā","country":"IN","lat":21.596,"lon":78.526,"pop":45479,"tz":"Asia/Kolkata"},{"id":1819101,"name":"Ping Shan","local":"Ping Shan","country":"HK","lat":22.441,"lon":114.006,"pop":45400,"tz":"Asia/Hong_Kong"},{"id":1260134,"name":"Pathardih","local":"Pāthardih","country":"IN","lat":23.666,"lon":86.432,"pop":45276,"tz":"Asia/Kolkata"},{"id":3391220,"name":"Presidente Dutra","local":"Presidente Dutra","country":"BR","lat":-5.29,"lon":-44.49,"pop":45155,"tz":"America/Fortaleza"},{"id":6945426,"name":"Pascani","local":"Paşcani","country":"RO","lat":47.247,"lon":26.723,"pop":45000,"tz":"Europe/Bucharest"},{"id":6723024,"name":"Pivnichna Saltivka","local":"Pivnichna Saltivka","country":"UA","lat":50.045,"lon":36.359,"pop":45000,"tz":"Europe/Kyiv"},{"id":4366001,"name":"Potomac","local":"Потомак","country":"US","lat":39.018,"lon":-77.209,"pop":44965,"tz":"America/New_York"},{"id":1694775,"name":"Parang","local":"Parang","country":"PH","lat":7.37,"lon":124.27,"pop":44930,"tz":"Asia/Manila"},{"id":3653403,"name":"Pasaje","local":"Pasaje","country":"EC","lat":-3.326,"lon":-79.807,"pop":44860,"tz":"America/Guayaquil"},{"id":293943,"name":"Pardes Hanna Karkur","local":"Pardés H̱anna Karkur","country":"IL","lat":32.474,"lon":34.978,"pop":44840,"tz":"Asia/Jerusalem"},{"id":3454620,"name":"Pederneiras","local":"Pederneiras","country":"BR","lat":-22.352,"lon":-48.775,"pop":44827,"tz":"America/Sao_Paulo"},{"id":3841679,"name":"Pehuajo","local":"Pehuajó","country":"AR","lat":-35.811,"lon":-61.899,"pop":44783,"tz":"America/Argentina/Buenos_Aires"},{"id":4126226,"name":"Pine Bluff","local":"Пајн Блаф","country":"US","lat":34.228,"lon":-92.003,"pop":44772,"tz":"America/Chicago"},{"id":2640132,"name":"Pontefract","local":"Понтефракт","country":"GB","lat":53.691,"lon":-1.313,"pop":44710,"tz":"Europe/London"},{"id":2736041,"name":"Ponte de Lima","local":"Понте де Лима","country":"PT","lat":41.767,"lon":-8.584,"pop":44667,"tz":"Europe/Lisbon"},{"id":3671772,"name":"Pradera","local":"Pradera","country":"CO","lat":3.421,"lon":-76.245,"pop":44630,"tz":"America/Bogota"},{"id":5205377,"name":"Penn Hills","local":"Penn Hills","country":"US","lat":40.501,"lon":-79.839,"pop":44610,"tz":"America/New_York"},{"id":3455141,"name":"Paraiba do Sul","local":"Параиба-ду-Сул","country":"BR","lat":-22.158,"lon":-43.293,"pop":44467,"tz":"America/Sao_Paulo"},{"id":1822827,"name":"Phumi Youl Toung","local":"Phumĭ Yoŭl Toŭng","country":"KH","lat":11.282,"lon":104.738,"pop":44395,"tz":"Asia/Phnom_Penh"},{"id":3113943,"name":"Pena Grande","local":"Peña Grande","country":"ES","lat":40.475,"lon":-3.722,"pop":44341,"tz":"Europe/Madrid"},{"id":3453014,"name":"Porangatu","local":"Порангату","country":"BR","lat":-13.441,"lon":-49.149,"pop":44317,"tz":"America/Sao_Paulo"},{"id":1822906,"name":"Phumi Veal Sre","local":"Phumĭ Véal Srê","country":"KH","lat":10.981,"lon":104.778,"pop":44270,"tz":"Asia/Phnom_Penh"},{"id":670938,"name":"Petrosani","local":"Петрошани","country":"RO","lat":45.417,"lon":23.367,"pop":44187,"tz":"Europe/Bucharest"},{"id":8633918,"name":"Piendamo","local":"Piendamo","country":"CO","lat":2.639,"lon":-76.531,"pop":44000,"tz":"America/Bogota"},{"id":3430104,"name":"Paso de los Libres","local":"Paso de los Libres","country":"AR","lat":-29.713,"lon":-57.088,"pop":43805,"tz":"America/Argentina/Cordoba"},{"id":3630089,"name":"Piritu","local":"Píritu","country":"VE","lat":9.371,"lon":-69.21,"pop":43746,"tz":"America/Caracas"},{"id":1259444,"name":"Polavaram","local":"Polavaram","country":"IN","lat":17.248,"lon":81.644,"pop":43710,"tz":"Asia/Kolkata"},{"id":1607978,"name":"Pattani","local":"Паттани","country":"TH","lat":6.868,"lon":101.25,"pop":43690,"tz":"Asia/Bangkok"},{"id":3455170,"name":"Paracambi","local":"Paracambi","country":"BR","lat":-22.608,"lon":-43.709,"pop":43656,"tz":"America/Sao_Paulo"},{"id":3058000,"name":"Prievidza","local":"Прьевидза","country":"SK","lat":48.774,"lon":18.628,"pop":43645,"tz":"Europe/Bratislava"},{"id":512382,"name":"Pashkovskiy","local":"Пашковский","country":"RU","lat":45.024,"lon":39.104,"pop":43634,"tz":"Europe/Moscow"},{"id":3693645,"name":"Picsi","local":"Пикси","country":"PE","lat":-6.718,"lon":-79.77,"pop":43610,"tz":"America/Lima"},{"id":13353576,"name":"Panachikkad","local":"Panachikkad","country":"IN","lat":9.53,"lon":76.541,"pop":43595,"tz":"Asia/Kolkata"},{"id":2853574,"name":"Pirmasens","local":"Пирмазенс","country":"DE","lat":49.201,"lon":7.605,"pop":43582,"tz":"Europe/Berlin"},