[{"id":3451190,"name":"Rio de Janeiro","names":{"en":"Rio de Janeiro","de":"Rio de Janeiro","es":"Río de Janeiro","ar":"ريو دي جانيرو","cs":"Rio de Janeiro","fa":"ریو دو ژانیرو","fr":"Rio de Janeiro","id":"Rio de Janeiro","it":"Rio de Janeiro","ja":"リオデジャネイロ","ka":"რიო-დე-ჟანეირო","nl":"Rio de Janeiro","pl":"Rio de Janeiro","pt":"Rio de Janeiro","ro":"Rio de Janeiro","ru":"Рио-де-Жанейро","sv":"Rio de Janeiro","th":"รีโอเดจาเนโร","tr":"Rio de Janeiro","ko":"리우데자네이루","el":"Ρίο ντε Τζανέιρο","sw":"Rio de Janeiro","uk":"Ріо-де-Жанейро","vi":"Rio de Janeiro","uz":"Rio-de-Janeyro","kk":"Рио-де-Жанейро","ur":"ریو دے جینیرو","hy":"Ռիո դե Ժանեյրո","bn":"রিও দি জেনেরিও","hi":"रियो डि जेनेरो","az":"Rio-de-Janeyro","tk":"Rio-de-Žaneýro","ta":"இரியோ டி செனீரோ","mr":"रियो दि जानेरो","ky":"Рио-де-Жанейро","zh":"里约热内卢","am":"ሪዮ ዴ ጃኔይሮ","tg":"Рио-де-Жанейро","tt":"Рио-де-Жанейро"},"country":"BR","lat":-22.90642,"lon":-43.18223,"pop":6747815,"search_terms":["இரியோ டி செனீரோ","รีโอเดจาเนโร","ρίο ντε τζανέιρο","रियो दि जानेरो","里约热内卢","ریو دو ژانیرو","ріо-де-жанейро","rio-de-janeyro","ريو دي جانيرو","リオデジャネイロ","리우데자네이루","rio-de-žaneýro","रियो डि जेनेरो","รัฐรีโอเดจาเนโร","рио-де-жанейро","ریو دے جینیرو","rio de janeiro","ռիո դե ժանեյրո","río de janeiro","რიო-დე-ჟანეირო","ሪዮ ዴ ጃኔይሮ","রিও দি জেনেরিও"]},{"id":108410,"name":"Riyadh","names":{"en":"Riyadh","de":"Riad","es":"Riad","ar":"الرياض","cs":"Rijád","fr":"Riyad","id":"Riyadh","it":"Riyad","ja":"リヤド","ko":"리야드","nl":"Riyad","pl":"Rijad","pt":"Riade","ro":"Riyadh","ru":"Эр-Рияд","sv":"Riyadh","zh":"利雅德","bn":"রিয়াদ","tr":"Riyad","el":"Ριάντ","tg":"Эр-Рияд","ur":"ریاض","am":"ሪያድ","mr":"रियाध","th":"ริยาด","uz":"Ar-Riyod","hi":"रियाद","hy":"Ալ-Ռիադ","uk":"Ер-Ріяд","az":"Ər-Riyad","ta":"ரியாத்","fa":"ریاض","ky":"Эр-Рияд","ka":"ერ-რიადი","kk":"Эр-Рияд","ps":"رياض"},"country":"SA","lat":24.68773,"lon":46.72185,"pop":4205961,"search_terms":["ər-riyad","رياض","ریاض","रियाध","riyadh","rijad","ալ-ռիադ","रियाद","ar-riyod","리야드","利雅德","リヤド","riad","ერ-რიადი","রিয়াদ","ер-ріяд","эр-рияд","riade","ριάντ","الرياض","riyad","ரியாத்","rijád","ሪያድ","ริยาด"]},{"id":1166993,"name":"Rawalpindi","names":{"en":"Rawalpindi","de":"Rawalpindi","es":"Rawalpindi","fa":"راولپندی","ja":"ラーワルピンディー","ko":"라왈핀디","pl":"Rawalpindi","pt":"Rawalpindi","ru":"Равалпинди","sv":"Rawalpindi","ur":"راولپنڈی","ar":"راولبندي","az":"Ravalpindi","bn":"রাওয়ালপিন্ডি","cs":"Rávalpindí","hi":"रावलपिंडी","ku":"Rawalpindî","mr":"रावळपिंडी","ta":"இராவல்பிண்டி","th":"ราวัลปินดี","uk":"Равалпінді","zh":"拉瓦尔品第","hy":"Ռավալպինդի","ps":"راولپنډي","tr":"Ravalpindi","uz":"Ravalpindi","el":"Ραβαλπίντι"},"country":"PK","lat":33.59733,"lon":73.0479,"pop":3357612,"search_terms":["равалпінді","रावळपिंडी","ราวัลปินดี","ravalpindi","রাওয়ালপিন্ডি","равалпинди","拉瓦尔品第","ραβαλπίντι","रावलपिंडी","rawalpindi","ռավալպինդի","라왈핀디","ラーワルピンディー","இராவல்பிண்டி","راولپنڈی","راولبندي","rávalpindí","راولپندی","راولپنډي","rawalpindî"]},{"id":3169070,"name":"Rome","names":{"en":"Rome","it":"Roma","sv":"Rom","de":"Rom","es":"Roma","ar":"روما","cs":"Řím","el":"Ρώμη","fa":"رم","fr":"Rome","hi":"रोम","id":"Roma","ja":"ローマ","ka":"რომი","ko":"로마","mr":"रोम","ms":"Rom","nl":"Rome","pl":"Rzym","pt":"Roma","ro":"Roma","ru":"Рим","sw":"Mji wa Roma","th":"โรม","tl":"Roma","tr":"Roma","uk":"Рим","vi":"Roma","am":"ሮማ","hy":"Հռոմ","ur":"روم","zh":"罗马市","bn":"রোম"},"country":"IT","lat":41.89193,"lon":12.51133,"pop":2318895,"search_terms":["рим","روم","ሮማ","ρώμη","رم","რომი","โรม","mji wa roma","rome","rom","রোম","ローマ","로마","řím","lungsod ng roma","rzym","रोम","罗马市","روما","roma","հռոմ"]},{"id":1258393,"name":"Rasapudipalem","names":{"en":"Rasapudipalem"},"country":"IN","lat":17.73308,"lon":83.31622,"pop":1728128,"search_terms":["rasapudipalem"]},{"id":2538475,"name":"Rabat","names":{"en":"Rabat","de":"Rabat","es":"Rabat","ar":"رباط","fa":"رباط","fr":"Rabat","id":"Rabat","it":"Rabat","ja":"ラバト","ko":"라바트","nl":"Rabat","pl":"Rabat","pt":"Rabat","ro":"Rabat","ru":"Рабат","sv":"Rabat","zh":"拉巴特","tr":"Rabat","el":"Ραμπάτ","cs":"rabat","sw":"Rabat","ur":"رباط","am":"ራባት","ps":"ربات","ta":"ரபாத்","ky":"Рабат","hy":"Ռաբատ","uk":"Рабат","ka":"რაბატი","mr":"रबात","th":"ราบัต","tg":"Рабат","bn":"রাবাত","uz":"Rabot"},"country":"MA","lat":34.01325,"lon":-6.83255,"pop":1655753,"search_terms":["라바트","रबात","ራባት","ラバト","رباط","ரபாத்","রাবাত","ราบัต","рабат","拉巴特","rabot","რაბატი","rabat","ραμπάτ","ռաբատ","ربات","الرباط"]},{"id":3390760,"name":"Recife","names":{"en":"Recife","es":"Recife","fr":"Recife","nl":"Recife","pl":"Recife","pt":"Recife","sv":"Recife","tr":"Recife","ja":"レシフェ","ru":"Ресифи","tg":"Ресифи","de":"Recife","ar":"ريسيفي","bn":"হেসিফি","el":"Ρεσίφε","fa":"ریسیف","hi":"रिसीफ़ी","hy":"Ռեսիֆի","ka":"რესიფი","kk":"Ресифи","ko":"헤시피","mr":"रेसिफे","ta":"ரெசிஃபி","th":"เรซีฟี","uk":"Ресіфі","ur":"ریسیف","uz":"Resifi","zh":"累西腓"},"country":"BR","lat":-8.05389,"lon":-34.88111,"pop":1653461,"search_terms":["ریسیف","累西腓","ريسيفي","रेसिफे","რესიფი","ресіфі","เรซีฟี","रिसीफ़ी","ресифи","ռեսիֆի","헤시피","ρεσίφε","レシフェ","resifi","ரெசிஃபி","recife","হেসিফি"]},{"id":1258847,"name":"Rajkot","names":{"en":"Rajkot","de":"Rajkot","nl":"Rajkot","pl":"Radźkot","pt":"Rajkot","sv":"Rajkot","ja":"ラージコット","ro":"Rajkot","ru":"Раджкот","ta":"ராஜ்கோட்"},"country":"IN","lat":22.29161,"lon":70.79322,"pop":1390640,"search_terms":["ラージコット","ராஜ்கோட்","rajkot","раджкот","radźkot"]},{"id":268743,"name":"Ra's Bayrut","names":{"en":"Ra's Bayrut"},"country":"LB","lat":33.9,"lon":35.48333,"pop":1251739,"search_terms":["ra's bayrut"]},{"id":501175,"name":"Rostov-on-Don","names":{"en":"Rostov-on-Don","de":"Rostow am Don","es":"Rostov del Don","cs":"Rostov na Donu","fr":"Rostov-sur-le-Don","ja":"ロストフ・ナ・ドヌ","ko":"로스토프나도누","nl":"Rostov aan de Don","pl":"Rostów nad Donem","sv":"Rostov-na-Donu","uk":"Ростов-на-Дону","id":"Rostov na Donu","ro":"Rostov-pe-Don","el":"Ροστόφ επί του Ντον","it":"Rostov sul Don","ru":"Ростов-на-Дону","vi":"Rostov trên sông Đông","fa":"روستوف-نا-دونو","tt":"Тындагы Ростов","ar":"روستوف-نا-دونو","ka":"დონის როსტოვი","hy":"Դոնի Ռոստով","pt":"Rostov do Don","zh":"顿河畔罗斯托夫","mr":"रोस्तोव दॉन","uz":"Rostov-Don","ur":"روستوف-نا-دونو"},"country":"RU","lat":47.21997,"lon":39.70769,"pop":1130305,"search_terms":["ロストフ・ナ・ドヌ","rostov-on-don","ροστόφ επί του ντον","rostov-don","ростов-на-дону","rostov-na-donu","rostow am don","rostov del don","ростов","rostov na donu","rostov trên sông đông","로스토프나도누","rostov aan de don","тындагы ростов","rostów nad donem","रोस्तोव दॉन","დონის როსტოვი","顿河畔罗斯托夫","روستوف-نا-دونو","rostov-pe-don","դոնի ռոստով","rostov-sur-le-don","rostov do don","rostov sul don"]},{"id":1258526,"name":"Ranchi","names":{"en":"Ranchi","pl":"Ranchi","de":"Ranchi","hi":"राँची","id":"Ranchi","ja":"ラーンチー","pt":"Ranchi","ro":"Ranchi","sv":"Ranchi","ta":"ராஞ்சி","bn":"রাঁচি","nl":"Ranchi","ru":"Ранчи","cs":"Ráňčí","ur":"رانچی","te":"రాంచీ","fa":"رانچی","ko":"란치","mr":"रांची","uk":"Ранчі","zh":"蘭契","ar":"رانشي","ps":"رانچي"},"country":"IN","lat":23.34316,"lon":85.3094,"pop":1120374,"search_terms":["ráňčí","ранчі","ராஞ்சி","रांची","రాంచీ","رانچی","राँची","ranchi","ранчи","蘭契","রাঁচি","رانچي","ラーンチー","رانشي","란치"]},{"id":1185188,"name":"Rangpur","names":{"en":"Rangpur","ru":"Рангпур","bn":"রংপুর","ja":"ランプル","ko":"랑푸르","uk":"Рангпур","ur":"رنگپور شہر","pl":"Rongpur","zh":"朗布尔市"},"country":"BD","lat":25.74664,"lon":89.25166,"pop":1031388,"search_terms":["рангпур","랑푸르","rongpur","朗布尔市","ランプル","رنگپور شہر","rangpur city","রংপুর","rangpur"]},{"id":1258980,"name":"Raipur","names":{"en":"Raipur","ar":"رايبور","bn":"রায়পুর","fa":"رای‌پور","hi":"रायपुर","hy":"Ռայպուր","ja":"ラーイプル","ko":"라이푸르","mr":"रायपूर","ps":"رای پور","ta":"ராய்ப்பூர்","te":"రాయ్‌పుర్","uk":"Райпур","ur":"رائے پور","ru":"Райпур","zh":"賴布爾"},"country":"IN","lat":21.23333,"lon":81.63333,"pop":1027264,"search_terms":["賴布爾","رايبور","रायपुर","라이푸르","ռայպուր","raipur","ராய்ப்பூர்","رای‌پور","رای پور","райпур","रायपूर","রায়পুর","رائے پور","రాయ్‌పుర్","ラーイプル"]},{"id":3838583,"name":"Rosario","names":{"en":"Rosario","de":"Rosario","es":"Rosario","ar":"روساريو","fr":"Rosario","id":"Rosario","it":"Rosario","pl":"Rosario","pt":"Rosario","ro":"Rosario","sv":"Rosario","ja":"ロサリオ","nl":"Rosario","tr":"Rosario","mr":"रोझारियो","el":"Ροσάριο","ko":"로사리오","uk":"Росаріо","hy":"Ռոսարիո","ku":"Rozarîyo","fa":"روساریو، سانتا فه","ka":"როსარიო","th":"โรซารีโอ","ru":"Росарио","zh":"罗萨里奥","bn":"রোসারিও","kk":"Росарио","ky":"Росарио","ur":"روساریو، سانتا فے"},"country":"AR","lat":-32.94682,"lon":-60.63932,"pop":948312,"search_terms":["로사리오","罗萨里奥","rosário","rosario","روساريو","როსარიო","ռոսարիո","ロサリオ","росарио","ροσάριο","โรซารีโอ","روساریو، سانتا فے","روساریو، سانتا فه","rozarîyo","रोझारियो","রোসারিও","росаріо"]},{"id":1797063,"name":"Rui'an","names":{"en":"Rui'an","zh":"瑞安"},"country":"CN","lat":27.77605,"lon":120.65859,"pop":927383,"search_terms":["rui'an","瑞安"]},{"id":2747891,"name":"Rotterdam","names":{"en":"Rotterdam","de":"Rotterdam","es":"Rotterdam","ar":"روتردام","cs":"Rotterdam","el":"Ρότερνταμ","fa":"رتردام","fr":"Rotterdam","id":"Rotterdam","it":"Rotterdam","ja":"ロッテルダム","ko":"로테르담","nl":"Rotterdam","pl":"Rotterdam","pt":"Roterdão","ro":"Rotterdam","ru":"Роттердам","sv":"Rotterdam","zh":"鹿特丹","th":"รอตเทอร์ดาม","tr":"Rotterdam","uk":"Роттердам","tt":"Роттердам","ta":"ராட்டர்டேம்","mr":"रॉटरडॅम","ka":"როტერდამი","kk":"Роттердам"},"country":"NL","lat":51.9225,"lon":4.47917,"pop":868135,"search_terms":["รอตเทอร์ดาม","روتردام","鹿特丹","로테르담","როტერდამი","rotterdam","ロッテルダム","ρότερνταμ","ராட்டர்டேம்","роттердам","रॉटरडॅम","رتردام","róterdam","roterdão"]},{"id":12069922,"name":"Rohini","names":{"en":"Rohini"},"country":"IN","lat":28.74322,"lon":77.06778,"pop":860000,"search_terms":["rohini"]},{"id":1185128,"name":"Rajshahi","names":{"en":"Rajshahi","de":"Rajshahi","bn":"রাজশাহী","nl":"Rajshahi","sv":"Rajshahi","ru":"Раджшахи"},"country":"BD","lat":24.374,"lon":88.60114,"pop":763580,"search_terms":["rampur boalia","rajshahi","rājshāhi","раджшахи","রাজশাহী"]},{"id":456172,"name":"Riga","names":{"en":"Riga","de":"Riga","es":"Riga","ar":"ريغا","cs":"Riga","fr":"Riga","id":"Riga","it":"Riga","ja":"リガ","ka":"რიგა","ko":"리가","ro":"Рига","nl":"Riga","pl":"Ryga","pt":"Riga","ru":"Рига","sv":"Riga","th":"รีกา","uk":"Рига","tr":"Riga","el":"Ρίγα","tg":"Рига","am":"ሪጋ","mr":"रिगा","az":"Riqa","ta":"ரீகா","kk":"Рига","fa":"ریگا","ky":"Рига","ur":"ریگا","bn":"রিগা","hi":"रीगा","hy":"Ռիգա","tt":"Рига"},"country":"LV","lat":56.946,"lon":24.10589,"pop":742572,"search_terms":["rīga","riga","ரீகா","ሪጋ","रिगा","рига","riqa","रीगा","รีกา","리가","রিগা","リガ","ريغا","ryga","ρίγα","რიგა","ریگا","ռիգա"]},{"id":3451328,"name":"Ribeirao Preto","names":{"en":"Ribeirao Preto","fr":"Ribeirão Preto","de":"Ribeirão Preto","es":"Ribeirão Preto","pl":"Ribeirão Preto","pt":"Ribeirão Preto","sv":"Ribeirão Preto","uk":"Рібейран-Прету","ja":"リベイラン・プレト","kk":"Рибейран-Прету","ko":"히베이랑프레투","ru":"Рибейран-Прету","zh":"里貝朗普雷圖"},"country":"BR","lat":-21.1775,"lon":-47.81028,"pop":711825,"search_terms":["ribeirão","히베이랑프레투","ribeirão preto","リベイラン・プレト","里貝朗普雷圖","рибейран-прету","ribeirao preto","рібейран-прету"]},{"id":9072919,"name":"Rizhao","names":{"en":"Rizhao","zh":"日照","cs":"Ž’-čao","ja":"日照市","ko":"르자오 시","ur":"ریژاو","vi":"Nhật Chiếu","ru":"Жичжао","fr":"Rizhao"},"country":"CN","lat":35.41414,"lon":119.52908,"pop":661943,"search_terms":["nhật chiếu","rizhao","日照市","жичжао","ریژاو","日照","ž’-čao","르자오 시"]},{"id":118743,"name":"Rasht","names":{"en":"Rasht","de":"Rascht","cs":"Rašt","fr":"Rasht","pl":"Raszt","sv":"Rasht","nl":"Rasjt","ru":"Решт","zh":"拉什特","fa":"رشت","az":"Rəşt","hi":"रश्त","ja":"ラシュト","ka":"რეშთი","kk":"Решт","ko":"라슈트","ku":"Reşt","tg":"Рашт","th":"แรชต์","tr":"Reşt","uk":"Решт","hy":"Ռեշտ","tt":"Рәшт"},"country":"IR","lat":37.27611,"lon":49.58862,"pop":594590,"search_terms":["raszt","拉什特","რეშთი","rasjt","रश्त","라슈트","рашт","rascht","แรชต์","رشت","ռեշտ","решт","рәшт","ラシュト","rəşt","rasht","reşt","rašt"]},{"id":3520339,"name":"Reynosa","names":{"en":"Reynosa","de":"Reynosa","nl":"Reynosa","pl":"Reynosa","sv":"Reynosa","es":"Reynosa","ru":"Рейноса","fa":"رینوسا تامائولیپاس","ja":"レイノサ","ka":"რეინოსა","zh":"雷諾薩","ko":"레이노사","ur":"ریئنوسا"},"country":"MX","lat":26.08005,"lon":-98.28456,"pop":589466,"search_terms":["рейноса","رینوسا تامائولیپاس","雷諾薩","レイノサ","레이노사","ریئنوسا","რეინოსა","reynosa"]},{"id":500096,"name":"Ryazan'","names":{"en":"Ryazan","pl":"Riazań","de":"Rjasan","cs":"Rjazaň","ja":"リャザン","ko":"랴잔","nl":"Rjazan","id":"Ryazan","vi":"Ryazan","ru":"Рязань"},"country":"RU","lat":54.62696,"lon":39.70415,"pop":538962,"search_terms":["ryazan'","rjazan","랴잔","рязань","rjasan","rjazaň","ryazan","リャザン","riazań"]},{"id":1167460,"name":"Rahim Yar Khan","names":{"en":"Rahim Yar Khan","zh":"拉希姆亞爾汗","ur":"رحیم یار خان","ru":"Рахимъярхан","fa":"رحیم‌یارخان، پاکستان","de":"Rahimyar Khan","ar":"رحيم يار خان","hi":"रहीम यार ख़ान","pl":"Rahimjar Khan","fr":"Rahim Yar Khan","it":"Rahimyar Khan","ps":"رحيم يار خان","uk":"Рагім Яр Хан"},"country":"PK","lat":28.41987,"lon":70.30345,"pop":517000,"search_terms":["拉希姆亞爾汗","rahimyar khan","رحیم‌یارخان، پاکستان","رحيم يار خان","rahimjar khan","рахимъярхан","rahim yar khan","рагім яр хан","रहीम यार ख़ान","رحیم یار خان"]},{"id":181032,"name":"Ruiru","names":{"en":"Ruiru","fa":"رویرو، کنیا","ka":"რუირუ","ur":"رویرو","ru":"Руиру","zh":"魯依魯","de":"Ruiru","fr":"Ruiru","uk":"Руїру","sv":"Ruiru","sw":"Ruiru","it":"Ruiru","es":"Ruiru","ja":"ルイル","pl":"Ruiru","ro":"Ruiru","nl":"Ruiru"},"country":"KE","lat":-1.14665,"lon":36.96087,"pop":490120,"search_terms":["رویرو","ruiru","რუირუ","руиру","رویرو، کنیا","ルイル","руїру","魯依魯"]},{"id":4487042,"name":"Raleigh","names":{"en":"Raleigh","de":"Raleigh","es":"Raleigh","fr":"Raleigh","it":"Raleigh","ja":"ローリー","nl":"Raleigh","pl":"Raleigh","pt":"Raleigh","sv":"Raleigh","th":"ราลี","id":"Raleigh","ru":"Роли","el":"Ράλεϊ","ko":"롤리","hy":"Ռոլի","uk":"Ралі","ar":"رالي","mr":"रॅले","ta":"ராலீ","fa":"رالی","zh":"罗利","az":"Roli","ka":"როლი","bn":"র‌্যালি","ky":"Роли","ur":"رالی، شمالی کیرولینا"},"country":"US","lat":35.7721,"lon":-78.63861,"pop":482295,"search_terms":["ராலீ","roli","র‌্যালি","罗利","रॅले","ราลี","ράλεϊ","ローリー","raleigh","رالی، شمالی کیرولینا","роли","როლი","رالي","رالی","ռոլի","롤리","ралі"]},{"id":1568510,"name":"Rach Gia","names":{"en":"Rach Gia","sv":"Rach Gia","it":"Rach Gia","fa":"راچا گیا","ja":"ラックザー","ko":"락자","th":"สักซ้า","uk":"Ратьзя","ur":"رچ گیآ","ru":"Ратьзя","zh":"迪石市"},"country":"VN","lat":10.01245,"lon":105.08091,"pop":459860,"search_terms":["ラックザー","rach gia","ратьзя","رچ گیآ","迪石市","สักซ้า","락자","راچا گیا"]},{"id":1258662,"name":"Ramgundam","names":{"en":"Ramgundam","te":"రామగుండం"},"country":"IN","lat":18.80084,"lon":79.45206,"pop":452261,"search_terms":["ramgundam","రామగుండం"]},{"id":1255783,"name":"Rajpur Sonarpur","names":{"en":"Rajpur Sonarpur"},"country":"IN","lat":22.4382,"lon":88.43205,"pop":424368,"search_terms":["rajpur","sonarpur","sonarpur rajpur","rajpur sonarpur"]},{"id":3662574,"name":"Rio Branco","names":{"en":"Rio Branco","de":"Rio Branco","pl":"Rio Branco","es":"Río Branco","id":"Rio Branco","pt":"Rio Branco","ru":"Риу-Бранку","tr":"Rio Branco","ja":"リオブランコ","ar":"ريو برانكو","ka":"რიუ-ბრანკუ","kk":"Риу-Бранку","ko":"히우브랑쿠","mr":"रियो ब्रांको","tg":"Риу-Бранку","th":"รีอูบรังกู","uk":"Ріу-Бранку","uz":"Riu-Branku","zh":"里約布蘭科","el":"Ρίο Μπράνκο","fa":"ریو برانکو","ur":"ریو برانکو"},"country":"BR","lat":-9.97472,"lon":-67.81,"pop":419452,"search_terms":["riu-branku","río branco","риу-бранку","히우브랑쿠","里約布蘭科","რიუ-ბრანკუ","ریو برانکو","ريو برانكو","rio branco","リオブランコ","रियो ब्रांको","ρίο μπράνκο","รีอูบรังกู","ріу-бранку"]},{"id":1258932,"name":"Rajamahendravaram","names":{"en":"Rajahmundry","pt":"Rajahmundry","ru":"Раджамандри"},"country":"IN","lat":17.00517,"lon":81.77784,"pop":376333,"search_terms":["раджамандри","rajahmundry","rajamahendravaram"]},{"id":1258076,"name":"Rohtak","names":{"en":"Rohtak","hi":"रोहतक","ar":"روهتاك","bn":"রোহতক","fa":"روتک","ru":"Рохтак","zh":"罗赫塔克","mr":"रोहतक","ur":"روہتک"},"country":"IN","lat":28.89447,"lon":76.58917,"pop":374292,"search_terms":["rohtak","रोहतक","روهتاك","রোহতক","روہتک","罗赫塔克","روتک","рохтак"]},{"id":958724,"name":"Rustenburg","names":{"en":"Rustenburg","de":"Rustenburg","pt":"Rustemburgo","ru":"Рюстенбург","am":"ሩስተንበርግ","ko":"루스텐버그","ja":"ルステンブルク","uk":"Рустенбург","ar":"روستنبرغ","th":"รุสเทนเบิร์ก","fa":"راستنبرگ","mr":"रुस्टेनबर्ग","zh":"勒斯滕堡","ur":"روسٹنبرگ"},"country":"ZA","lat":-25.66756,"lon":27.24208,"pop":373695,"search_terms":["รุสเทนเบิร์ก","rustemburgo","ሩስተንበርግ","рюстенбург","rustenburg","راستنبرگ","рустенбург","勒斯滕堡","루스텐버그","रुस्टेनबर्ग","روستنبرغ","ルステンブルク","روسٹنبرگ"]},{"id":291074,"name":"Ras Al Khaimah","names":{"en":"Ras al-Khaimah","ar":"رَأْس ٱلْخَيْمَة","ru":"Рас-эль-Хайма","sv":"Ras al Khaimah","de":"Ra’s al-Chaima","fr":"Ras el Khaïmah","az":"Ras Əl-Xayma","pl":"Ras al-Chajma","tr":"Resü'l-Hayme","uk":"Рас-ель-Хайма"},"country":"AE","lat":25.78953,"lon":55.9432,"pop":351943,"search_terms":["resü'l-hayme","ra’s al-chaima","ras al khaimah","рас-эль-хайма","ras el-kheima","رَأْس ٱلْخَيْمَة","ras al khaimah city","ras el khaïmah","ras al-chajma","рас-ель-хайма","ras al-khaimah","ras əl-xayma"]},{"id":963241,"name":"Randburg","names":{"en":"Randburg","de":"Randburg","hi":"रैंडबर्ग","pt":"Randburg","uk":"Рандбург","id":"Randburg","ur":"راندبورج","mr":"रँडबुर्ग","ms":"Randburg","el":"Ράντμπουργκ","it":"Randburg","es":"Randburg","zh":"蘭德堡","ar":"راندبورغ","vi":"Randburg","ja":"ランドバーグ","ro":"Randburg","nl":"Randburg","ru":"Рандбург","fr":"Randburg","bn":"রেন্ডবার্গ","sv":"Randburg","ko":"랜드버그","ta":"ரேண்ட்பர்க்","te":"రాండ్బర్గ్","th":"ราเดบูร์ก","pl":"Randburg","tr":"Rendburg"},"country":"ZA","lat":-26.0941,"lon":28.00123,"pop":337053,"search_terms":["రాండ్బర్గ్","রেন্ডবার্গ","ράντμπουργκ","rendburg","ரேண்ட்பர்க்","蘭德堡","रैंडबर्ग","راندبورغ","ราเดบูร์ก","راندبورج","रँडबुर्ग","ランドバーグ","рандбург","랜드버그","randburg"]},{"id":3451353,"name":"Ribeirao das Neves","names":{"en":"Ribeirao das Neves","pt":"Ribeirão das Neves"},"country":"BR","lat":-19.76694,"lon":-44.08667,"pop":329794,"search_terms":["ribeirao das neves","ribeirão das neves"]},{"id":936374,"name":"Roodepoort","names":{"en":"Roodepoort","de":"Roodepoort","hi":"रोएडपोोर्ट","pt":"Roodepoort","uk":"Рудепурт","id":"Roodepoort","ur":"رودیپورت","mr":"रुडेपुर्ट","ms":"Roodepoort","el":"Ρούντερπορτ","it":"Roodepoort","es":"Roodepoort","zh":"魯德普特","ar":"روديبورت","vi":"Roodepoort","ja":"ロードポート","az":"Rudepurt","ro":"Roodepoort","nl":"Roodepoort","ru":"Рудепурт","fr":"Roodepoort","bn":"রুডেপোর্ট","sv":"Roodepoort","ko":"로데포르트","ta":"ரூடிபூர்ட்","te":"రూడేపోర్ట్","th":"โรเดอโปร์ต","pl":"Roodepoort","tr":"Roodepoort"},"country":"ZA","lat":-26.1625,"lon":27.8725,"pop":326416,"search_terms":["ρούντερπορτ","рудепурт","魯德普特","রুডেপোর্ট","로데포르트","ரூடிபூர்ட்","رودیپورت","रुडेपुर्ट","रोएडपोोर्ट","రూడేపోర్ట్","โรเดอโปร์ต","rudepurt","ロードポート","روديبورت","roodepoort"]},{"id":2639577,"name":"Reading","names":{"en":"Reading","de":"Reading","es":"Reading","fr":"Reading","nl":"Reading","pt":"Reading","sv":"Reading","pl":"Reading","id":"Reading","it":"Reading","cs":"Reading","ro":"Reading","ru":"Рединг"},"country":"GB","lat":51.45625,"lon":-0.97113,"pop":318014,"search_terms":["рединг","reading"]},{"id":5387877,"name":"Riverside","names":{"en":"Riverside","de":"Riverside","fr":"Riverside","nl":"Riverside","pl":"Riverside","sv":"Riverside","es":"Riverside","ko":"리버사이드","uk":"Ріверсайд","ja":"リバーサイド","el":"Ριβερσάιντ","fa":"ریورساید، کالیفرنیا","ar":"ريفرسايد","ru":"Риверсайд","zh":"里弗赛德","az":"Riversayd","ka":"რივერსაიდი"},"country":"US","lat":33.95335,"lon":-117.39616,"pop":317261,"search_terms":["ріверсайд","riversayd","riverside","риверсайд","리버사이드","ριβερσάιντ","里弗赛德","ريفرسايد","რივერსაიდი","ریورساید، کالیفرنیا","リバーサイド"]},{"id":350203,"name":"Rosetta","names":{"en":"Rosetta","fr":"Rosette","es":"Rosetta","pl":"Rosetta","de":"Rosette","ar":"رشيد","id":"Rasyid","it":"Rosetta","nl":"Rosetta","pt":"Roseta","fa":"رشید","ja":"ロゼッタ","ka":"რაშიდი","ko":"로제타","tr":"Reşid","ru":"Рашид","zh":"羅塞塔","el":"Ροζέτα","uk":"Рашид","ur":"رشيد","ms":"Rasyid","sv":"Rosetta"},"country":"EG","lat":31.39951,"lon":30.41718,"pop":301795,"search_terms":["rasyid","рашид","رشيد","რაშიდი","rosetta","로제타","羅塞塔","رشید","ροζέτα","rosette","reşid","ロゼッタ","roseta"]},{"id":1258599,"name":"Rampur","names":{"en":"Rampur"},"country":"IN","lat":28.81014,"lon":79.02699,"pop":296418,"search_terms":["rampur"]},{"id":2246512,"name":"Rufisque","names":{"en":"Rufisque","ja":"リュフィスク","ru":"Рюфиск","zh":"呂菲斯克","de":"Rufisque","hi":"रुफीस्क","pt":"Rufisque","uk":"Рюфіск","id":"Rufisque","ur":"روفیسقوی","mr":"रुफिसक्यू","ms":"Rufisque","el":"Ρουφίσκ","it":"Rufisque","es":"Rufisque","ar":"روفسك","vi":"Rufisque","nl":"Rufisque","fr":"Rufisque","bn":"রোফিস্ক","ka":"რიუფისკი","sv":"Rufisque","ko":"뤼피스크","sw":"Rufisque","ta":"ருபிஸ்க்யு","te":"రూఫిస్క్","th":"รูฟิสคิว","pl":"Rufisque","tr":"Rufisque"},"country":"SN","lat":14.71542,"lon":-17.27334,"pop":295459,"search_terms":["რიუფისკი","ருபிஸ்க்யு","rufisque","रुफिसक्यू","рюфіск","ρουφίσκ","روفسك","রোফিস্ক","รูฟิสคิว","рюфиск","روفیسقوی","リュフィスク","呂菲斯克","뤼피스크","రూఫిస్క్","रुफीस्क"]},{"id":3429577,"name":"Resistencia","names":{"en":"Resistencia","es":"Ciudad de Resistencia","de":"Resistencia","pl":"Resistencia","fr":"Resistencia","id":"Resistencia","it":"Resistencia","nl":"Resistencia","fa":"رزیستنسیا","ja":"レシステンシア","ka":"რესისტენსია","uk":"Ресістенсія","pt":"Resistência","ru":"Ресистенсия","zh":"雷西斯滕西亚","ko":"레시스텐시아","ar":"ريسيستينسيا","hy":"Ռեսիստենսիա","th":"เรซิสเตนเซีย","ur":"رزیستنسیا، چاکو"},"country":"AR","lat":-27.46363,"lon":-58.98665,"pop":290793,"search_terms":["ռեսիստենսիա","resistencia","เรซิสเตนเซีย","ريسيستينسيا","レシステンシア","რესისტენსია","레시스텐시아","رزیستنسیا، چاکو","ресістенсія","ресистенсия","رزیستنسیا","resistência","雷西斯滕西亚","ciudad de resistencia"]},{"id":1258315,"name":"Rourkela","names":{"en":"Rourkela","bn":"রাউরকেলা","fa":"رورکلا","hi":"राउरकेला","mr":"रुरकेला","ta":"ராவுர்கேலா","th":"รอร์เกละ","pl":"Rourkela","zh":"魯吉拉"},"country":"IN","lat":22.22496,"lon":84.86414,"pop":273317,"search_terms":["魯吉拉","rourkela","राउरकेला","রাউরকেলা","रुरकेला","รอร์เกละ","ராவுர்கேலா","رورکلا"]},{"id":7838895,"name":"Russeifa","names":{"en":"Russeifa","de":"Russeifa","ru":"Ар-Русайфа","pt":"Russeifa","fr":"Russeifa","uk":"Ер-Руссайфа","ur":"رصیفہ","kk":"Ар-Русайфа қаласы","sv":"Russeifa","el":"Ρουσέιφα","es":"Russeifa","cs":"Rusajfa","ar":"الرصيفة","ja":"ルセイファ","fa":"الرصیفه","pl":"Ar-Rusajfa","ro":"Russeifa","tr":"Ruseyfa","nl":"Russeifa"},"country":"JO","lat":32.01778,"lon":36.04639,"pop":268237,"search_terms":["ер-руссайфа","الرصیفه","rusajfa","ruseyfa","ар-русайфа қаласы","russeifa","الرصيفة","ルセイファ","ρουσέιφα","رصیفہ","ар-русайфа","ar-rusajfa"]},{"id":1258342,"name":"Ratlam","names":{"en":"Ratlam"},"country":"IN","lat":23.33033,"lon":75.04032,"pop":264914,"search_terms":["ratlam"]},{"id":1258451,"name":"Ranipet","names":{"en":"Ranipet"},"country":"IN","lat":12.92471,"lon":79.33331,"pop":264330,"search_terms":["ranipet"]},{"id":5511077,"name":"Reno","names":{"en":"Reno","de":"Reno","es":"Reno","fr":"Reno","ja":"リノ","nl":"Reno","pl":"Reno","pt":"Reno","sv":"Reno","ar":"رينو","ru":"Рино","mr":"रिनो","fa":"رینو، نوادا","uk":"Рено","ko":"리노","kk":"Рэно","zh":"雷諾","el":"Ρίνο","ur":"رینو، نیواڈا"},"country":"US","lat":39.52963,"lon":-119.8138,"pop":264165,"search_terms":["رینو، نیواڈا","雷諾","reno","リノ","рэно","رينو","رینو، نوادا","рено","रिनो","рино","리노","ρίνο"]},{"id":3652350,"name":"Riobamba","names":{"en":"Riobamba","de":"Riobamba","es":"Riobamba","fr":"Riobamba","it":"Riobamba","pl":"Riobamba","pt":"Riobamba","ru":"Риобамба","zh":"里奧班巴","ar":"ريوبامبا","th":"รีโอบัมบา","ka":"რიობამბა","ko":"리오밤바","uk":"Ріобамба","ur":"ریوبامبا"},"country":"EC","lat":-1.66506,"lon":-78.65887,"pop":264048,"search_terms":["რიობამბა","里奧班巴","รีโอบัมบา","riobamba","ріобамба","ريوبامبا","리오밤바","ریوبامبا","риобамба"]},{"id":13546341,"name":"Rangel","names":{"en":"Rangel","ja":"ランゲル"},"country":"AO","lat":-8.82644,"lon":13.26285,"pop":261000,"search_terms":["rangel","ランゲル"]},{"id":3450909,"name":"Rondonopolis","names":{"en":"Rondonopolis","pt":"Rondonópolis","sv":"Rondonópolis"},"country":"BR","lat":-16.47083,"lon":-54.63556,"pop":259167,"search_terms":["rondonopolis","rondonópolis"]},{"id":293703,"name":"Rishon LeTsiyyon","names":{"en":"Rishon LeZiyyon","de":"Rischon LeZion","pl":"Riszon le-Cijjon","fr":"Rishon LeZion","nl":"Risjon Letsion","ru":"Ришон-ле-Цион","es":"Rishon LeZion"},"country":"IL","lat":31.97102,"lon":34.78939,"pop":258535,"search_terms":["risjon letsion","rischon lezion","rishon letsiyyon","riszon le-cijjon","rishon le ziyon","ришон-ле-цион","rishon letsiyon","rishon lezion","rishon le zion","rishon lsiyon","rishon le siyon","rishon leziyyon"]},{"id":10942183,"name":"Rugao","names":{"en":"Rugao"},"country":"CN","lat":32.37035,"lon":120.57649,"pop":257400,"search_terms":["rugao"]},{"id":962367,"name":"Richards Bay","names":{"en":"Richards Bay","ru":"Ричардс-Бей"},"country":"ZA","lat":-28.78301,"lon":32.03768,"pop":252968,"search_terms":["ричардс-бей","richards bay"]},{"id":695594,"name":"Rivne","names":{"en":"Rivne","de":"Riwne","ja":"リウネ","pl":"Równe","ru":"Ровно","sv":"Rivne","uk":"Рівне","nl":"Rivne","fa":"ریونه","ko":"리우네","ka":"როვნო","ar":"روفنو","hy":"Ռովնո","zh":"羅夫諾"},"country":"UA","lat":50.62036,"lon":26.23695,"pop":245289,"search_terms":["ровно","riwne","ریونه","równe","리우네","羅夫諾","ռովնո","روفنو","rivne","リウネ","როვნო","рівне"]},{"id":8347656,"name":"Ramagundam","names":{"en":"Ramagundam","fa":"راماگوندام","ta":"ராமகுண்டம்","te":"రామగుండం","ur":"راماگڈم","zh":"拉马古恩达姆"},"country":"IN","lat":18.755,"lon":79.474,"pop":242979,"search_terms":["拉马古恩达姆","ராமகுண்டம்","راماگوندام","راماگڈم","రామగుండం","ramagundam"]},{"id":1258182,"name":"Rewa","names":{"en":"Rewa","sv":"Rewa","ru":"Рева","fa":"ریوا","hi":"रीवा","ja":"リーワー","mr":"रेवा शहर","zh":"雷瓦"},"country":"IN","lat":24.53256,"lon":81.29234,"pop":235654,"search_terms":["雷瓦","रीवा","リーワー","रेवा शहर","ریوا","rewa","рева"]},{"id":1259012,"name":"Raichur","names":{"en":"Raichur","ru":"Райчур"},"country":"IN","lat":16.20546,"lon":77.35567,"pop":234073,"search_terms":["raichur","райчур"]},{"id":2983990,"name":"Rennes","names":{"en":"Rennes","es":"Rennes","de":"Rennes","ar":"رين","fr":"Rennes","id":"Rennes","it":"Rennes","ja":"レンヌ","nl":"Rennes","pl":"Rennes","pt":"Rennes","ro":"Rennes","ru":"Ренн","sv":"Rennes","zh":"雷恩","cs":"Rennes","th":"แรน","kk":"Ренн","mr":"ऱ्हेन","ko":"렌","ka":"რენი","uk":"Ренн","fa":"رن","el":"Ρεν","ta":"ரேன்","az":"Ren","hy":"Ռեն","ur":"رین"},"country":"FR","lat":48.11109,"lon":-1.67431,"pop":227830,"search_terms":["رين","ऱ्हेन","レンヌ","แรน","rennes","ren","رین","雷恩","ռեն","ренн","ρεν","렌","ரேன்","რენი","رن"]},{"id":760778,"name":"Radom","names":{"en":"Radom","de":"Radom","pl":"Radom","fr":"Radom","es":"Radom","id":"Radom","nl":"Radom","ro":"Radom","ru":"Радом","sv":"Radom","zh":"拉多姆","ko":"라돔","fa":"رادوم","uk":"Радом","ja":"ラドム","ka":"რადომი","th":"ราดอม","ar":"رادوم","el":"Ράντομ","hy":"Ռադոմ","tt":"Радом"},"country":"PL","lat":51.40253,"lon":21.14714,"pop":226794,"search_terms":["라돔","ラドム","ռադոմ","拉多姆","ราดอม","ράντομ","радом","რადომი","رادوم","radom"]},{"id":4781708,"name":"Richmond","names":{"en":"Richmond","ru":"Ричмонд","fa":"ریچموند، ویرجینیا","ar":"ريتشموند","uk":"Ричмонд","mr":"रिचमंड","ta":"ரிச்மண்ட்","ja":"リッチモンド","el":"Ρίτσμοντ","ko":"리치먼드","hy":"Ռիչմոնդ","zh":"里士满","ky":"Ричмонд","ur":"رچمنڈ، ورجینیا"},"country":"US","lat":37.55376,"lon":-77.46026,"pop":226610,"search_terms":["ричмонд","ռիչմոնդ","ریچموند، ویرجینیا","ரிச்மண்ட்","リッチモンド","richmond","里士满","رچمنڈ، ورجینیا","रिचमंड","ρίτσμοντ","리치먼드","ريتشموند"]},{"id":6119109,"name":"Regina","names":{"en":"Regina","fr":"Régina","de":"Regina","pl":"Regina","es":"Regina","cs":"Regina","it":"Regina","ja":"レジャイナ","nl":"Regina","pt":"Regina","ru":"Реджайна","ta":"ரெஜைனா","ko":"리자이나","ka":"რეჯაინა","fa":"رجاینا","uk":"Реджайна","el":"Ρεγγίνα","ar":"ريجاينا","zh":"里贾纳","hy":"Ռեջայնա","mr":"रेजिना","ur":"ریجینا، ساسکچیوان"},"country":"CA","lat":50.45008,"lon":-104.6178,"pop":226404,"search_terms":["regina","ریجینا، ساسکچیوان","régina","レジャイナ","ரெஜைனா","리자이나","ريجاينا","रेजिना","里贾纳","რეჯაინა","реджайна","ρεγγίνα","ռեջայնա","رجاینا"]},{"id":3451055,"name":"Rio Verde","names":{"en":"Rio Verde","kk":"Риу-Верди","ru":"Риу-Верди","zh":"里奥韦尔迪","fa":"ریو وارده، گوییاس","hy":"Ռիու Վերդի","ka":"რიუ-ვერდი"},"country":"BR","lat":-17.79806,"lon":-50.92806,"pop":225696,"search_terms":["риу-верди","ռիու վերդի","რიუ-ვერდი","里奥韦尔迪","ریو وارده، گوییاس","rio verde"]},{"id":98717,"name":"Ramadi","names":{"en":"Ramadi","de":"Ramadi","es":"Ramadi","id":"Ramadi","nl":"Ramadi","fa":"رمادی","pl":"Ar-Ramadi","ar":"الرمادي","fr":"Ramadi","ja":"ラマーディー","kk":"Эр-Рамади","ko":"라마디","ro":"Ar Ramadi","uk":"Ер-Рамаді","ur":"رمادی","ru":"Эр-Рамади","sv":"Al-Ramadi","zh":"拉馬迪","cs":"Ramádí","el":"Ραμάντι","ka":"რამადი","az":"Ramadi","ku":"Remadî","tr":"Ramadi"},"country":"IQ","lat":33.42056,"lon":43.30778,"pop":223500,"search_terms":["라마디","الرمادي","remadî","ラマーディー","ramadi","ar ramadi","ер-рамаді","რამადი","ramádí","ar-ramadi","эр-рамади","拉馬迪","ραμάντι","al-ramadi","رمادی"]},{"id":11101625,"name":"Rufisque est","names":{"en":"Rufisque est"},"country":"SN","lat":14.7162,"lon":-17.27283,"pop":221066,"search_terms":["rufisque est"]},{"id":10524295,"name":"Raniganj","names":{"en":"Raniganj"},"country":"IN","lat":17.42841,"lon":78.49361,"pop":217910,"search_terms":["raniganj"]},{"id":500004,"name":"Rybinsk","names":{"en":"Rybinsk","de":"Rybinsk","pl":"Rybińsk","id":"Rybinsk","ja":"ルイビンスク","nl":"Rybinsk","ru":"Рыбинск","es":"Rýbinsk","ar":"رايبانسك","ro":"Rîbinsk","uk":"Рибінськ","fa":"ریبینسک","ko":"리빈스크","tg":"Рибинск","az":"Rıbinsk","zh":"雷宾斯克","tr":"Rıbinsk"},"country":"RU","lat":58.04562,"lon":38.83811,"pop":216724,"search_terms":["рыбинск","ریبینسک","рибінськ","rýbinsk","리빈스크","рибинск","rybińsk","رايبانسك","rıbinsk","rîbinsk","雷宾斯克","ルイビンスク","rybinsk"]},{"id":13308246,"name":"Raurkela Industrial Township","names":{"en":"Raurkela Industrial Township"},"country":"IN","lat":22.19994,"lon":84.86176,"pop":216410,"search_terms":["raurkela industrial township"]},{"id":3873775,"name":"Rancagua","names":{"en":"Rancagua","es":"Rancagua","de":"Rancagua","pl":"Rancagua","fr":"Rancagua","it":"Rancagua","pt":"Rancagua","sv":"Rancagua","ru":"Ранкагуа","ko":"랑카과","ka":"რანკაგუა","ja":"ランカグア","uk":"Ранкагуа","el":"Ρανκάγουα","zh":"兰卡瓜","th":"รังกากวา"},"country":"CL","lat":-34.1691,"lon":-70.74053,"pop":212695,"search_terms":["랑카과","ランカグア","ранкагуа","ρανκάγουα","รังกากวา","რანკაგუა","rancagua","兰卡瓜"]},{"id":6122085,"name":"Richmond","names":{"en":"Richmond","ru":"Ричмонд","ja":"リッチモンド","ko":"리치먼드","ar":"ريتشموند","uk":"Річмонд","zh":"列治文","ur":"رچمنڈ، برٹش کولمبیا"},"country":"CA","lat":49.17003,"lon":-123.13683,"pop":209937,"search_terms":["ричмонд","رچمنڈ، برٹش کولمبیا","リッチモンド","richmond","列治文","리치먼드","річмонд","ريتشموند"]},{"id":5134086,"name":"Rochester","names":{"en":"Rochester","de":"Rochester","fr":"Rochester","ja":"ロチェスター","nl":"Rochester","pl":"Rochester","pt":"Rochester","ru":"Рочестер","sv":"Rochester","uk":"Рочестер","es":"Rochester","id":"Rochester","bn":"রচেস্টার","it":"Rochester","te":"రోచెస్టర్","th":"รอเชสเตอร์","ko":"로체스터","ar":"روتشستر","hi":"रोचेस्टर","mr":"रॉचेस्टर","el":"Ρότσεστερ","fa":"روچستر، نیویورک","zh":"羅徹斯特","tg":"Рочестер","ur":"روچیسٹر، نیو یارک"},"country":"US","lat":43.15478,"lon":-77.61556,"pop":209802,"search_terms":["రోచెస్టర్","羅徹斯特","روچستر، نیویورک","ロチェスター","روتشستر","रोचेस्टर","로체스터","روچیسٹر، نیو یارک","รอเชสเตอร์","ρότσεστερ","рочестер","rochester","রচেস্টার","रॉचेस्टर"]},{"id":6122091,"name":"Richmond Hill","names":{"en":"Richmond Hill","zh":"列治文山","ja":"リッチモンドヒル","ar":"ريتشموند هيل","fa":"ریچموند هیل، انتاریو","ko":"리치먼드힐","uk":"Ричмонд-Гілл","ru":"Ричмонд-Хилл"},"country":"CA","lat":43.87111,"lon":-79.43725,"pop":202022,"search_terms":["ريتشموند هيل","리치먼드힐","ریچموند هیل، انتاریو","列治文山","烈治文山","ричмонд-гілл","ричмонд-хилл","リッチモンドヒル","richmond hill"]},{"id":1629710,"name":"Rengasdengklok","names":{"en":"Rengasdengklok","id":"Rengasdengklok"},"country":"ID","lat":-6.15917,"lon":107.29806,"pop":201463,"search_terms":["rengasdengklok"]},{"id":3451234,"name":"Rio Claro","names":{"en":"Rio Claro"},"country":"BR","lat":-22.41139,"lon":-47.56139,"pop":201418,"search_terms":["rio claro"]},{"id":13561808,"name":"Rayon KTZ","names":{"en":"Rayon KTZ","uk":"Район ХТЗ"},"country":"UA","lat":49.94349,"lon":36.36959,"pop":200000,"search_terms":["rayon ktz","район хтз","rayon khtz","район харківського тракторного завода"]},{"id":1735150,"name":"Rawang","names":{"en":"Rawang","ms":"Rawang"},"country":"MY","lat":3.3213,"lon":101.5767,"pop":199095,"search_terms":["rawang"]},{"id":759734,"name":"Rzeszow","names":{"en":"Rzeszow","pl":"Rzeszów","de":"Rzeszów","fr":"Rzeszów","es":"Rzeszów","cs":"Řešov","id":"Rzeszów","it":"Rzeszów","ja":"ジェシュフ","nl":"Rzeszów","pt":"Rzeszów","ro":"Rzeszów","ru":"Жешув","sv":"Rzeszów","ar":"جيشوف","uk":"Ряшів","fa":"ژشوف","ko":"제슈프","zh":"热舒夫","th":"เชชูฟ","az":"Jeşuv","el":"Ζέσουφ"},"country":"PL","lat":50.04132,"lon":21.99901,"pop":198317,"search_terms":["ζέσουφ","제슈프","жешув","ジェシュフ","rzeszów","řešov","热舒夫","جيشوف","เชชูฟ","ژشوف","jeşuv","rzeszow","ряшів"]},{"id":2844588,"name":"Rostock","names":{"en":"Rostock","de":"Rostock","es":"Rostock","ar":"روستوك","fr":"Rostock","id":"Rostock","it":"Rostock","ja":"ロストック","ko":"로스토크","nl":"Rostock","pl":"Rostock","pt":"Rostock","ro":"Rostock","ru":"Росток","sv":"Rostock","el":"Ρόστοκ","ka":"როსტოკი","kk":"Росток","fa":"روستوک","uk":"Росток","az":"Rostok","zh":"罗斯托克","th":"รอสทอค"},"country":"DE","lat":54.0887,"lon":12.14049,"pop":198293,"search_terms":["როსტოკი","rostock","روستوك","روستوک","罗斯托克","rostok","ρόστοκ","รอสทอค","ロストック","росток","로스토크"]},{"id":2984114,"name":"Reims","names":{"en":"Reims","ru":"Реймс","ar":"رانس","th":"แร็งส์","ka":"რეიმსი","mr":"रेंस","ja":"ランス","cs":"Remeš","fa":"رنس","uk":"Реймс","hy":"Ռեյմս","el":"Ρενς","ko":"랭스","zh":"兰斯","kk":"Реймс","ur":"رمس","fr":"Reims","de":"Reims"},"country":"FR","lat":49.26526,"lon":4.02853,"pop":196565,"search_terms":["แร็งส์","remeš","रेंस","رنس","რეიმსი","ランス","reims","رانس","реймс","ρενς","ռեյմս","랭스","رمس","兰斯"]},{"id":3670745,"name":"Riohacha","names":{"en":"Riohacha","sv":"Riohacha","es":"Riohacha","de":"Riohacha"},"country":"CO","lat":11.54444,"lon":-72.90722,"pop":188014,"search_terms":["rio de la hacha","riohacha"]},{"id":3451138,"name":"Rio Grande","names":{"en":"Rio Grande","es":"Rio Grande","fr":"Rio Grande","pt":"Rio Grande","ru":"Рио-Гранде"},"country":"BR","lat":-32.035,"lon":-52.09861,"pop":187838,"search_terms":["rio grande","рио-гранде"]},{"id":1259064,"name":"Raebareli","names":{"en":"Raebareli","hi":"रायबरेली","de":"Raebareli","pt":"Raebareli","uk":"Рай-Барелі","ur":"رائے بریلی","mr":"रायबरेली","ms":"Rae Bareli","el":"Ραμπερέλι","it":"Raebareli","zh":"拉埃巴雷利","es":"Raebareli","ar":"راي بريلي","vi":"Rae Bareli","ja":"ラエバレリ","fa":"رائه برلی","nl":"Raebareli","ru":"Рай-Барели","fr":"Rae Bareli","bn":"রায়বেরেলি","sv":"Rae Bareli","ko":"라에바렐리","ta":"ரேபரேலி","te":"రాయ్‌బరేలీ","th":"ไรบาเรลี","pl":"Raebareli"},"country":"IN","lat":26.2309,"lon":81.23315,"pop":186433,"search_terms":["raebareli","拉埃巴雷利","라에바렐리","رائے بریلی","rae bareli","రాయ్‌బరేలీ","रायबरेली","ไรบาเรลี","рай-барели","رائه برلی","рай-барелі","ραμπερέλι","راي بريلي","ரேபரேலி","রায়বেরেলি","ラエバレリ"]},{"id":1691444,"name":"Roxas City","names":{"en":"Roxas City","ru":"Рохас"},"country":"PH","lat":11.58528,"lon":122.75111,"pop":185236,"search_terms":["roxas city","рохас"]},{"id":2523630,"name":"Reggio Calabria","names":{"en":"Reggio Calabria","pl":"Reggio di Calabria","de":"Reggio di Calabria","ar":"ريدجو كالابريا","fr":"Reggio de Calabre","it":"Reggio Calabria","ja":"レッジョ・ディ・カラブリア","nl":"Reggio di Calabria","pt":"Reggio di Calabria","cs":"Reggio di Calabria","id":"Reggio di Calabria","sv":"Reggio di Calabria","es":"Regio de Calabria","ru":"Реджо-ди-Калабрия","tr":"Reggio Calabria"},"country":"IT","lat":38.11047,"lon":15.66129,"pop":182455,"search_terms":["レッジョ・ディ・カラブリア","ريدجو كالابريا","reggio calabria","regio de calabria","reggio de calabre","reggio di calabria","реджо-ди-калабрия"]},{"id":5385955,"name":"Rancho Cucamonga","names":{"en":"Rancho Cucamonga","de":"Rancho Cucamonga","nl":"Rancho Cucamonga","ja":"ランチョクカモンガ","ko":"랜초쿠카몽가","fa":"رانچو کوکامونگا، کالیفرنیا","ar":"رانتشو كوكامونغا","ru":"Ранчо-Кукамонга","zh":"庫卡蒙格牧場","uk":"Ранчо-Кукамонґа"},"country":"US","lat":34.1064,"lon":-117.59311,"pop":175236,"search_terms":["رانتشو كوكامونغا","ранчо-кукамонга","rancho cucamonga","ранчо-кукамонґа","ランチョクカモンガ","庫卡蒙格牧場","랜초쿠카몽가","رانچو کوکامونگا، کالیفرنیا"]},{"id":3169522,"name":"Reggio nell'Emilia","names":{"en":"Reggio Emilia","it":"Reggio nell'Emilia","ru":"Реджо-Эмилия","fr":"Reggio d'Émilie"},"country":"IT","lat":44.69825,"lon":10.63125,"pop":171944,"search_terms":["реджо-эмилия","reggio emilia","reggio nell'emilia","reggio","reggio d'émilie"]},{"id":293788,"name":"Ramat Gan","names":{"en":"Ramat Gan","pl":"Ramat Gan","fr":"Ramat Gan","es":"Ramat Gan","de":"Ramat Gan","nl":"Ramat Gan","pt":"Ramat Gan","sv":"Ramat Gan","ru":"Рамат-Ган","ms":"Ramat-Gan","ka":"რამათ-განი","ar":"رمات غان","ja":"ラマト・ガン","ur":"رمت غان","uk":"Рамат-Ган","fa":"رمت گن","el":"Ραμάτ Γκαν","ko":"라마트간","zh":"拉馬干","az":"Ramat-Qan"},"country":"IL","lat":32.08227,"lon":34.81065,"pop":170822,"search_terms":["ramat-qan","რამათ-განი","رمت گن","ramat-gan","ラマト・ガン","рамат-ган","ramat gan","라마트간","拉馬干","رمات غان","رمت غان","ραμάτ γκαν"]},{"id":1259009,"name":"Raiganj","names":{"en":"Raiganj"},"country":"IN","lat":25.61281,"lon":88.12449,"pop":170252,"search_terms":["raiganj"]},{"id":3451205,"name":"Rio das Ostras","names":{"en":"Rio das Ostras"},"country":"BR","lat":-22.52694,"lon":-41.945,"pop":168099,"search_terms":["rio das ostras"]},{"id":13561146,"name":"Rutchenkivskyi","names":{"en":"Rutchenkivskyi","ja":"ルチェンキフスキー地区","uk":"Рутченківський район"},"country":"UA","lat":47.97597,"lon":37.69677,"pop":168029,"search_terms":["рутченкове","rutchenkove","рутченківський район","rutchenkivskyi district","rutchenkivskyi","ルチェンキフスキー地区","rutchenkivskyi rayon","рутченківський"]},{"id":1258831,"name":"Raj-Nandgaon","names":{"en":"Raj-Nandgaon"},"country":"IN","lat":21.09687,"lon":81.0289,"pop":163114,"search_terms":["raj-nandgaon"]},{"id":1258109,"name":"Robertsonpet","names":{"en":"Robertsonpet","hi":"रॉबर्टसनपेट","de":"Robertsonpet","pt":"Robertson Pet","bn":"রবার্টসনপেট","fr":"Robertson Pet","sv":"Robertson Pet","ms":"Robertson Pet","it":"Robertson Pet","ta":"ராபர்ட்சன்பேட்டை","es":"Robertsonpet","zh":"罗贝尔特索恩佩特","vi":"Robertson Pet","nl":"Robertson Pet"},"country":"IN","lat":12.95629,"lon":78.27539,"pop":162230,"search_terms":["রবার্টসনপেট","robertsonpet","ராபர்ட்சன்பேட்டை","robertson pet","罗贝尔特索恩佩特","रॉबर्टसनपेट"]},{"id":1493467,"name":"Rubtsovsk","names":{"en":"Rubtsovsk","ko":"룹촙스크","ru":"Рубцовск","de":"Rubzowsk","fr":"Roubtsovsk","it":"Rubcovsk","nl":"Roebtsovsk","ar":"روبتسوفسك","fa":"روبتسوفسک","ja":"ルプツォフスク","uk":"Рубцовськ","pl":"Rubcowsk","zh":"魯布佐夫斯克","cs":"Rubcovsk","ro":"Rubțovsk"},"country":"RU","lat":51.51473,"lon":81.20613,"pop":161065,"search_terms":["рубцовск","rubzowsk","рубцовськ","rubcowsk","roebtsovsk","rubtsovsk","روبتسوفسک","roubtsovsk","魯布佐夫斯克","룹촙스크","ルプツォフスク","rubțovsk","rubcovsk","روبتسوفسك"]},{"id":3838874,"name":"Rio Cuarto","names":{"en":"Rio Cuarto","de":"Río Cuarto","es":"Ciudad de Río Cuarto","pt":"Río Cuarto","pl":"Río Cuarto","fr":"Río Cuarto","it":"Río Cuarto","ru":"Рио-Куарто","az":"Rio-Kuarto","fa":"ریو کوارتو","ja":"リオ・クアルト","uk":"Ріо-Кварто","zh":"里奥夸尔托","ar":"ريو كوارتو، قرطبة","hy":"Ռիո Կուարտո","ka":"რიო-კუარტო","ko":"리오쿠아르토"},"country":"AR","lat":-33.13044,"lon":-64.35272,"pop":157010,"search_terms":["リオ・クアルト","rio cuarto","ріо-кварто","ciudad de río cuarto","리오쿠아르토","里奥夸尔托","ռիո կուարտո","რიო-კუარტო","rio-kuarto","ریو کوارتو","río cuarto","ريو كوارتو، قرطبة","рио-куарто"]},{"id":8740322,"name":"Rudrapur","names":{"en":"Rudrapur","uk":"Рудрапур","ur":"رودارپور","ru":"Рудрапур","zh":"鲁德拉普尔"},"country":"IN","lat":28.98,"lon":79.4,"pop":154554,"search_terms":["鲁德拉普尔","رودارپور","рудрапур","rudrapur"]},{"id":1259005,"name":"Raigarh","names":{"en":"Raigarh","sv":"Raigarh","ru":"Райгарх","fr":"Raigârh","ar":"رايجاره","bn":"রায়গড়","hi":"रायगढ़","mr":"रायगढ","ur":"رائے گڑھ","zh":"赖格尔","de":"Raigarh","pt":"Raigarh","ko":"라이가르","ms":"Raigarh","it":"Raigarh","ta":"ராய்கர்","es":"Raigarh","te":"రాయఘర్","vi":"Raigarh","ja":"ライガル","tl":"Raigarh","pl":"Rajgarh","nl":"Raigarh"},"country":"IN","lat":21.89764,"lon":83.3966,"pop":150019,"search_terms":["رائے گڑھ","रायगढ","ライガル","रायगढ़","raigârh","赖格尔","రాయఘర్","райгарх","رايجاره","ராய்கர்","rajgarh","라이가르","রায়গড়","raigarh"]},{"id":293725,"name":"Rehovot","names":{"en":"Rehovot","pl":"Rechowot","de":"Rechovot","fr":"Rehovot","nl":"Rehovot","pt":"Rehovot","ro":"Rehovot","ru":"Реховот","es":"Rejovot","id":"Rehovot"},"country":"IL","lat":31.89421,"lon":34.81199,"pop":149392,"search_terms":["rechowot","rehovot","rejovot","rechovot","реховот"]},{"id":52407,"name":"Ruqi","names":{"en":"Ruqi"},"country":"SO","lat":9.97293,"lon":43.4276,"pop":148702,"search_terms":["ruqi"]},{"id":3169361,"name":"Rimini","names":{"en":"Rimini","de":"Rimini","ar":"ريميني","cs":"Rimini","fr":"Rimini","id":"Rimini","it":"Rimini","ja":"リミニ","nl":"Rimini","pl":"Rimini","pt":"Rimini","ro":"Rimini","ru":"Римини","sv":"Rimini","uk":"Ріміні","es":"Rímini","tr":"Rimini"},"country":"IT","lat":44.05755,"lon":12.56528,"pop":148688,"search_terms":["リミニ","rímini","rimini","ريميني","римини","ріміні"]},{"id":4907959,"name":"Rockford","names":{"en":"Rockford","de":"Rockford","nl":"Rockford","pl":"Rockford","pt":"Rockford","sv":"Rockford","fr":"Rockford","bn":"রকফোর্ড","ja":"ロックフォード","ar":"روكفورد","ko":"록퍼드","ru":"Рокфорд","zh":"罗克福德","fa":"راک‌فورد، ایلینوی","uk":"Рокфорд","ur":"راک فورڈ، الینوائے"},"country":"US","lat":42.27113,"lon":-89.094,"pop":148278,"search_terms":["ロックフォード","روكفورد","罗克福德","рокфорд","راک‌فورد، ایلینوی","rockford","রকফোর্ড","راک فورڈ، الینوائے","록퍼드"]},{"id":118994,"name":"Rafsanjan","names":{"en":"Rafsanjan","ru":"Рафсанджане","fa":"رفسنجان"},"country":"IR","lat":30.4067,"lon":55.9939,"pop":147680,"search_terms":["рафсанджане","rafsanjan","رفسنجان"]},{"id":3873454,"name":"Renca","names":{"en":"Renca","ru":"Ренка"},"country":"CL","lat":-33.4019,"lon":-70.70619,"pop":147151,"search_terms":["ренка","renca"]},{"id":13546323,"name":"Rosemont-La Petite-Patrie","names":{"en":"Rosemont-La Petite-Patrie"},"country":"CA","lat":45.53661,"lon":-73.60686,"pop":146501,"search_terms":["rosemont-la petite-patrie"]},{"id":3086800,"name":"Ruda Slaska","names":{"en":"Ruda Slaska","pl":"Ruda Śląska","de":"Ruda Śląska","fr":"Ruda Śląska","id":"Ruda Śląska","it":"Ruda Śląska","nl":"Ruda Śląska","ro":"Ruda Śląska","ru":"Руда-Сленска","th":"รูดาซลอนสกา","ko":"루다실롱스카","uk":"Руда-Шльонська","ja":"ルダ・シロンスカ","fa":"رودا شلوسکا","zh":"鲁达希隆斯卡"},"country":"PL","lat":50.2584,"lon":18.85632,"pop":146189,"search_terms":["루다실롱스카","ruda śląska","รูดาซลอนสกา","鲁达希隆斯卡","ルダ・シロンスカ","руда-сленска","ruda slaska","руда-слёнская","руда-шльонська","رودا شلوسکا"]},{"id":1185240,"name":"Ramna Maidan","names":{"en":"Ramna Maidan"},"country":"BD","lat":23.73333,"lon":90.4,"pop":143677,"search_terms":["ramna maidan"]},{"id":1258178,"name":"Rewari","names":{"en":"Rewari"},"country":"IN","lat":28.199,"lon":76.6183,"pop":143021,"search_terms":["rewari"]},{"id":3086586,"name":"Rybnik","names":{"en":"Rybnik","pl":"Rybnik","fr":"Rybnik","de":"Rybnik","cs":"Rybnik","id":"Rybnik","ja":"リブニク","nl":"Rybnik","ro":"Rybnik","es":"Rybnik","ko":"리브니크","uk":"Рибник","fa":"ربنیک","el":"Ρίμπνικ","ru":"Рыбник","zh":"雷布尼克","ar":"ريبنيك","tt":"Рыбник"},"country":"PL","lat":50.09713,"lon":18.54179,"pop":142510,"search_terms":["ربنیک","рыбник","ρίμπνικ","рибник","ريبنيك","rybnik","리브니크","雷布尼克","リブニク"]},{"id":1630058,"name":"Rangkasbitung","names":{"en":"Rangkasbitung","id":"Rangkasbitung"},"country":"ID","lat":-6.3591,"lon":106.2494,"pop":137041,"search_terms":["rangkasbitung"]},{"id":368277,"name":"Rabak","names":{"en":"Rabak","de":"Rabak","ar":"ربك","fr":"Rabak","es":"Rabak","ru":"Рабак","pl":"Rabak","tr":"Rabak","uk":"Рабак"},"country":"SD","lat":13.18087,"lon":32.73999,"pop":135281,"search_terms":["rabak","рабак","ربك"]},{"id":1699296,"name":"Rodriguez","names":{"en":"Rodriguez","ru":"Родригес","es":"Rodríguez","zh":"罗德里格斯"},"country":"PH","lat":14.76011,"lon":121.19993,"pop":134432,"search_terms":["罗德里格斯","родригес","rodríguez","rodriguez"]},{"id":963230,"name":"Randfontein","names":{"en":"Randfontein","ru":"Рандфонтейн","zh":"蘭德方坦"},"country":"ZA","lat":-26.1844,"lon":27.70203,"pop":133654,"search_terms":["蘭德方坦","рандфонтейн","randfontein"]},{"id":11962381,"name":"Rio Pequeno","names":{"en":"Rio Pequeno"},"country":"BR","lat":-23.57139,"lon":-46.75887,"pop":131631,"search_terms":["rio pequeno"]},{"id":1258470,"name":"Raniganj","names":{"en":"Raniganj","pt":"Raniganj","ru":"Ранигандже"},"country":"IN","lat":23.6164,"lon":87.13061,"pop":131261,"search_terms":["raniganj","ранигандже"]},{"id":1258916,"name":"Rajapalayam","names":{"en":"Rajapalayam"},"country":"IN","lat":9.45296,"lon":77.55335,"pop":130442,"search_terms":["rajapalayam"]},{"id":5388881,"name":"Roseville","names":{"en":"Roseville","de":"Roseville","it":"Roseville","ru":"Розвелл","ar":"روزفيل","fa":"رزویل، کالیفرنیا","ko":"로즈빌","ja":"ローズヴィル","zh":"羅斯維爾","uk":"Розвелл","tt":"Роузвил","pt":"Roseville","ur":"روزویل، کیلیفورنیا","uz":"Roseville","es":"Roseville","vi":"Roseville","nl":"Roseville","fr":"Roseville","sv":"Roseville","sw":"Roseville","cs":"Roseville","tl":"Roseville","pl":"Roseville","tr":"Roseville"},"country":"US","lat":38.75212,"lon":-121.28801,"pop":130269,"search_terms":["روزویل، کیلیفورنیا","ローズヴィル","羅斯維爾","roseville","роузвил","로즈빌","розвилл","روزفيل","رزویل، کالیفرنیا","розвелл"]},{"id":502971,"name":"Ramenki","names":{"en":"Ramenki","ru":"Раменки"},"country":"RU","lat":55.7,"lon":37.5,"pop":130000,"search_terms":["раменки","ramenki"]},{"id":2849483,"name":"Regensburg","names":{"en":"Regensburg","de":"Regensburg","es":"Ratisbona","cs":"Řezno","fr":"Ratisbonne","it":"Ratisbona","ja":"レーゲンスブルク","nl":"Regensburg","pl":"Ratyzbona","pt":"Regensburgo","ru":"Регенсбург","sv":"Regensburg","uk":"Реґенсбурґ","id":"Regensburg","ro":"Regensburg","tr":"Regensburg","vi":"Regensburg","ko":"레겐스부르크","ar":"ريغنسبورغ","el":"Ρέγκενσμπουργκ","ka":"რეგენსბურგი","fa":"رگنسبورگ","zh":"雷根斯堡"},"country":"DE","lat":49.01513,"lon":12.10161,"pop":129151,"search_terms":["雷根斯堡","ريغنسبورغ","ratisbonne","regensburgo","реґенсбурґ","řezno","регенсбург","regensburg","ratisbona","レーゲンスブルク","ρέγκενσμπουργκ","رگنسبورگ","რეგენსბურგი","ratyzbona","레겐스부르크"]},{"id":1691490,"name":"Rosario","names":{"en":"Rosario"},"country":"PH","lat":13.6323,"lon":121.2207,"pop":128352,"search_terms":["rosario"]},{"id":612287,"name":"Rustavi","names":{"en":"Rustavi","pl":"Rustawi","de":"Rustawi","es":"Rustavi","cs":"Rustavi","ka":"რუსთავი","pt":"Rustavi","ro":"Rustavi","ru":"Рустави","tr":"Rustavi","fr":"Roustavi"},"country":"GE","lat":41.56271,"lon":44.9787,"pop":128249,"search_terms":["rustawi","rust'avi","რუსთავი","рустави","roustavi","rustavi"]},{"id":3670730,"name":"Rionegro","names":{"en":"Rionegro","el":"Ριονέγρο","zh":"里奧內格羅","fa":"ریونگرو","ka":"რიონეგრო","ko":"리오네그로","ru":"Рионегро"},"country":"CO","lat":6.15515,"lon":-75.37371,"pop":128153,"search_terms":["里奧內格羅","ریونگرو","rionegro","리오네그로","რიონეგრო","рионегро","ριονέγρο"]},{"id":281102,"name":"Rafah","names":{"en":"Rafah","fr":"Rafah","de":"Rafah","nl":"Rafah","ru":"Рафах","sv":"Rafah","zh":"拉法市","ar":"رفح"},"country":"PS","lat":31.29722,"lon":34.24357,"pop":126305,"search_terms":["拉法市","rafah","рафах","رفح"]},{"id":6544495,"name":"Retiro","names":{"en":"Retiro","hy":"Ռետիրո","ja":"レティーロ"},"country":"ES","lat":40.41317,"lon":-3.68307,"pop":126058,"search_terms":["ռետիրո","retiro","レティーロ"]},{"id":1519843,"name":"Rudnyy","names":{"en":"Rudnyy","kk":"Rūdnyy","ru":"Рудный"},"country":"KZ","lat":52.97244,"lon":63.11055,"pop":124000,"search_terms":["rūdnyy","rudnyy","рудный"],"_key":"r","dumk_id":43},{"id":2483668,"name":"Relizane","names":{"en":"Relizane","fr":"Relizane","pl":"Prowincja Relizane","de":"Relizane","ar":"ولاية غليزان","fa":"غلیزان","id":"Relizane","pt":"Relizane","ro":"Relizane"},"country":"DZ","lat":35.73734,"lon":0.55599,"pop":123255,"search_terms":["ولاية غليزان","غلیزان","غليزان","relizane","prowincja relizane"]},{"id":2849647,"name":"Recklinghausen","names":{"en":"Recklinghausen","de":"Recklinghausen","it":"Recklinghausen","nl":"Recklinghausen","pl":"Recklinghausen","sv":"Recklinghausen","fr":"Recklinghausen","ru":"Реклингхаузен","tr":"Recklinghausen","fa":"رکلینگهاوزن","uk":"Реклінгхаузен","ko":"레클링하우젠","kk":"Реклингхаузен","ja":"レックリングハウゼン","ka":"რეკლინგჰაუზენი","zh":"雷克林豪森"},"country":"DE","lat":51.61379,"lon":7.19738,"pop":122438,"search_terms":["레클링하우젠","رکلینگهاوزن","реклінгхаузен","雷克林豪森","recklinghausen","レックリングハウゼン","реклингхаузен","რეკლინგჰაუზენი"]},{"id":727523,"name":"Ruse","names":{"en":"Ruse","de":"Russe","es":"Ruse","fr":"Roussé","nl":"Roese","pl":"Ruse","ro":"Ruse","ru":"Русе","sv":"Ruse","id":"Ruse","it":"Ruse","pt":"Ruse","tr":"Rusçuk","ja":"ルセ","hy":"Ռուսե","fa":"روسه، بلغارستان","uk":"Русе","el":"Ρούσε","ko":"루세","kk":"Русе","th":"รูเซ","ka":"რუსე","ar":"روسه","zh":"鲁塞","ur":"روسے، بلغاریہ"},"country":"BG","lat":43.84872,"lon":25.9534,"pop":121168,"search_terms":["鲁塞","ռուսե","русе","ruse","rusçuk","რუსე","roese","roussé","روسے، بلغاریہ","ρούσε","russe","rousse","รูเซ","روسه، بلغارستان","ルセ","روسه","루세"]},{"id":289011,"name":"Rustaq","names":{"en":"Rustaq","de":"Rustaq","ru":"Рустака","ar":"الرستاق"},"country":"OM","lat":23.39083,"lon":57.42444,"pop":120000,"search_terms":["rustaq","الرستاق","рустака"]},{"id":740483,"name":"Rize","names":{"en":"Rize","ru":"Ризе","fr":"Rize","es":"Rize","de":"Rize","pl":"Rize","az":"Rizə","cs":"Rizenská provincie","id":"Provinsi Rize","ka":"რიზე","nl":"Rize","sv":"Rize","tr":"Rize","ar":"ريزه","el":"Ριζούντα","fa":"ریزه","hy":"Ռիզե","ja":"リゼ","ko":"리제","zh":"里澤","uk":"Різе","ur":"ریزہ"},"country":"TR","lat":41.02083,"lon":40.52194,"pop":119828,"search_terms":["ռիզե","리제","ризе","rizenská provincie","რიზე","різе","ریزه","ريزه","リゼ","rizə","provinsi rize","ریزہ","ριζούντα","rize","里澤"]},{"id":3413829,"name":"Reykjavik","names":{"en":"Reykjavik","es":"Reikiavik","de":"Reykjavík","pl":"Reykjavík","fr":"Reykjavik","am":"ሬይኪያቪክ","ar":"ريكيافيك","cs":"Reykjavík","el":"Ρέικιαβικ","fa":"ریکیاویک","hy":"Ռեյկյավիկ","id":"Reykjavik","it":"Reykjavík","ja":"レイキャヴィーク","ko":"레이캬비크","nl":"Reykjavik","pt":"Reiquiavique","ro":"Reykjavík","ru":"Рейкьявик","sv":"Reykjavik","th":"เรคยาวิก","tr":"Reykjavik","uk":"Рейк'я́вік","zh":"雷克亞維克","ka":"ქართული","bn":"রেইকিয়াভিক","ku":"Reykjavik","tl":"Reikiavik","kk":"Рейкиявик","ur":"ریکیاوک","tt":"Рейкьявик","az":"Reykyavik","hi":"रेक्जाविक","ta":"ரெய்க்யவிக்","tg":"Рейкявик","te":"రేకవిక్","mr":"रेक्याविक"},"country":"IS","lat":64.13548,"lon":-21.89541,"pop":118918,"search_terms":["雷克亞維克","reykyavik","レイキャヴィーク","ريكيافيك","რეიკიავიკი","ρευκιαβικ","雷克雅維克","ρέικιαβικ","рейкьявик","रेक्जाविक","ሬይኪያቪክ","ரெய்க்யவிக்","рейк'я́вік","рейкиявик","рейкявик","เรคยาวิก","reykjavik","레이캬비크","reykjavík","रेक्याविक","రేకవిక్","রেইকিয়াভিক","ռեյկյավիկ","ქართული","ریکیاوک","ریکیاویک","reikiavik","reiquiavique"]},{"id":11962419,"name":"Raposo Tavares","names":{"en":"Raposo Tavares"},"country":"BR","lat":-23.59245,"lon":-46.78561,"pop":117738,"search_terms":["raposo tavares"]},{"id":2639093,"name":"Rotherham","names":{"en":"Rotherham","de":"Rotherham","id":"Rotherham","nl":"Rotherham","sv":"Rotherham","fr":"Rotherham","ro":"Rotherham","ru":"Ротерем","fa":"راترهام","ja":"ロザラム","hy":"Ռոտերեմ","ko":"로더럼","uk":"Ротергем","zh":"羅瑟勒姆"},"country":"GB","lat":53.43012,"lon":-1.35678,"pop":117618,"search_terms":["羅瑟勒姆","로더럼","ротергем","راترهام","ротерем","ռոտերեմ","rotherham","ロザラム"]},{"id":2482908,"name":"Rouiba","names":{"en":"Rouiba","ar":"الرويبة"},"country":"DZ","lat":36.73829,"lon":3.28079,"pop":117558,"search_terms":["rouiba","الرويبة"]},{"id":2848273,"name":"Remscheid","names":{"en":"Remscheid","de":"Remscheid","es":"Remscheid","fr":"Remscheid","it":"Remscheid","nl":"Remscheid","pl":"Remscheid","sv":"Remscheid","ja":"レムシャイト","ro":"Remscheid","ru":"Ремшайд","tr":"Remscheid","fa":"رمشاید","uk":"Ремшайд","el":"Ρέμσαϊντ","ko":"렘샤이트","kk":"Ремшайд","ka":"რემშაიდი","zh":"雷姆沙伊德","ar":"رمشايد","az":"Remşayd"},"country":"DE","lat":51.17983,"lon":7.1925,"pop":117118,"search_terms":["رمشاید","ремшайд","remscheid","رمشايد","რემშაიდი","雷姆沙伊德","レムシャイト","remşayd","렘샤이트","ρέμσαϊντ"]},{"id":1258126,"name":"Rishra","names":{"en":"Rishra","pt":"Rishra"},"country":"IN","lat":22.72394,"lon":88.34563,"pop":117014,"search_terms":["rishra"]},{"id":2982652,"name":"Rouen","names":{"en":"Rouen","fr":"Rouen","de":"Rouen","pl":"Rouen","es":"Ruan","ar":"روان","cs":"Rouen","hi":"रुआं","id":"Rouen","it":"Rouen","ja":"ルーアン","ko":"루앙","nl":"Rouen","pt":"Ruão","ro":"Rouen","ru":"Руан","sv":"Rouen","fa":"روان","ka":"რუანი","el":"Ρουέν","uk":"Руан","th":"รูอ็อง","az":"Ruan","mr":"रोआँ","am":"ሩዋን","hy":"Ռուան","kk":"Руан","zh":"鲁昂","ky":"Руан","uz":"Ruan"},"country":"FR","lat":49.44313,"lon":1.09932,"pop":116331,"search_terms":["รูอ็อง","ルーアン","ሩዋን","鲁昂","루앙","rouen","ρουέν","რუანი","ռուան","руан","ruan","रोआँ","ruão","रुआं","روان"]},{"id":4724129,"name":"Round Rock","names":{"en":"Round Rock","de":"Round Rock","pt":"Round Rock","ar":"راوند روك","ja":"ラウンドロック","fa":"راند راک، تگزاس","ru":"Раунд-Рок","zh":"朗德羅克","ko":"라운드록","uk":"Раунд-Рок","ur":"راؤنڈ راک، ٹیکساس","tt":"Раунд-Рок","hi":"राउंड रॉक","hy":"Ռաունդ Ռոք","id":"Round Rock","uz":"Round Rock","mr":"राउंड रॉक","ms":"Round Rock","el":"Ράουντ Ροκ","it":"Round Rock","es":"Round Rock","vi":"Round Rock","nl":"Round Rock","fr":"Round Rock","bn":"রাউন্ড রক","sv":"Round Rock","sw":"Round Rock","ta":"ரவுண்டு ராக்","te":"రౌండ్ రాక్","th":"ราวน์ร็อค","pl":"Round Rock","tr":"Round Rock"},"country":"US","lat":30.50826,"lon":-97.6789,"pop":115997,"search_terms":["راؤنڈ راک، ٹیکساس","راند راک، تگزاس","ラウンドロック","రౌండ్ రాక్","ռաունդ ռոք","раунд-рок","round rock","라운드록","রাউন্ড রক","ரவுண்டு ராக்","राउंड रॉक","朗德羅克","ράουντ ροκ","راوند روك","ราวน์ร็อค"]},{"id":3451329,"name":"Ribeirao Pires","names":{"en":"Ribeirao Pires"},"country":"BR","lat":-23.71056,"lon":-46.41333,"pop":115559,"search_terms":["ribeirao pires"]},{"id":13450916,"name":"Recanto das Emas","names":{"en":"Recanto das Emas","pt":"Recanto das Emas"},"country":"BR","lat":-15.90864,"lon":-48.06447,"pop":115550,"search_terms":["recanto das emas"]},{"id":13546322,"name":"Riviere-des-Prairies-Pointe-aux-Trembles","names":{"en":"Riviere-des-Prairies-Pointe-aux-Trembles"},"country":"CA","lat":45.64064,"lon":-73.58463,"pop":113868,"search_terms":["riviere-des-prairies-pointe-aux-trembles"]},{"id":2847736,"name":"Reutlingen","names":{"en":"Reutlingen","de":"Reutlingen","es":"Reutlingen","fr":"Reutlingen","it":"Reutlingen","ja":"ロイトリンゲン","nl":"Reutlingen","pt":"Reutlingen","sv":"Reutlingen","pl":"Reutlingen","cs":"Reutlingen","ru":"Ройтлинген","uk":"Ройтлінген","ko":"로이틀링겐","ar":"رويتلينغن","el":"Ρόιτλιγκεν","zh":"罗伊特林根","kk":"Ройтлинген"},"country":"DE","lat":48.49144,"lon":9.20427,"pop":112627,"search_terms":["ройтлинген","رويتلينغن","ロイトリンゲン","ρόιτλιγκεν","ройтлінген","reutlingen","로이틀링겐","罗伊特林根"]},{"id":5043473,"name":"Rochester","names":{"en":"Rochester","ru":"Рочестер","ja":"ロチェスター","ko":"로체스터","uk":"Рочестер","fa":"راچستر، مینه‌سوتا","ar":"روتشيستر","zh":"羅徹斯特","ur":"روچیسٹر، مینیسوٹا"},"country":"US","lat":44.02163,"lon":-92.4699,"pop":112225,"search_terms":["羅徹斯特","ロチェスター","로체스터","рочестер","راچستر، مینه‌سوتا","rochester","روتشيستر","روچیسٹر، مینیسوٹا"]},{"id":3451668,"name":"Resende","names":{"en":"Resende","de":"Resende","pt":"Resende","kk":"Резенди","uk":"Резенді","ru":"Резенди","zh":"雷森迪","fa":"ریسندی","ko":"헤젠지"},"country":"BR","lat":-22.46889,"lon":-44.44667,"pop":111514,"search_terms":["резенди","雷森迪","헤젠지","ریسندی","resende","резенді"]},{"id":4722625,"name":"Richardson","names":{"en":"Richardson","ru":"Ричардсон","ja":"リチャードソン","ar":"ريتشاردسون","fa":"ریچاردسون، تگزاس","ko":"리처드슨","uk":"Річардсон"},"country":"US","lat":32.94818,"lon":-96.72972,"pop":110815,"search_terms":["richardson","ريتشاردسون","річардсон","리처드슨","リチャードソン","ریچاردسون، تگزاس","ричардсон"]},{"id":8593863,"name":"Rodenkirchen","names":{"en":"Rodenkirchen"},"country":"DE","lat":50.89328,"lon":6.99481,"pop":110158,"search_terms":["rodenkirchen"]},{"id":1028079,"name":"Ressano Garcia","names":{"en":"Ressano Garcia"},"country":"MZ","lat":-25.44278,"lon":31.99528,"pop":110000,"search_terms":["ressano garcia"]},{"id":5387428,"name":"Richmond","names":{"en":"Richmond","de":"Richmond","es":"Richmond","ar":"ريتشموند","fa":"ریچموند، کالیفرنیا","ja":"リッチモンド","ko":"리치먼드","zh":"里士满","uk":"Річмонд","ru":"Ричмонд","tt":"Ричмонд","hi":"रिचमंड","pt":"Richmond","hy":"Ռիչմոնդ","id":"Richmond","ur":"رچمنڈ، کیلیفورنیا","uz":"Richmond","mr":"रिचमंड","ms":"Richmond","el":"Ρίτσμοντ","it":"Richmond","vi":"Richmond","az":"Riçmond","ro":"Richmond","nl":"Richmond","fr":"Richmond","bn":"রিচমন্ড","sv":"Richmond","sw":"Richmond","ta":"ரிச்மண்ட்","cs":"Richmond","te":"రిచ్ మన్డ్","th":"ริชมอนด์","tl":"Richmond","pl":"Richmond","tr":"Richmond"},"country":"US","lat":37.93576,"lon":-122.34775,"pop":109708,"search_terms":["ричмонд","ռիչմոնդ","リッチモンド","ரிச்மண்ட்","riçmond","richmond","里士满","ریچموند، کالیفرنیا","रिचमंड","రిచ్ మన్డ్","ริชมอนด์","رچمنڈ، کیلیفورنیا","ρίτσμοντ","리치먼드","річмонд","রিচমন্ড","ريتشموند"]},{"id":3191648,"name":"Rijeka","names":{"en":"Rijeka","de":"Rijeka","fr":"Rijeka","pl":"Rijeka","es":"Rijeka","cs":"Rijeka","it":"Fiume","ja":"リエカ","nl":"Rijeka","pt":"Rijeka","ro":"Rijeka","ru":"Риека","sv":"Rijeka"},"country":"HR","lat":45.32673,"lon":14.44241,"pop":107964,"search_terms":["fiume","риека","リエカ","rijeka"]},{"id":1607017,"name":"Rayong","names":{"en":"Rayong","de":"Rayong","fr":"Rayong","nl":"Rayong","ru":"Районг","th":"ระยอง","ko":"라용","ur":"رایونگ","zh":"羅勇市"},"country":"TH","lat":12.68095,"lon":101.25798,"pop":106737,"search_terms":["районг","ระยอง","rayong","เทศบาลนครระยอง","羅勇市","라용","رایونگ"]},{"id":1258474,"name":"Ranebennur","names":{"en":"Ranebennur"},"country":"IN","lat":14.62239,"lon":75.62951,"pop":106406,"search_terms":["ranebennur","ranibennur"]},{"id":1336139,"name":"Rangamati","names":{"en":"Rangamati","bn":"Rāngāmāti"},"country":"BD","lat":22.64317,"lon":92.19186,"pop":106069,"search_terms":["rāngāmāti","rangamati"]},{"id":12432977,"name":"Riacho Fundo II","names":{"en":"Riacho Fundo II","pt":"Riacho Fundo II"},"country":"BR","lat":-15.8981,"lon":-48.04671,"pop":105210,"search_terms":["riacho fundo ii"]},{"id":1258044,"name":"Roorkee","names":{"en":"Roorkee","hi":"रुड़की","mr":"रूरकी","ta":"ரூர்க்கி","te":"రూర్కీ","uk":"Руркі","ru":"Рурки","zh":"罗奥尔凯埃","ur":"روڑکی","de":"Roorkee","pt":"Roorkee","id":"Roorkee","ms":"Roorkee","el":"Ρούρκι","it":"Roorkee","es":"Roorkee","ar":"روركي","vi":"Roorkee","ja":"ルールキー","nl":"Roorkee","fr":"Roorkee","bn":"রূড়কী","sv":"Roorkee","ko":"룩키","th":"รูร์คี","pl":"Roorkee","tr":"Roorkee"},"country":"IN","lat":29.86632,"lon":77.89118,"pop":103894,"search_terms":["рурки","روڑکی","रुड़की","रूरकी","руркі","รูร์คี","罗奥尔凯埃","룩키","ரூர்க்கி","روركي","roorkee","রূড়কী","రూర్కీ","ルールキー","ρούρκι"]},{"id":3111933,"name":"Reus","names":{"en":"Reus","de":"Reus","es":"Reus","fr":"Reus","it":"Reus","nl":"Reus","pt":"Reus","pl":"Reus","ru":"Реус"},"country":"ES","lat":41.15612,"lon":1.10687,"pop":103477,"search_terms":["reus","реус"]},{"id":5387288,"name":"Rialto","names":{"en":"Rialto","de":"Rialto","ru":"Риальто","ar":"ريالتو","fa":"ریالتو، کالیفرنیا","ja":"リアルト","ko":"리앨토","th":"รีอัลโต","zh":"里亚托"},"country":"US","lat":34.1064,"lon":-117.37032,"pop":103132,"search_terms":["รีอัลโต","ريالتو","риалто","ریالتو، کالیفرنیا","rialto","리앨토","リアルト","риальто","里亚托"]},{"id":1214073,"name":"Rantauprapat","names":{"en":"Rantauprapat"},"country":"ID","lat":2.1,"lon":99.83333,"pop":103009,"search_terms":["rantauprapat"]},{"id":508751,"name":"Ryazanskiy","names":{"en":"Ryazanskiy","ru":"Рязанский"},"country":"RU","lat":55.73333,"lon":37.76667,"pop":101000,"search_terms":["ryazanskiy","рязанский"]},{"id":6118158,"name":"Red Deer","names":{"en":"Red Deer","de":"Red Deer","pl":"Red Deer","fr":"Red Deer","pt":"Red Deer","vi":"Red Deer","nl":"Red Deer","fa":"رد دیر","ur":"ریڈ ڈئیر، البرٹا","uk":"Ред-Дір","ar":"رد دير","ru":"Ред-Дир","zh":"红鹿市","ja":"レッドディア","tt":"Ред-Дир","hi":"रेड डियर","id":"Red Deer","mr":"रेड डिअर","ms":"Red Deer","el":"Ρεντ Ντιρ","it":"Red Deer","es":"Red Deer","ro":"Red Deer","bn":"রেড ডিয়ার","sv":"Red Deer","sw":"Red Deer","ko":"레드디어","ta":"ரெட் டீர்","cs":"Red Deer","te":"రెడ్ డీర్","th":"เรดเดียร์","tl":"Red Deer","tr":"Red Deer"},"country":"CA","lat":52.26682,"lon":-113.802,"pop":100844,"search_terms":["ред-дир","レッドディア","เรดเดียร์","ред-дір","ρεντ ντιρ","رد دير","red deer","红鹿市","রেড ডিয়ার","रेड डिअर","رد دیر","రెడ్ డీర్","레드디어","रेड डियर","ரெட் டீர்","ریڈ ڈئیر، البرٹا"]},{"id":3988392,"name":"Rosarito","names":{"en":"Rosarito","ru":"Росарито"},"country":"MX","lat":32.36044,"lon":-117.04645,"pop":100660,"search_terms":["росарито","rosario","rosarito beach baja","rosarito"]},{"id":5808189,"name":"Renton","names":{"en":"Renton","hy":"Ռենտոն","ar":"رينتون","ko":"렌턴","ja":"レントン","fa":"رنتون، واشینگتن","ru":"Рентон","zh":"伦顿","ur":"رینٹن، واشنگٹن"},"country":"US","lat":47.48288,"lon":-122.21707,"pop":100242,"search_terms":["レントン","رینٹن، واشنگٹن","ռենտոն","renton","렌턴","رنتون، واشینگتن","伦顿","رينتون","рентон"]},{"id":4782167,"name":"Roanoke","names":{"en":"Roanoke","ru":"Роанок","fa":"رونوک، ویرجینیا","mr":"रोआनोक","ja":"ロアノーク","zh":"羅阿諾克","ar":"روانوك","ko":"로어노크","ur":"روانوک، ورجینیا"},"country":"US","lat":37.27097,"lon":-79.94143,"pop":100011,"search_terms":["रोआनोक","رونوک، ویرجینیا","ロアノーク","羅阿諾克","روانوك","роанок","로어노크","روانوک، ورجینیا","roanoke"]},{"id":2982681,"name":"Roubaix","names":{"en":"Roubaix","fr":"Roubaix","pl":"Roubaix","de":"Roubaix","it":"Roubaix","nl":"Robaais","ro":"Roubaix","sv":"Roubaix","kk":"Рубе","fa":"روبه","ko":"루베","ja":"ルーベ","ar":"روبيه","uk":"Рубе","ru":"Рубе","zh":"鲁贝","th":"รูแบ"},"country":"FR","lat":50.69421,"lon":3.17456,"pop":99507,"search_terms":["ルーベ","روبه","روبيه","루베","鲁贝","robaais","รูแบ","roubaix","рубе"]},{"id":3906466,"name":"Riberalta","names":{"en":"Riberalta","es":"Riberalta","de":"Riberalta","fr":"Riberalta","ja":"リベラルタ","ka":"რიბერალტა","ru":"Риберальта","zh":"里韋拉爾塔","ko":"리베랄타"},"country":"BO","lat":-11.01026,"lon":-66.05257,"pop":99070,"search_terms":["里韋拉爾塔","riberalta","риберальта","리베랄타","リベラルタ","რიბერალტა"]},{"id":5133825,"name":"Richmond Hill","names":{"en":"Richmond Hill","de":"Richmond Hill","it":"Richmond Hill","fr":"Richmond Hill","es":"Richmond Hill","zh":"里士满希尔","ja":"ダントン","fa":"ریچموند هیل، کوئینز","ur":"رچمنڈ ہل، کوئینز","nl":"Richmond Hill"},"country":"US","lat":40.69983,"lon":-73.83125,"pop":98984,"search_terms":["رچمنڈ ہل، کوئینز","ダントン","里士满希尔","ریچموند هیل، کوئینز","richmond hill"]},{"id":1797181,"name":"Renqiu","names":{"en":"Renqiu","nl":"Renqiu","zh":"任丘市"},"country":"CN","lat":38.70941,"lon":116.10086,"pop":98569,"search_terms":["renqiu","任丘市","任丘"]},{"id":2639272,"name":"Rochdale","names":{"en":"Rochdale","de":"Rochdale","nl":"Rochdale","pl":"Rochdale","sv":"Rochdale","ru":"Рочдейл","ko":"로치데일","fa":"روچدیل","uk":"Рочдейл","ja":"ロッチデール","ur":"راچڈیل","zh":"羅奇代爾"},"country":"GB","lat":53.61766,"lon":-2.1552,"pop":97550,"search_terms":["روچدیل","ロッチデール","로치데일","рочдейл","راچڈیل","rochdale","羅奇代爾"]},{"id":3390288,"name":"Rio Largo","names":{"en":"Rio Largo"},"country":"BR","lat":-9.47833,"lon":-35.85333,"pop":97435,"search_terms":["rio largo"]},{"id":502965,"name":"Ramenskoye","names":{"en":"Ramenskoye","de":"Ramenskoje","ko":"라멘스코예","it":"Ramenskoye","nl":"Ramenskoje","ru":"Раменское","es":"Rámenskoye","fr":"Ramenskoïe","ar":"رامنسكوي","fa":"رامنسکویه","ja":"ラメンスコエ","pl":"Ramienskoje","pt":"Ramenskoie","zh":"拉緬斯科耶"},"country":"RU","lat":55.56341,"lon":38.24152,"pop":96000,"search_terms":["rámenskoye","ramenskoïe","رامنسكوي","ramenskoje","라멘스코예","раменское","رامنسکویه","ラメンスコエ","ramienskoje","ramenskoie","ramenskoye","拉緬斯科耶"]},{"id":3838859,"name":"Rio Gallegos","names":{"en":"Rio Gallegos","de":"Río Gallegos","es":"Río Gallegos","fr":"Río Gallegos","id":"Río Gallegos","pl":"Río Gallegos","pt":"Río Gallegos","it":"Río Gallegos","fa":"ریوگالگوس","ja":"リオ・ガジェゴス","ka":"რიო-გალიეგოსი","ko":"리오가예고스","uk":"Ріо-Гальєгос","ru":"Рио-Гальегос","zh":"里奥加耶戈斯","ar":"ريو غاليغوس، سانتا كروز","hy":"Ռիո Գալյեգոս","ur":"ریو گالیگوس، سانتا کروز"},"country":"AR","lat":-51.6253,"lon":-69.25229,"pop":95796,"search_terms":["リオ・ガジェゴス","리오가예고스","ریوگالگوس","río gallegos","рио-гальегос","ريو غاليغوس، سانتا كروز","rio gallegos","ріо-гальєгос","ռիո գալյեգոս","ریو گالیگوس، سانتا کروز","里奥加耶戈斯","რიო-გალიეგოსი"]},{"id":2639192,"name":"Romford","names":{"en":"Romford","ko":"롬퍼드","fa":"رامفورد","zh":"羅姆福德"},"country":"GB","lat":51.57515,"lon":0.18582,"pop":95000,"search_terms":["롬퍼드","romford","رامفورد","羅姆福德"]},{"id":2511716,"name":"Roquetas de Mar","names":{"en":"Roquetas de Mar","es":"Roquetas de Mar","de":"Roquetas de Mar","it":"Roquetas de Mar","nl":"Roquetas de Mar","ro":"Roquetas de Mar","ru":"Рокетас-де-Мар","uk":"Рокетас-де-Мар","ja":"ロケタス・デ・マル","fa":"رکتاس د مار","ar":"روكويتاس دي مار","zh":"罗克塔斯德马尔"},"country":"ES","lat":36.76419,"lon":-2.61475,"pop":94925,"search_terms":["roquetas de mar","ロケタス・デ・マル","رکتاس د مار","罗克塔斯德马尔","روكويتاس دي مار","рокетас-де-мар"]},{"id":4219934,"name":"Roswell","names":{"en":"Roswell","zh":"罗斯韦尔","ko":"로즈웰","ar":"روزويل","fa":"رزول، جورجیا","ur":"روزول، جارجیا"},"country":"US","lat":34.02316,"lon":-84.36159,"pop":94501,"search_terms":["روزول، جارجیا","رزول، جورجیا","로즈웰","罗斯韦尔","روزويل","roswell"]},{"id":882009,"name":"Ruwa","names":{"en":"Ruwa","de":"Ruwa","ru":"Рува","pt":"Ruwa","sw":"Ruwa","it":"Ruwa","fr":"Ruwa","zh":"鲁瓦","uk":"Рува","ja":"ルワ","ha":"Ruwa","pl":"Ruwa","ro":"Ruwa","ur":"رووا","tr":"Ruwa","nl":"Ruwa"},"country":"ZW","lat":-17.88972,"lon":31.24472,"pop":94083,"search_terms":["ルワ","ruwa","鲁瓦","رووا","рува"]},{"id":3628952,"name":"Rubio","names":{"en":"Rubio","ru":"Рубио"},"country":"VE","lat":7.70156,"lon":-72.35551,"pop":93197,"search_terms":["рубио","rubio"]},{"id":668872,"name":"Ramnicu Valcea","names":{"en":"Ramnicu Valcea","de":"Râmnicu Vâlcea","nl":"Râmnicu Vâlcea","pl":"Râmnicu Vâlcea","ro":"Râmnicu Vâlcea","fr":"Râmnicu Vâlcea","cs":"Râmnicu Vâlcea","ar":"رمينكو فيلتشا","el":"Ρίμνικου Βίλτσεα","fa":"رمنیکو ولچا","ja":"ルムニク・ヴルチャ","ko":"름니쿠블체아","tg":"Римнику-Вилча","uk":"Римніку-Вилча","ru":"Рымнику-Вылча","zh":"勒姆尼庫沃爾恰","ka":"რიმნიკუ-ვილჩა","tt":"Рымнику-Вылча","ur":"ریمنیکو ویلچا"},"country":"RO","lat":45.1,"lon":24.36667,"pop":93151,"search_terms":["рымнику-вылча","римніку-вилча","름니쿠블체아","勒姆尼庫沃爾恰","ریمنیکو ویلچا","رمينكو فيلتشا","რიმნიკუ-ვილჩა","ramnicu valcea","ρίμνικου βίλτσεα","ルムニク・ヴルチャ","رمنیکو ولچا","râmnicu vâlcea","римнику-вилча"]},{"id":2850872,"name":"Rahlstedt","names":{"en":"Rahlstedt","de":"Hamburg-Rahlstedt"},"country":"DE","lat":53.60194,"lon":10.15667,"pop":92511,"search_terms":["rahlstedt","hamburg-rahlstedt"]},{"id":1150954,"name":"Ratchaburi","names":{"en":"Ratchaburi","de":"Ratchaburi","fr":"Ratchaburi","nl":"Ratchaburi","ru":"Ратчабури","th":"ราชบุรี"},"country":"TH","lat":13.53671,"lon":99.81712,"pop":92448,"search_terms":["ราชบุรี","ратчабури","ratchaburi"]},{"id":1258803,"name":"Rajpura","names":{"en":"Rajpura","pt":"Rajpura"},"country":"IN","lat":30.47856,"lon":76.59284,"pop":92301,"search_terms":["rajpura"]},{"id":2850174,"name":"Ratingen","names":{"en":"Ratingen","de":"Ratingen","fr":"Ratingen","nl":"Ratingen","ru":"Ратинген","fa":"راتلینگن","ko":"라팅엔","kk":"Ратинген","zh":"拉廷根"},"country":"DE","lat":51.29724,"lon":6.84929,"pop":91606,"search_terms":["拉廷根","راتلینگن","ратинген","ratingen","라팅엔"]},{"id":5570160,"name":"Redding","names":{"en":"Redding","de":"Redding","fr":"Redding","ko":"레딩","ja":"レディング","ar":"ردينغ","fa":"ردینگ، کالیفرنیا","zh":"雷丁","ru":"Реддинг"},"country":"US","lat":40.58654,"lon":-122.39168,"pop":91582,"search_terms":["ردینگ، کالیفرنیا","ردينغ","レディング","redding","레딩","реддинг","雷丁"]},{"id":1258291,"name":"Rayachoti","names":{"en":"Rayachoti"},"country":"IN","lat":14.05723,"lon":78.75056,"pop":91234,"search_terms":["rayachoti"]},{"id":3590858,"name":"Retalhuleu","names":{"en":"Retalhuleu","ru":"Реталулеу"},"country":"GT","lat":14.53575,"lon":-91.67848,"pop":90505,"search_terms":["реталулеу","retalhuleu"]},{"id":3429594,"name":"Reconquista","names":{"en":"Reconquista","de":"Reconquista","ru":"Реконкиста"},"country":"AR","lat":-29.15,"lon":-59.65,"pop":90184,"search_terms":["reconquista","реконкиста"]},{"id":1258099,"name":"Roha","names":{"en":"Roha","mr":"रोहे","ur":"روہا"},"country":"IN","lat":18.43687,"lon":73.11964,"pop":90000,"search_terms":["रोहे","روہا","roha"]},{"id":1258686,"name":"Ramgarh","names":{"en":"Ramgarh"},"country":"IN","lat":23.6303,"lon":85.52156,"pop":88781,"search_terms":["ramgarh"]},{"id":3839479,"name":"Rafaela","names":{"en":"Rafaela","de":"Rafaela","es":"Rafaela","ru":"Рафаэла","fa":"رافائلا","zh":"拉斐拉","th":"ราฟาเอลา","ar":"رافاييلا","ka":"რაფაელა"},"country":"AR","lat":-31.25285,"lon":-61.49078,"pop":88713,"search_terms":["рафаэла","拉斐拉","rafaela","رافائلا","ราฟาเอลา","რაფაელა","رافاييلا"]},{"id":5207728,"name":"Reading","names":{"en":"Reading","de":"Reading","pt":"Reading","pl":"Reading","ru":"Рединг","ja":"レディング","uk":"Редінг","ko":"레딩","fa":"ریدینگ، پنسیلوانیا","zh":"雷丁","ar":"ريدينغ","ur":"ریڈنگ، پنسلوانیا"},"country":"US","lat":40.33565,"lon":-75.92687,"pop":87879,"search_terms":["reading","レディング","ریدینگ، پنسیلوانیا","рединг","редінг","레딩","ريدينغ","雷丁","ریڈنگ، پنسلوانیا"]},{"id":2639557,"name":"Redditch","names":{"en":"Redditch","fr":"Redditch","de":"Redditch","ja":"レディッチ","nl":"Redditch","sv":"Redditch","ru":"Реддитч","fa":"ردیچ","ko":"레디치","zh":"雷迪奇"},"country":"GB","lat":52.3065,"lon":-1.94569,"pop":87847,"search_terms":["ردیچ","реддитч","реддич","雷迪奇","레디치","redditch","レディッチ"]},{"id":5487811,"name":"Rio Rancho","names":{"en":"Rio Rancho","de":"Rio Rancho","sv":"Rio Rancho","ru":"Рио-Ранчо"},"country":"US","lat":35.23338,"lon":-106.66447,"pop":87521,"search_terms":["рио-ранчо","rio rancho"]},{"id":1607055,"name":"Rat Burana","names":{"en":"Rat Burana","th":"ราษฎร์บูรณะ"},"country":"TH","lat":13.68219,"lon":100.50603,"pop":86695,"search_terms":["rat burana","ราษฎร์บูรณะ"]},{"id":226554,"name":"Rutoma","names":{"en":"Rutoma"},"country":"UG","lat":-0.56667,"lon":30.38333,"pop":86100,"search_terms":["rutoma"]},{"id":2111258,"name":"Ryugasaki","names":{"en":"Ryugasaki","nl":"Ryugasaki","ar":"ريوغاساكي","fa":"ریوگاساکی، ایباراکی","ja":"龍ケ崎市","ko":"류가사키 시","tg":"Рюгасаки","tl":"Ryugasaki","uk":"Рюґасакі","pt":"Ryugasaki","ru":"Рюгасаки","zh":"龍崎市"},"country":"JP","lat":35.9,"lon":140.18333,"pop":85761,"search_terms":["ریوگاساکی، ایباراکی","ريوغاساكي","рюґасакі","龍崎市","龍ケ崎","龍ケ崎市","ryugasaki","рюгасаки","류가사키 시"]},{"id":6318107,"name":"Redencao","names":{"en":"Redencao"},"country":"BR","lat":-8.02861,"lon":-50.03139,"pop":85597,"search_terms":["redencao"]},{"id":5386834,"name":"Redwood City","names":{"en":"Redwood City","ko":"레드우드시티","ar":"ريدوود","ja":"レッドウッドシティ","fa":"ردوود سیتی، کالیفرنیا","zh":"紅木城","ru":"Редвуд Сити","tl":"Lungsod ng Redwood","uk":"Редвуд-Сіті","ur":"ریڈووڈ شہر، کیلیفورنیا"},"country":"US","lat":37.48522,"lon":-122.23635,"pop":85288,"search_terms":["レッドウッドシティ","редвуд сити","ریڈووڈ شہر، کیلیفورنیا","редвуд-сити","레드우드시티","紅木城","редвуд-сіті","ريدوود","lungsod ng redwood","redwood city","ردوود سیتی، کالیفرنیا"]},{"id":11428685,"name":"Rukban","names":{"en":"Rukban","ar":"الرُّكبان"},"country":"JO","lat":33.31405,"lon":38.70342,"pop":85000,"search_terms":["الرُّقبان","rukban","الرُّكبان"]},{"id":6119518,"name":"Repentigny","names":{"en":"Repentigny","ar":"ريبنتينيي","fa":"رپانتینی، کبک","ru":"Репантиньи","fr":"Repentigny"},"country":"CA","lat":45.74222,"lon":-73.45008,"pop":84965,"search_terms":["repentigny","ريبنتينيي","رپانتینی، کبک","репантиньи"]},{"id":2848756,"name":"Reinickendorf","names":{"en":"Reinickendorf","de":"Reinickendorf","fr":"Berlin-Reinickendorf","nl":"Reinickendorf"},"country":"DE","lat":52.56395,"lon":13.33552,"pop":83972,"search_terms":["berlin-reinickendorf","reinickendorf"]},{"id":206047,"name":"Rutshuru","names":{"en":"Rutshuru","de":"Rutshuru","ru":"Рутшуру","sv":"Rutshuru","sw":"Rutshuru","it":"Rutshuru","fr":"Rutshuru","zh":"魯丘魯","ja":"ルチュル","pl":"Rutshuru","ro":"Rutshuru","nl":"Rutshuru"},"country":"CD","lat":-1.18666,"lon":29.44669,"pop":82680,"search_terms":["魯丘魯","ルチュル","rutshuru","рутшуру"]},{"id":12047417,"name":"Reef Al Fujairah City","names":{"en":"Reef Al Fujairah City","ar":"ريف الفجيرة"},"country":"AE","lat":25.14479,"lon":56.24764,"pop":82310,"search_terms":["ريف الفجيرة","reef al fujairah city"]},{"id":668954,"name":"Resita","names":{"en":"Resita","de":"Reschitz","cs":"Reşiţa","nl":"Reşiţa","pl":"Reşiţa","ro":"Reșița","fr":"Reşiţa","uk":"Решица"},"country":"RO","lat":45.30083,"lon":21.88917,"pop":81228,"search_terms":["решица","resita","reşiţa","reschitz","reșița"]},{"id":2151437,"name":"Rockhampton","names":{"en":"Rockhampton","fr":"Rockhampton","pl":"Rockhampton","de":"Rockhampton","ro":"Rockhampton","ru":"Рокхемптон","ka":"როკჰემპტონი","fa":"راکهمپتون","zh":"洛坎普頓","uk":"Рокгемптон","ur":"راکہیمپٹن","hi":"रॉकहैम्पटन","hy":"Ռոքհեմփթոն","id":"Rockhampton","mr":"रॉकहॅम्पटन","ms":"Rockhampton","el":"Ρόκχάμπτον","it":"Rockhampton","es":"Rockhampton","ar":"روكهامبتون","vi":"Rockhampton","ja":"ロックハンプトン","nl":"Rockhampton","bn":"রোকাম্পটন","sv":"Rockhampton","ko":"록햄프턴","ta":"றோக்கம்ப்பிதோன்","cs":"Rockhampton","te":"రోక్ఖాంప్టొన్","th":"ร็อกแฮมตัน","tr":"Rockhampton"},"country":"AU","lat":-23.38032,"lon":150.50595,"pop":81021,"search_terms":["ռոքհեմփթոն","றோக்கம்ப்பிதோன்","रॉकहैम्पटन","راکہیمپٹن","ρόκχάμπτον","راکهمپتون","రోక్ఖాంప్టొన్","रॉकहॅम्पटन","洛坎普頓","rockhampton","рокхемптон","록햄프턴","روكهامبتون","ร็อกแฮมตัน","ロックハンプトン","როკჰემპტონი","রোকাম্পটন","рокгемптон"]},{"id":3169561,"name":"Ravenna","names":{"en":"Ravenna","de":"Ravenna","es":"Rávena","cs":"Ravenna","fr":"Ravenne","it":"Ravenna","ja":"ラヴェンナ","nl":"Ravenna","pl":"Rawenna","pt":"Ravenna","ro":"Ravenna","ru":"Равенна","sv":"Ravenna","hi":"रवेन्ना","tr":"Ravenna"},"country":"IT","lat":44.41344,"lon":12.20121,"pop":80868,"search_terms":["rawenna","ラヴェンナ","ravenna","ravenne","rávena","रवेन्ना","равенна"]},{"id":2482886,"name":"Rouissat","names":{"en":"Rouissat"},"country":"DZ","lat":31.92427,"lon":5.35018,"pop":80784,"search_terms":["rouissat"]},{"id":1279715,"name":"Rikaze","names":{"en":"Xigazê","pl":"Samzhubzê","de":"Samzhubzê","it":"Shigatse","ja":"サムドゥプツェ区","ko":"쌍주쯔 구","nl":"Shigatse","ru":"Шигадзе","sv":"Samdruptse","zh":"桑珠孜区","fr":"Shigatsé"},"country":"CN","lat":29.25,"lon":88.88333,"pop":80000,"search_terms":["쌍주쯔 구","samdruptse","shigatse","xigazê","шигадзе","samzhubzê district","shigatsé","サムドゥプツェ区","日喀则","桑珠孜区","samzhubzê","rikaze"]},{"id":502018,"name":"Reutov","names":{"en":"Reutov","ru":"Реутов","de":"Reutow","fr":"Reoutov","ar":"ريوتوف","fa":"رئوتوف","pl":"Rieutow","zh":"列烏托夫"},"country":"RU","lat":55.76273,"lon":37.86303,"pop":78370,"search_terms":["ريوتوف","rieutow","رئوتوف","реутов","reutow","reoutov","reutov","列烏托夫"]},{"id":2847631,"name":"Rheinhausen","names":{"en":"Rheinhausen"},"country":"DE","lat":51.40055,"lon":6.71187,"pop":78203,"search_terms":["rheinhausen"]},{"id":2638978,"name":"Rugby","names":{"en":"Rugby","ko":"럭비","ru":"Рагби","zh":"拉格比","fa":"راگبی، وارویک‌شایر","ja":"ラグビー","th":"รักบี้","ar":"راجبي","ta":"ரக்பி"},"country":"GB","lat":52.37092,"lon":-1.26417,"pop":78117,"search_terms":["рагби","راگبی، وارویک‌شایر","รักบี้","拉格比","ラグビー","rugby","럭비","ரக்பி","راجبي"]},{"id":5268249,"name":"Racine","names":{"en":"Racine","de":"Racine","pl":"Racine","pt":"Racine","ru":"Расин","es":"Racine","fr":"Racine","ko":"러신","fa":"ریسین، ویسکانسین","ja":"ラシーン","ar":"راسين","ka":"რასინი","zh":"拉辛","uk":"Расін","ur":"راسین، وسکونسن"},"country":"US","lat":42.72613,"lon":-87.78285,"pop":77742,"search_terms":["расин","러신","ریسین، ویسکانسین","ラシーン","راسین، وسکونسن","расін","racine","راسين","რასინი","拉辛"]},{"id":2747930,"name":"Roosendaal","names":{"en":"Roosendaal","de":"Roosendaal","fr":"Rosendael","id":"Roosendaal","it":"Roosendaal","nl":"Roosendaal","ro":"Roosendaal","sv":"Roosendaal","ru":"Розендаль","fa":"روزن‌دال","ja":"ローゼンダール","th":"โรเซนดาล","zh":"罗森达尔","ar":"روسيندال","ko":"로센달"},"country":"NL","lat":51.53083,"lon":4.46528,"pop":77725,"search_terms":["روزن‌دال","โรเซนดาล","розендаль","roosendaal","ローゼンダール","罗森达尔","rosendael","로센달","розендал","روسيندال"]},{"id":8740018,"name":"Rabkavi-Banhatti","names":{"en":"Rabkavi-Banhatti"},"country":"IN","lat":16.47,"lon":75.12,"pop":77004,"search_terms":["rabkavi-banhatti"]},{"id":2982235,"name":"Rueil-Malmaison","names":{"en":"Rueil-Malmaison","de":"Rueil-Malmaison","pl":"Rueil-Malmaison","cs":"Rueil-Malmaison","fr":"Rueil-Malmaison","id":"Rueil-Malmaison","it":"Rueil-Malmaison","nl":"Rueil-Malmaison","ro":"Rueil-Malmaison","sv":"Rueil-Malmaison","pt":"Rueil-Malmaison","uk":"Рюей-Мальмезон","ar":"روي-مالميزون","ja":"リュエイユ＝マルメゾン","kk":"Рюей-Мальмезон","fa":"روی ملمزون","ru":"Рюэй-Мальмезон","zh":"吕埃马尔梅松","ko":"뤼에유말메종"},"country":"FR","lat":48.8765,"lon":2.18967,"pop":76616,"search_terms":["rueil-malmaison","吕埃马尔梅松","روي-مالميزون","リュエイユ＝マルメゾン","рюей-мальмезон","рюэй-мальмезон","뤼에유말메종","روی ملمزون"]},{"id":2847645,"name":"Rheine","names":{"en":"Rheine","es":"Rheine","de":"Rheine","nl":"Rheine","ru":"Райн","ko":"라이네","kk":"Райне","ar":"راينه","zh":"赖内","uk":"Райне"},"country":"DE","lat":52.28509,"lon":7.44055,"pop":76491,"search_terms":["райне","라이네","rheine","赖内","راينه","райн"]},{"id":293768,"name":"Ramla","names":{"en":"Ramla","de":"Ramla","fr":"Ramla","nl":"Ramla","ro":"Ramla","ru":"Рамла","sv":"Ramle","es":"Ramla","pl":"Ramla","it":"Ramla","ar":"الرملة","ko":"라믈라","ja":"ラムラ","zh":"拉姆拉","fa":"رمله","ur":"رملہ، اسرائیل"},"country":"IL","lat":31.92624,"lon":34.8635,"pop":76246,"search_terms":["ramla","ラムラ","رملہ، اسرائیل","рамла","라믈라","拉姆拉","ramle","الرملة","رمله"]},{"id":1258338,"name":"Ratnagiri","names":{"en":"Ratnagiri","ru":"Ратнагири","bn":"রত্নগিরি","hi":"रत्नागिरि","mr":"रत्‍नागिरी","ta":"இரத்தினகிரி","zh":"拉特纳吉里","ur":"رتناگری"},"country":"IN","lat":16.99154,"lon":73.31022,"pop":76229,"search_terms":["ратнагири","拉特纳吉里","रत्‍नागिरी","रत्नागिरि","ratnagiri","رتناگری","রত্নগিরি","இரத்தினகிரி"]},{"id":293807,"name":"Ra'anana","names":{"en":"Raanana"},"country":"IL","lat":32.1836,"lon":34.87386,"pop":75421,"search_terms":["ra‘ananah","ra‘ananna","ra'anana","raanana","ra‘anana"]},{"id":3353383,"name":"Rundu","names":{"en":"Rundu","ru":"Рунду","ko":"룬두","zh":"龍杜","uk":"Рунду","ur":"روندو"},"country":"NA","lat":-17.91796,"lon":19.77314,"pop":75180,"search_terms":["روندو","rundu","龍杜","рунду","룬두"]},{"id":118826,"name":"Ramhormoz","names":{"en":"Ramhormoz","fa":"رامهرمز"},"country":"IR","lat":31.27997,"lon":49.60351,"pop":74285,"search_terms":["ramhormoz","رامهرمز"]},{"id":2523650,"name":"Ragusa","names":{"en":"Ragusa","de":"Ragusa","pl":"Ragusa","cs":"Ragusa","fr":"Raguse","it":"Ragusa","ja":"ラグーザ","nl":"Ragusa","pt":"Ragusa","ru":"Рагуза","sv":"Ragusa","ro":"Ragusa"},"country":"IT","lat":36.92574,"lon":14.72443,"pop":74251,"search_terms":["raguse","ragusa","рагуза","ラグーザ"]},{"id":1259083,"name":"Rabkavi","names":{"en":"Rabkavi"},"country":"IN","lat":16.47567,"lon":75.1106,"pop":73835,"search_terms":["rabkavi"]},{"id":5768233,"name":"Rapid City","names":{"en":"Rapid City","ru":"Рапид-Сити","ko":"래피드시티","hi":"रैपिड सिटी","ja":"ラピッドシティ","zh":"拉皮德城","th":"แรพิดซิตี","ar":"رابيد سيتي","fa":"رپید سیتی، داکوتای جنوبی","uk":"Рапід-Сіті","ur":"ریپڈ سٹی، جنوبی ڈکوٹا"},"country":"US","lat":44.08054,"lon":-103.23101,"pop":73569,"search_terms":["рапід-сіті","rapid city","रैपिड सिटी","ラピッドシティ","拉皮德城","رابيد سيتي","рапид-сити","رپید سیتی، داکوتای جنوبی","ریپڈ سٹی، جنوبی ڈکوٹا","래피드시티","แรพิดซิตี"]},{"id":5007402,"name":"Rochester Hills","names":{"en":"Rochester Hills","tt":"Рочестер-Гиллс","de":"Rochester Hills","ru":"Рочестер-Хилс","pt":"Rochester Hills","fr":"Rochester Hills","uk":"Рочестер-Гіллс","ur":"روچیسٹر ہلز، مشی گن","kk":"Рочэстер Хиллс","sv":"Rochester Hills","sw":"Rochester Hills","uz":"Rochester Hills","it":"Rochester Hills","es":"Rochester Hills","zh":"羅徹斯特山","ar":"روتشستر هيلز","vi":"Rochester Hills","ja":"ロチェスターヒルズ","fa":"روچستر هلیز، میشیگان","pl":"Rochester Hills","nl":"Rochester Hills","tr":"Rochester Hills"},"country":"US","lat":42.65837,"lon":-83.14993,"pop":73424,"search_terms":["روتشستر هيلز","روچیسٹر ہلز، مشی گن","ロチェスターヒルズ","rochester hills","羅徹斯特山","рочестер-гіллс","рочестер-гиллс","روچستر هلیز، میشیگان","рочестер-хилс","рочэстер хиллс"]},{"id":2246544,"name":"Richard-Toll","names":{"en":"Richard-Toll"},"country":"SN","lat":16.4625,"lon":-15.70083,"pop":73147,"search_terms":["richard-toll"]},{"id":7026885,"name":"Ratchathewi","names":{"en":"Ratchathewi","th":"ราชเทวี"},"country":"TH","lat":13.759,"lon":100.53358,"pop":73035,"search_terms":["ราชเทวี","ratchathewi"]},{"id":3111294,"name":"Rubi","names":{"en":"Rubi","ru":"Руби"},"country":"ES","lat":41.49226,"lon":2.03305,"pop":72987,"search_terms":["rubí","руби","rubi"]},{"id":3390160,"name":"Russas","names":{"en":"Russas"},"country":"BR","lat":-4.94028,"lon":-37.97583,"pop":72928,"search_terms":["russas"]},{"id":103035,"name":"Rabigh","names":{"en":"Rabigh"},"country":"SA","lat":22.79856,"lon":39.03493,"pop":72928,"search_terms":["rabigh"]},{"id":293690,"name":"Rosh Ha'Ayin","names":{"en":"Rosh HaAyin"},"country":"IL","lat":32.09556,"lon":34.95664,"pop":72881,"search_terms":["rosh ha ayin","rosh ha'ayin","rosh ha‘ayin","rosh haayin"]},{"id":3451152,"name":"Rio do Sul","names":{"en":"Rio do Sul","ru":"Риу-ду-Сул","zh":"南河镇"},"country":"BR","lat":-27.21417,"lon":-49.64306,"pop":72587,"search_terms":["риу-ду-сул","南河镇","rio do sul"]},{"id":3450964,"name":"Rolandia","names":{"en":"Rolandia"},"country":"BR","lat":-23.30972,"lon":-51.36917,"pop":71670,"search_terms":["rolandia"]},{"id":4593142,"name":"Rock Hill","names":{"en":"Rock Hill"},"country":"US","lat":34.92487,"lon":-81.02508,"pop":71548,"search_terms":["rock hill"]},{"id":1258289,"name":"Rayagada","names":{"en":"Rayagada"},"country":"IN","lat":19.17132,"lon":83.41428,"pop":71208,"search_terms":["rayagada"]},{"id":1258366,"name":"Ratangarh","names":{"en":"Ratangarh"},"country":"IN","lat":28.08137,"lon":74.61854,"pop":71124,"search_terms":["ratangarh"]},{"id":4170156,"name":"Riverview","names":{"en":"Riverview","ru":"Ривервью"},"country":"US","lat":27.86614,"lon":-82.32648,"pop":71050,"search_terms":["riverview","ривервью"]},{"id":5386754,"name":"Redlands","names":{"en":"Redlands","de":"Redlands","ja":"レッドランズ","ko":"레들랜즈","ar":"ريدلاندس","fa":"ردلندز، کالیفرنیا","zh":"雷德兰兹","ru":"Редлендс","tt":"Редлендс","hi":"रेडलैंड्स","pt":"Redlands","hy":"Ռեդլենդս","uk":"Редлендс","id":"Redlands","ur":"ریدلاندس","uz":"Redlands","mr":"रेडलंड्स","ms":"Redlands","el":"Ρέντλαντς","it":"Redlands","es":"Redlands","vi":"Redlands","az":"Redlends","nl":"Redlands","fr":"Redlands","bn":"রেডল্যান্ডস","sv":"Redlands","ta":"ரேட்லண்ட்ஸ்","cs":"Redlands","te":"రెడ్ లాండ్స్","th":"เรดแลนด์","tl":"Redlands","pl":"Redlands","tr":"Redlands"},"country":"US","lat":34.05557,"lon":-117.18254,"pop":71035,"search_terms":["ρέντλαντς","रेडलंड्स","редлендс","redlends","রেডল্যান্ডস","రెడ్ లాండ్స్","redlands","ռեդլենդս","रेडलैंड्स","เรดแลนด์","레들랜즈","レッドランズ","ريدلاندس","ردلندز، کالیفرنیا","ரேட்லண்ட்ஸ்","ریدلاندس","雷德兰兹"]},{"id":5385941,"name":"Rancho Cordova","names":{"en":"Rancho Cordova","ar":"رانتشو كوردوفا","fa":"رانچو کوردووا، کالیفرنیا","zh":"兰乔科尔多瓦","tt":"Ранчо-Кордова","de":"Rancho Cordova","pt":"Rancho Cordova","fr":"Rancho Cordova","uk":"Ранчо-Кордова","ur":"ریںچو کورڈووا، کیلیفورنیا","sv":"Rancho Cordova","uz":"Rancho Cordova","it":"Rancho Cordova","es":"Rancho Cordova","ja":"ランチョ・コードヴァ","tl":"Rancho Cordova","pl":"Rancho Cordova","nl":"Rancho Cordova","tr":"Rancho Cordova"},"country":"US","lat":38.58907,"lon":-121.30273,"pop":71017,"search_terms":["ریںچو کورڈووا، کیلیفورنیا","ранчо-кордова","ランチョ・コードヴァ","兰乔科尔多瓦","rancho cordova","رانچو کوردووا، کالیفرنیا","رانتشو كوردوفا"]},{"id":1258546,"name":"Ranaghat","names":{"en":"Ranaghat"},"country":"IN","lat":23.17623,"lon":88.56667,"pop":70984,"search_terms":["ranaghat"]},{"id":6822115,"name":"Ritto","names":{"en":"Ritto","ja":"栗東"},"country":"JP","lat":35.02745,"lon":135.99971,"pop":70312,"search_terms":["ritto","栗東"]},{"id":1167507,"name":"Rabwah","names":{"en":"Rabwah"},"country":"PK","lat":31.75511,"lon":72.91403,"pop":70000,"search_terms":["rabwah"]},{"id":1630238,"name":"Raha","names":{"en":"Raha","id":"Raha"},"country":"ID","lat":-4.838,"lon":122.7209,"pop":69980,"search_terms":["raha"]},{"id":1282884,"name":"Rajbiraj","names":{"en":"Rajbiraj"},"country":"NP","lat":26.53968,"lon":86.74796,"pop":69803,"search_terms":["rajbiraj"]},{"id":2639447,"name":"Rhondda","names":{"en":"Rhondda","fa":"رونتا","kk":"Ронта"},"country":"GB","lat":51.65896,"lon":-3.44885,"pop":69506,"search_terms":["ронта","رونتا","rhondda"]},{"id":5133858,"name":"Ridgewood","names":{"en":"Ridgewood","ur":"رج وڈ، کوئینز"},"country":"US","lat":40.7001,"lon":-73.90569,"pop":69317,"search_terms":["رج وڈ، کوئینز","ridgewood"]},{"id":2639022,"name":"Royal Tunbridge Wells","names":{"en":"Royal Tunbridge Wells","de":"Tunbridge Wells","pl":"Royal Tunbridge Wells","nl":"Tunbridge Wells","sv":"Tunbridge Wells","fr":"Tunbridge Wells","fa":"رویال تانبریج ولز","ro":"Tunbridge Wells","zh":"皇家唐橋井"},"country":"GB","lat":51.13321,"lon":0.26256,"pop":68910,"search_terms":["tunbridge wells","royal tunbridge wells","皇家唐橋井","رویال تانبریج ولز"]},{"id":3107112,"name":"Rivas-Vaciamadrid","names":{"en":"Rivas-Vaciamadrid","ru":"Васиамадрид"},"country":"ES","lat":40.32605,"lon":-3.51089,"pop":68405,"search_terms":["rivas-vaciamadrid","васиамадрид"]},{"id":5386785,"name":"Redondo Beach","names":{"en":"Redondo Beach","de":"Redondo Beach","fr":"Redondo Beach","fa":"ردوندو بیچ، کالیفرنیا","ar":"ريدوندو بيتش","ru":"Редондо-Бич","zh":"雷东多海滩","ko":"리돈도비치","ja":"レドンドビーチ","uk":"Редондо-Біч","ur":"ریڈونڈو بیچ، کیلیفورنیا"},"country":"US","lat":33.84918,"lon":-118.38841,"pop":68166,"search_terms":["리돈도비치","ريدوندو بيتش","редондо-біч","редондо-бич","雷东多海滩","ریڈونڈو بیچ، کیلیفورنیا","レドンドビーチ","redondo beach","ردوندو بیچ، کالیفرنیا"]},{"id":668732,"name":"Roman","names":{"en":"Roman","de":"Roman","pl":"Roman","fr":"Roman","ro":"Roman","fa":"رومان","uk":"Роман","el":"Ρόμαν","ru":"Роман","zh":"羅曼","ko":"로만"},"country":"RO","lat":46.92119,"lon":26.92646,"pop":67819,"search_terms":["羅曼","로만","roman","رومان","ρόμαν","роман"]},{"id":1258797,"name":"Rajsamand","names":{"en":"Rajsamand"},"country":"IN","lat":25.07145,"lon":73.8798,"pop":67798,"search_terms":["rajsamand"]},{"id":1691509,"name":"Rosales","names":{"en":"Rosales","es":"Rosales de Pangasinán"},"country":"PH","lat":15.89444,"lon":120.63278,"pop":67510,"search_terms":["rosales","rosales de pangasinán"]},{"id":8299614,"name":"Rossendale","names":{"en":"Rossendale"},"country":"GB","lat":53.68456,"lon":-2.2769,"pop":67400,"search_terms":["rossendale","borough of rossendale","rossendale district"]},{"id":4367175,"name":"Rockville","names":{"en":"Rockville","ru":"Роквилл","ar":"روكفيل","fa":"راکویل، مریلند","ja":"ロックビル","kk":"Роквилл","ko":"록빌","zh":"羅克維爾","ka":"როკვილი","uk":"Роквіль","ur":"راکویل، میری لینڈ"},"country":"US","lat":39.084,"lon":-77.15276,"pop":66980,"search_terms":["роквіль","роквилл","راکویل، مریلند","ロックビル","록빌","როკვილი","راکویل، میری لینڈ","rockville","羅克維爾","روكفيل"]},{"id":3991043,"name":"Ramos Arizpe","names":{"en":"Ramos Arizpe","ru":"Рамос-Ариспе"},"country":"MX","lat":25.53928,"lon":-100.94742,"pop":66554,"search_terms":["рамос-ариспе","ramos arizpe"]},{"id":1258128,"name":"Rishikesh","names":{"en":"Rishikesh","ru":"Ришикеш","de":"Rishīkesh"},"country":"IN","lat":30.10778,"lon":78.29255,"pop":66390,"search_terms":["ришикеш","rishikesh","rishīkesh"]},{"id":2042645,"name":"Rajin","names":{"en":"Rajin","ru":"Радзин","zh":"羅先"},"country":"KP","lat":42.25559,"lon":130.28308,"pop":66224,"search_terms":["радзин","羅先","rajin"]},{"id":6241325,"name":"Rotorua","names":{"en":"Rotorua","de":"Rotorua","pl":"Rotorua","fr":"Rotorua","nl":"Rotorua","sv":"Rotorua","zh":"罗托路亚","es":"Rotorua","ru":"Роторуа","it":"Distretto di Rotorua","ja":"ロトルア","ka":"როტორუა","ko":"로토루아","ar":"روتوروا","uk":"Роторуа"},"country":"NZ","lat":-38.13874,"lon":176.24516,"pop":65901,"search_terms":["როტორუა","罗托路亚","ロトルア","distretto di rotorua","روتوروا","rotorua","로토루아","роторуа"]},{"id":638936,"name":"Rovaniemi","names":{"en":"Rovaniemi","es":"Rovaniemi","pl":"Rovaniemi","de":"Rovaniemi","fr":"Rovaniemi","el":"Ροβανιέμι","id":"Rovaniemi","it":"Rovaniemi","nl":"Rovaniemi","pt":"Rovaniemi","ro":"Rovaniemi","sv":"Rovaniemi","cs":"Rovaniemi","ja":"ロヴァニエミ","ru":"Рованиеми","ko":"로바니에미","uk":"Рованіемі","ar":"روفانييمي","zh":"罗瓦涅米","fa":"رووانیمی","ur":"رووا نی اے می"},"country":"FI","lat":66.49897,"lon":25.68867,"pop":65670,"search_terms":["로바니에미","рованиеми","رووانیمی","rovaniemi","ロヴァニエミ","рованіемі","روفانييمي","罗瓦涅米","رووا نی اے می","ροβανιέμι"]},{"id":1258740,"name":"Ramanathapuram","names":{"en":"Ramanathapuram","ru":"Раманатхапурама","ja":"ラーマナータプラム","mr":"रामनाथपुरम","ta":"இராமநாதபுரம்","zh":"拉马纳塔普拉姆"},"country":"IN","lat":9.37158,"lon":78.83077,"pop":65314,"search_terms":["இராமநாதபுரம்","ラーマナータプラム","раманатхапурам","ramanathapuram","拉马纳塔普拉姆","रामनाथपुरम","раманатхапурама"]},{"id":622794,"name":"Rechytsa","names":{"en":"Rechytsa","ru":"Речица","de":"Retschyza"},"country":"BY","lat":52.3617,"lon":30.3916,"pop":65213,"search_terms":["retschyza","rechytsa","речица"]},{"id":5387152,"name":"Reseda","names":{"en":"Reseda","fa":"رسیدا، لس‌آنجلس"},"country":"US","lat":34.20112,"lon":-118.53647,"pop":65000,"search_terms":["reseda","رسیدا، لس‌آنجلس"]},{"id":1185236,"name":"Raipur","names":{"en":"Raipur","ru":"Райпур"},"country":"BD","lat":23.0391,"lon":90.76808,"pop":64652,"search_terms":["райпур","raipur"]},{"id":3440781,"name":"Rivera","names":{"en":"Rivera","es":"Rivera","pl":"Rivera","fr":"Rivera","de":"Rivera","pt":"Rivera","nl":"Rivera","ru":"Ривера","ar":"ريفيرا","bn":"রিবেরা","fa":"ریورا","ja":"リベラ","th":"รีเบรา","zh":"里韦拉","hy":"Ռիվերա","ka":"რივერა","ko":"리베라","uk":"Рівера","ur":"ریویرا"},"country":"UY","lat":-30.90534,"lon":-55.55076,"pop":64631,"search_terms":["ривера","রিবেরা","rivera","რივერა","ريفيرا","里韦拉","рівера","ریویرا","리베라","ռիվերա","ریورا","リベラ","รีเบรา"]},{"id":1797158,"name":"Renzhao","names":{"en":"Renzhao","zh":"仁兆"},"country":"CN","lat":36.63861,"lon":120.20361,"pop":64569,"search_terms":["renzhao","仁兆"]},{"id":501215,"name":"Rossosh'","names":{"en":"Rossosh","ru":"Россошь"},"country":"RU","lat":51.1209,"lon":38.5116,"pop":64323,"search_terms":["россошь","rossosh'","rossosh"]},{"id":1259056,"name":"Raghogarh","names":{"en":"Raghogarh"},"country":"IN","lat":24.44318,"lon":77.19768,"pop":63873,"search_terms":["raghogarh"]},{"id":4128894,"name":"Rogers","names":{"en":"Rogers","ru":"Роджерс","fa":"روگرز","zh":"罗杰斯","ar":"روجرز","ko":"로저스","uk":"Роджерс","ur":"راجرز، آرکنساس"},"country":"US","lat":36.33202,"lon":-94.11854,"pop":63159,"search_terms":["로저스","роджерс","روجرز","罗杰斯","rogers","راجرز، آرکنساس","روگرز"]},{"id":2615006,"name":"Randers","names":{"en":"Randers","de":"Randers","it":"Randers","nl":"Randers","pt":"Randers","ro":"Randers","sv":"Randers","ru":"Рандерс","el":"Ράντερς","fa":"راندرس","ja":"ラナース","ka":"რანერსი","ko":"라네르스","th":"ราเนอส์","uk":"Раннерс","zh":"蘭訥斯","ar":"راندرس"},"country":"DK","lat":56.4607,"lon":10.03639,"pop":62802,"search_terms":["ράντερς","რანერსი","randers","라네르스","蘭訥斯","راندرس","рандерс","ラナース","ราเนอส์","раннерс"]},{"id":118367,"name":"Robat Karim","names":{"en":"Robat Karim","fa":"رباط كريم"},"country":"IR","lat":35.4846,"lon":51.0829,"pop":62753,"search_terms":["robat karim","رباط كريم"]},{"id":1258207,"name":"Renukut","names":{"en":"Renukut","pt":"Renukoot"},"country":"IN","lat":24.21641,"lon":83.0358,"pop":62413,"search_terms":["renukoot","renukut"]},{"id":102891,"name":"Ras Tanura","names":{"en":"Ras Tanura","de":"Ra's Tanura","ar":"رأس تنورة","fa":"راس تنوره","uk":"Рас-Таннура","ur":"راس تنورہ","zh":"拉斯坦努拉","hi":"रास तनुरा","ru":"Рас-Танура","pt":"Ras Tanura","fr":"Ras Tanura","bn":"রাস তানোরা","id":"Ras Tanura","sv":"Ras Tanura","ko":"라스 타누라","mr":"रास तनुरा","ms":"Ras Tanura","el":"Ρας Τανούρα","it":"Ras Tanura","ta":"ராஸ்  தணுரா","es":"Ras Tanura","cs":"Ras Tanura","te":"రాస్ తనురా","vi":"Ras Tanura","th":"ราส ทานูรา","ja":"ラアス・タンヌーラ","tl":"Ras Tanura","pl":"Ras Tanura","ro":"Ras Tanura","nl":"Ras Tanura","tr":"Ras Tanura"},"country":"SA","lat":26.70742,"lon":50.06735,"pop":62314,"search_terms":["రాస్ తనురా","라스 타누라","ras tanura","رأس تنورة","ra's tanura","راس تنورہ","রাস তানোরা","ராஸ்  தணுரா","ラアス・タンヌーラ","рас-таннура","拉斯坦努拉","رحيمة","راس تنوره","रास तनुरा","ρας τανούρα","ราส ทานูรา","рас-танура"]},{"id":499717,"name":"Rzhev","names":{"en":"Rzhev","de":"Rschew","pl":"Rżew","fr":"Rjev","nl":"Rzjev","ru":"Ржев","it":"Ržev","ar":"رجيف","az":"Rjov","cs":"Ržev","fa":"رژف","ja":"ルジェフ","ko":"르제프","ro":"Rjev","tr":"Rjev","pt":"Rjev","sv":"Rzjev","zh":"勒熱夫"},"country":"RU","lat":56.26289,"lon":34.3289,"pop":62246,"search_terms":["rzjev","رژف","ржев","ルジェフ","rschew","rjov","勒熱夫","rżew","رجيف","rzhev","rjev","르제프","ržev"]},{"id":501231,"name":"Rossosh'","names":{"en":"Rossosh'","ru":"Россошь"},"country":"RU","lat":50.19645,"lon":39.56631,"pop":62000,"search_terms":["россошь","rossosh'","rossoh'"]},{"id":502011,"name":"Revda","names":{"en":"Revda","ru":"Ревда","de":"Rewda","ar":"ريفدا","el":"Ρεβντά","fa":"رفدا، اوبلاست سوردلوفسک","tt":"Рәүде","pl":"Rewda","zh":"列夫達"},"country":"RU","lat":56.80239,"lon":59.93774,"pop":61785,"search_terms":["رفدا، اوبلاست سوردلوفسک","列夫達","ريفدا","rewda","рәүде","ревда","ρεβντά","revda"]},{"id":1258290,"name":"Rayadrug","names":{"en":"Rayadrug"},"country":"IN","lat":14.69971,"lon":76.85241,"pop":61749,"search_terms":["rayadrug"]},{"id":1258352,"name":"Rath","names":{"en":"Rath","ru":"Рата"},"country":"IN","lat":25.59474,"lon":79.5666,"pop":61728,"search_terms":["rath","рата"]},{"id":5388319,"name":"Rocklin","names":{"en":"Rocklin","ar":"روكلين","fa":"راکلین، کالیفرنیا","zh":"罗克林","ru":"Роклин"},"country":"US","lat":38.79073,"lon":-121.23578,"pop":61213,"search_terms":["راکلین، کالیفرنیا","روكلين","rocklin","罗克林","роклин"]},{"id":2638960,"name":"Runcorn","names":{"en":"Runcorn","fa":"رانکورن","zh":"朗科恩"},"country":"GB","lat":53.34174,"lon":-2.73124,"pop":61145,"search_terms":["runcorn","رانکورن","朗科恩"]},{"id":11962428,"name":"Republica","names":{"en":"Republica"},"country":"BR","lat":-23.54476,"lon":-46.64105,"pop":60720,"search_terms":["republica"]},{"id":5808079,"name":"Redmond","names":{"en":"Redmond","pl":"Redmond","es":"Redmond","de":"Redmond","fr":"Redmond","it":"Redmond","pt":"Redmond","sv":"Redmond","zh":"雷德蒙德","nl":"Redmond","cs":"Redmond","ja":"レドモンド","tr":"Redmond","ru":"Редмонд","ko":"레드먼드","ar":"ريدموند","fa":"ردموند","tt":"Редмонд","uk":"Редмонд","id":"Redmond","ur":"ریڈمنڈ، واشنگٹن","uz":"Redmond","vi":"Redmond","ro":"Redmond","ta":"ரெட்மாண்ட்"},"country":"US","lat":47.67399,"lon":-122.12151,"pop":60598,"search_terms":["レドモンド","ريدموند","редмонд","레드먼드","ரெட்மாண்ட்","redmond","ریڈمنڈ، واشنگٹن","雷德蒙德","ردموند"]},{"id":4724194,"name":"Rowlett","names":{"en":"Rowlett"},"country":"US","lat":32.9029,"lon":-96.56388,"pop":60236,"search_terms":["rowlett"]},{"id":1797038,"name":"Runing","names":{"en":"Runing","zh":"汝宁"},"country":"CN","lat":33.00111,"lon":114.35417,"pop":60202,"search_terms":["汝宁","runing"]},{"id":2844988,"name":"Rosenheim","names":{"en":"Rosenheim","de":"Rosenheim","es":"Rosenheim","pl":"Rosenheim","fr":"Rosenheim","it":"Rosenheim","nl":"Rosenheim","sv":"Rosenheim","ro":"Rosenheim","ru":"Розенхайм","ja":"ローゼンハイム","uk":"Розенгайм","fa":"رزنهایم","kk":"Розенхайм","ko":"로젠하임","zh":"罗森海姆"},"country":"DE","lat":47.85637,"lon":12.12247,"pop":60167,"search_terms":["رزنهایم","розенхайм","로젠하임","ローゼンハイム","розенгайм","罗森海姆","rosenheim"]},{"id":5386039,"name":"Rancho Penasquitos","names":{"en":"Rancho Penasquitos"},"country":"US","lat":32.95949,"lon":-117.11531,"pop":60000,"search_terms":["rancho penasquitos"]},{"id":2467815,"name":"Rades","names":{"en":"Rades","ar":"رادس","fa":"رادس","ja":"ラデス","ko":"라데스","ro":"Rades","tr":"Rades","uk":"Радес","ur":"رادس","pl":"Radis","ru":"Радес","zh":"拉迪斯"},"country":"TN","lat":36.76946,"lon":10.27468,"pop":59998,"search_terms":["拉迪斯","радес","رادس","ラデス","radis","rades","라데스"]},{"id":3451704,"name":"Registro","names":{"en":"Registro"},"country":"BR","lat":-24.4875,"lon":-47.84361,"pop":59947,"search_terms":["registro"]},{"id":2842884,"name":"Ruesselsheim am Main","names":{"en":"Ruesselsheim am Main","de":"Rüsselsheim am Main","fr":"Rüsselsheim am Main","pl":"Rüsselsheim am Main","nl":"Rüsselsheim am Main","sv":"Rüsselsheim","el":"Ρουσελσχάιμ","kk":"Рюссельсхайм","fa":"روسلزهایم","ru":"Рюссельсхайм","zh":"吕塞尔斯海姆","ja":"リュッセルスハイム","es":"Rüsselsheim am Main","it":"Rüsselsheim am Main","ar":"روسلسهايم","cs":"Rüsselsheim am Main","uk":"Рюссельсгайм-ам-Майн"},"country":"DE","lat":49.98955,"lon":8.42251,"pop":59730,"search_terms":["rüsselsheim am main","リュッセルスハイム","吕塞尔斯海姆","рюссельсгайм-ам-майн","ρουσελσχάιμ","ruesselsheim am main","rüsselsheim","روسلسهايم","рюссельсхайм","روسلزهایم"]},{"id":1258868,"name":"Rajgarh","names":{"en":"Rajgarh"},"country":"IN","lat":28.64201,"lon":75.38612,"pop":59193,"search_terms":["rajgarh"]},{"id":3451261,"name":"Rio Bonito","names":{"en":"Rio Bonito"},"country":"BR","lat":-22.70861,"lon":-42.60972,"pop":59113,"search_terms":["rio bonito"]},{"id":5007804,"name":"Royal Oak","names":{"en":"Royal Oak","ko":"로열오크","ar":"رويال أوك","fa":"رویال اوک، میشیگان","ja":"ロイヤル・オーク","ur":"رائل اوک، مشی گن","tt":"Роял-Оук","de":"Royal Oak","pt":"Royal Oak","hy":"Ռոյալ Օուք","uk":"Роял-Оук","uz":"Royal Oak","it":"Royal Oak","es":"Royal Oak","zh":"罗亚尔奥克","vi":"Royal Oak","az":"Royal-Ou","nl":"Royal Oak","ru":"Ройал-Ок","fr":"Royal Oak","ka":"როიალ-ოუკი","sv":"Royal Oak","sw":"Royal Oak","cs":"Royal Oak","pl":"Royal Oak","tr":"Royal Oak"},"country":"US","lat":42.48948,"lon":-83.14465,"pop":59008,"search_terms":["როიალ-ოუკი","로열오크","ройал-ок","罗亚尔奥克","royal oak","royal-ou","ロイヤル・オーク","رائل اوک، مشی گن","ռոյալ օուք","رويال أوك","роял-оук","رویال اوک، میشیگان"]},{"id":3087584,"name":"Raciborz","names":{"en":"Raciborz","pl":"Racibórz","de":"Ratibor","fr":"Racibórz","ja":"ラチブシュ","nl":"Racibórz","ro":"Racibórz","ru":"Ратибор","uk":"Ратибор","ar":"راسيبورز","el":"Ρατσίμπορζ","ko":"라치부시","hi":"रसिबोर्ज्","th":"ราชีบุร์ช","cs":"Ratiboř","tg":"Рацибуж","fa":"راسیبورز","zh":"拉齐布日","az":"Rasibuj","tt":"Рацибуж"},"country":"PL","lat":50.09195,"lon":18.21928,"pop":58464,"search_terms":["rasibuj","ратибор","راسيبورز","ラチブシュ","racibórz","ราชีบุร์ช","ratibor","रसिबोर्ज्","raciborz","라치부시","ρατσίμπορζ","راسیبورز","ratiboř","рацибуж","拉齐布日"]},{"id":4781530,"name":"Reston","names":{"en":"Reston","de":"Reston","ru":"Рестон","ja":"レストン","fa":"رستون، ویرجینیا","uk":"Рестон"},"country":"US","lat":38.96872,"lon":-77.3411,"pop":58404,"search_terms":["reston","رستون، ویرجینیا","рестон","レストン"]},{"id":1443381,"name":"Roshanpura","names":{"en":"Roshanpura"},"country":"IN","lat":28.60057,"lon":76.98918,"pop":57217,"search_terms":["roshanpura"]},{"id":302355,"name":"Reyhanli","names":{"en":"Reyhanli","ru":"Рейханлы","ar":"الريحانية"},"country":"TR","lat":36.26791,"lon":36.56747,"pop":56995,"search_terms":["الريحانية","reyhanli","рейханлы"]},