[{"id":3451190,"name":"Rio de Janeiro","local":"Рио-де-Жанейро","country":"BR","lat":-22.906,"lon":-43.182,"pop":6747815,"tz":"America/Sao_Paulo"},{"id":108410,"name":"Riyadh","local":"Эр-Рияд","country":"SA","lat":24.688,"lon":46.722,"pop":4205961,"tz":"Asia/Riyadh"},{"id":1166993,"name":"Rawalpindi","local":"Равалпинди","country":"PK","lat":33.597,"lon":73.048,"pop":3357612,"tz":"Asia/Karachi"},{"id":3169070,"name":"Rome","local":"Рим","country":"IT","lat":41.892,"lon":12.511,"pop":2318895,"tz":"Europe/Rome"},{"id":1258393,"name":"Rasapudipalem","local":"Rasapūdipalem","country":"IN","lat":17.733,"lon":83.316,"pop":1728128,"tz":"Asia/Kolkata"},{"id":2538475,"name":"Rabat","local":"Рабат","country":"MA","lat":34.013,"lon":-6.833,"pop":1655753,"tz":"Africa/Casablanca"},{"id":3390760,"name":"Recife","local":"Ресифи","country":"BR","lat":-8.054,"lon":-34.881,"pop":1653461,"tz":"America/Recife"},{"id":1258847,"name":"Rajkot","local":"Раджкот","country":"IN","lat":22.292,"lon":70.793,"pop":1390640,"tz":"Asia/Kolkata"},{"id":268743,"name":"Ra's Bayrut","local":"Ra’s Bayrūt","country":"LB","lat":33.9,"lon":35.483,"pop":1251739,"tz":"Asia/Beirut"},{"id":501175,"name":"Rostov-na-Donu","local":"Ростов-на-Дону","country":"RU","lat":47.22,"lon":39.708,"pop":1130305,"tz":"Europe/Moscow"},{"id":1258526,"name":"Ranchi","local":"Ранчи","country":"IN","lat":23.343,"lon":85.309,"pop":1120374,"tz":"Asia/Kolkata"},{"id":1185188,"name":"Rangpur","local":"Рангпур","country":"BD","lat":25.747,"lon":89.252,"pop":1031388,"tz":"Asia/Dhaka"},{"id":1258980,"name":"Raipur","local":"Райпур","country":"IN","lat":21.233,"lon":81.633,"pop":1027264,"tz":"Asia/Kolkata"},{"id":3838583,"name":"Rosario","local":"Росарио","country":"AR","lat":-32.947,"lon":-60.639,"pop":948312,"tz":"America/Argentina/Cordoba"},{"id":1797063,"name":"Rui'an","local":"Rui’an","country":"CN","lat":27.776,"lon":120.659,"pop":927383,"tz":"Asia/Shanghai"},{"id":2747891,"name":"Rotterdam","local":"Роттердам","country":"NL","lat":51.922,"lon":4.479,"pop":868135,"tz":"Europe/Amsterdam"},{"id":12069922,"name":"Rohini","local":"Rohini","country":"IN","lat":28.743,"lon":77.068,"pop":860000,"tz":"Asia/Kolkata"},{"id":1185128,"name":"Rajshahi","local":"Раджшахи","country":"BD","lat":24.374,"lon":88.601,"pop":763580,"tz":"Asia/Dhaka"},{"id":456172,"name":"Riga","local":"Рига","country":"LV","lat":56.946,"lon":24.106,"pop":742572,"tz":"Europe/Riga"},{"id":3451328,"name":"Ribeirao Preto","local":"Рибейран-Прету","country":"BR","lat":-21.177,"lon":-47.81,"pop":711825,"tz":"America/Sao_Paulo"},{"id":9072919,"name":"Rizhao","local":"Жичжао","country":"CN","lat":35.414,"lon":119.529,"pop":661943,"tz":"Asia/Shanghai"},{"id":118743,"name":"Rasht","local":"Решт","country":"IR","lat":37.276,"lon":49.589,"pop":594590,"tz":"Asia/Tehran"},{"id":3520339,"name":"Reynosa","local":"Рейноса","country":"MX","lat":26.08,"lon":-98.285,"pop":589466,"tz":"America/Matamoros"},{"id":500096,"name":"Ryazan'","local":"Рязань","country":"RU","lat":54.627,"lon":39.704,"pop":538962,"tz":"Europe/Moscow"},{"id":1167460,"name":"Rahim Yar Khan","local":"Рахимъярхан","country":"PK","lat":28.42,"lon":70.303,"pop":517000,"tz":"Asia/Karachi"},{"id":181032,"name":"Ruiru","local":"Руиру","country":"KE","lat":-1.147,"lon":36.961,"pop":490120,"tz":"Africa/Nairobi"},{"id":4487042,"name":"Raleigh","local":"Роли","country":"US","lat":35.772,"lon":-78.639,"pop":482295,"tz":"America/New_York"},{"id":1568510,"name":"Rach Gia","local":"Ратьзя","country":"VN","lat":10.012,"lon":105.081,"pop":459860,"tz":"Asia/Ho_Chi_Minh"},{"id":1258662,"name":"Ramgundam","local":"Rāmgundam","country":"IN","lat":18.801,"lon":79.452,"pop":452261,"tz":"Asia/Kolkata"},{"id":1255783,"name":"Rajpur Sonarpur","local":"Rajpur Sonarpur","country":"IN","lat":22.438,"lon":88.432,"pop":424368,"tz":"Asia/Kolkata"},{"id":3662574,"name":"Rio Branco","local":"Риу-Бранку","country":"BR","lat":-9.975,"lon":-67.81,"pop":419452,"tz":"America/Rio_Branco"},{"id":1258932,"name":"Rajamahendravaram","local":"Раджамандри","country":"IN","lat":17.005,"lon":81.778,"pop":376333,"tz":"Asia/Kolkata"},{"id":1258076,"name":"Rohtak","local":"Рохтак","country":"IN","lat":28.894,"lon":76.589,"pop":374292,"tz":"Asia/Kolkata"},{"id":958724,"name":"Rustenburg","local":"Рюстенбург","country":"ZA","lat":-25.668,"lon":27.242,"pop":373695,"tz":"Africa/Johannesburg"},{"id":291074,"name":"Ras Al Khaimah","local":"Рас-эль-Хайма","country":"AE","lat":25.79,"lon":55.943,"pop":351943,"tz":"Asia/Dubai"},{"id":963241,"name":"Randburg","local":"Рандбург","country":"ZA","lat":-26.094,"lon":28.001,"pop":337053,"tz":"Africa/Johannesburg"},{"id":3451353,"name":"Ribeirao das Neves","local":"Ribeirão das Neves","country":"BR","lat":-19.767,"lon":-44.087,"pop":329794,"tz":"America/Sao_Paulo"},{"id":936374,"name":"Roodepoort","local":"Рудепурт","country":"ZA","lat":-26.163,"lon":27.872,"pop":326416,"tz":"Africa/Johannesburg"},{"id":2639577,"name":"Reading","local":"Рединг","country":"GB","lat":51.456,"lon":-0.971,"pop":318014,"tz":"Europe/London"},{"id":5387877,"name":"Riverside","local":"Риверсайд","country":"US","lat":33.953,"lon":-117.396,"pop":317261,"tz":"America/Los_Angeles"},{"id":350203,"name":"Rosetta","local":"Рашид","country":"EG","lat":31.4,"lon":30.417,"pop":301795,"tz":"Africa/Cairo"},{"id":1258599,"name":"Rampur","local":"Rāmpur","country":"IN","lat":28.81,"lon":79.027,"pop":296418,"tz":"Asia/Kolkata"},{"id":2246512,"name":"Rufisque","local":"Рюфиск","country":"SN","lat":14.715,"lon":-17.273,"pop":295459,"tz":"Africa/Dakar"},{"id":3429577,"name":"Resistencia","local":"Ресистенсия","country":"AR","lat":-27.464,"lon":-58.987,"pop":290793,"tz":"America/Argentina/Cordoba"},{"id":1258315,"name":"Rourkela","local":"Руркела","country":"IN","lat":22.225,"lon":84.864,"pop":273317,"tz":"Asia/Kolkata"},{"id":7838895,"name":"Russeifa","local":"Ар-Русайфа","country":"JO","lat":32.018,"lon":36.046,"pop":268237,"tz":"Asia/Amman"},{"id":1258342,"name":"Ratlam","local":"Ratlām","country":"IN","lat":23.33,"lon":75.04,"pop":264914,"tz":"Asia/Kolkata"},{"id":1258451,"name":"Ranipet","local":"Rānipet","country":"IN","lat":12.925,"lon":79.333,"pop":264330,"tz":"Asia/Kolkata"},{"id":5511077,"name":"Reno","local":"Рино","country":"US","lat":39.53,"lon":-119.814,"pop":264165,"tz":"America/Los_Angeles"},{"id":3652350,"name":"Riobamba","local":"Риобамба","country":"EC","lat":-1.665,"lon":-78.659,"pop":264048,"tz":"America/Guayaquil"},{"id":13546341,"name":"Rangel","local":"Rangel","country":"AO","lat":-8.826,"lon":13.263,"pop":261000,"tz":"Africa/Luanda"},{"id":3450909,"name":"Rondonopolis","local":"Rondonópolis","country":"BR","lat":-16.471,"lon":-54.636,"pop":259167,"tz":"America/Cuiaba"},{"id":293703,"name":"Rishon LeTsiyyon","local":"Ришон-ле-Цион","country":"IL","lat":31.971,"lon":34.789,"pop":258535,"tz":"Asia/Jerusalem"},{"id":10942183,"name":"Rugao","local":"Rugao","country":"CN","lat":32.37,"lon":120.576,"pop":257400,"tz":"Asia/Shanghai"},{"id":962367,"name":"Richards Bay","local":"Ричардс-Бей","country":"ZA","lat":-28.783,"lon":32.038,"pop":252968,"tz":"Africa/Johannesburg"},{"id":695594,"name":"Rivne","local":"Ровно","country":"UA","lat":50.62,"lon":26.237,"pop":245289,"tz":"Europe/Kyiv"},{"id":8347656,"name":"Ramagundam","local":"Рамагундам","country":"IN","lat":18.755,"lon":79.474,"pop":242979,"tz":"Asia/Kolkata"},{"id":1258182,"name":"Rewa","local":"Рева","country":"IN","lat":24.533,"lon":81.292,"pop":235654,"tz":"Asia/Kolkata"},{"id":1259012,"name":"Raichur","local":"Райчур","country":"IN","lat":16.205,"lon":77.356,"pop":234073,"tz":"Asia/Kolkata"},{"id":2983990,"name":"Rennes","local":"Ренн","country":"FR","lat":48.111,"lon":-1.674,"pop":227830,"tz":"Europe/Paris"},{"id":760778,"name":"Radom","local":"Радом","country":"PL","lat":51.403,"lon":21.147,"pop":226794,"tz":"Europe/Warsaw"},{"id":4781708,"name":"Richmond","local":"Ричмонд","country":"US","lat":37.554,"lon":-77.46,"pop":226610,"tz":"America/New_York"},{"id":6119109,"name":"Regina","local":"Реджайна","country":"CA","lat":50.45,"lon":-104.618,"pop":226404,"tz":"America/Regina"},{"id":3451055,"name":"Rio Verde","local":"Риу-Верди","country":"BR","lat":-17.798,"lon":-50.928,"pop":225696,"tz":"America/Sao_Paulo"},{"id":98717,"name":"Ramadi","local":"Эр-Рамади","country":"IQ","lat":33.421,"lon":43.308,"pop":223500,"tz":"Asia/Baghdad"},{"id":11101625,"name":"Rufisque est","local":"Rufisque est","country":"SN","lat":14.716,"lon":-17.273,"pop":221066,"tz":"Africa/Dakar"},{"id":10524295,"name":"Raniganj","local":"Rāniganj","country":"IN","lat":17.428,"lon":78.494,"pop":217910,"tz":"Asia/Kolkata"},{"id":500004,"name":"Rybinsk","local":"Рыбинск","country":"RU","lat":58.046,"lon":38.838,"pop":216724,"tz":"Europe/Moscow"},{"id":13308246,"name":"Raurkela Industrial Township","local":"Raurkela Industrial Township","country":"IN","lat":22.2,"lon":84.862,"pop":216410,"tz":"Asia/Kolkata"},{"id":3873775,"name":"Rancagua","local":"Ранкагуа","country":"CL","lat":-34.169,"lon":-70.741,"pop":212695,"tz":"America/Santiago"},{"id":6122085,"name":"Richmond","local":"Ричмонд","country":"CA","lat":49.17,"lon":-123.137,"pop":209937,"tz":"America/Vancouver"},{"id":5134086,"name":"Rochester","local":"Рочестер","country":"US","lat":43.155,"lon":-77.616,"pop":209802,"tz":"America/New_York"},{"id":6122091,"name":"Richmond Hill","local":"Ричмонд-Хилл","country":"CA","lat":43.871,"lon":-79.437,"pop":202022,"tz":"America/Toronto"},{"id":1629710,"name":"Rengasdengklok","local":"Rengasdengklok","country":"ID","lat":-6.159,"lon":107.298,"pop":201463,"tz":"Asia/Jakarta"},{"id":3451234,"name":"Rio Claro","local":"Rio Claro","country":"BR","lat":-22.411,"lon":-47.561,"pop":201418,"tz":"America/Sao_Paulo"},{"id":13561808,"name":"Rayon KTZ","local":"Район ХТЗ","country":"UA","lat":49.943,"lon":36.37,"pop":200000,"tz":"Europe/Kyiv"},{"id":1735150,"name":"Rawang","local":"Rawang","country":"MY","lat":3.321,"lon":101.577,"pop":199095,"tz":"Asia/Kuala_Lumpur"},{"id":759734,"name":"Rzeszow","local":"Жешув","country":"PL","lat":50.041,"lon":21.999,"pop":198317,"tz":"Europe/Warsaw"},{"id":2844588,"name":"Rostock","local":"Росток","country":"DE","lat":54.089,"lon":12.14,"pop":198293,"tz":"Europe/Berlin"},{"id":2984114,"name":"Reims","local":"Реймс","country":"FR","lat":49.265,"lon":4.029,"pop":196565,"tz":"Europe/Paris"},{"id":3670745,"name":"Riohacha","local":"Riohacha","country":"CO","lat":11.544,"lon":-72.907,"pop":188014,"tz":"America/Bogota"},{"id":3451138,"name":"Rio Grande","local":"Рио-Гранде","country":"BR","lat":-32.035,"lon":-52.099,"pop":187838,"tz":"America/Sao_Paulo"},{"id":1259064,"name":"Raebareli","local":"Рай-Барели","country":"IN","lat":26.231,"lon":81.233,"pop":186433,"tz":"Asia/Kolkata"},{"id":1691444,"name":"Roxas City","local":"Рохас","country":"PH","lat":11.585,"lon":122.751,"pop":185236,"tz":"Asia/Manila"},{"id":2523630,"name":"Reggio Calabria","local":"Реджо-ди-Калабрия","country":"IT","lat":38.11,"lon":15.661,"pop":182455,"tz":"Europe/Rome"},{"id":5385955,"name":"Rancho Cucamonga","local":"Ранчо-Кукамонга","country":"US","lat":34.106,"lon":-117.593,"pop":175236,"tz":"America/Los_Angeles"},{"id":3169522,"name":"Reggio nell'Emilia","local":"Реджо-Эмилия","country":"IT","lat":44.698,"lon":10.631,"pop":171944,"tz":"Europe/Rome"},{"id":293788,"name":"Ramat Gan","local":"Рамат-Ган","country":"IL","lat":32.082,"lon":34.811,"pop":170822,"tz":"Asia/Jerusalem"},{"id":1259009,"name":"Raiganj","local":"Rāiganj","country":"IN","lat":25.613,"lon":88.124,"pop":170252,"tz":"Asia/Kolkata"},{"id":3451205,"name":"Rio das Ostras","local":"Rio das Ostras","country":"BR","lat":-22.527,"lon":-41.945,"pop":168099,"tz":"America/Sao_Paulo"},{"id":1258831,"name":"Raj-Nandgaon","local":"Rāj-Nāndgaon","country":"IN","lat":21.097,"lon":81.029,"pop":163114,"tz":"Asia/Kolkata"},{"id":1258109,"name":"Robertsonpet","local":"Роберцонпет","country":"IN","lat":12.956,"lon":78.275,"pop":162230,"tz":"Asia/Kolkata"},{"id":1493467,"name":"Rubtsovsk","local":"Рубцовск","country":"RU","lat":51.515,"lon":81.206,"pop":161065,"tz":"Asia/Barnaul"},{"id":3838874,"name":"Rio Cuarto","local":"Рио-Куарто","country":"AR","lat":-33.13,"lon":-64.353,"pop":157010,"tz":"America/Argentina/Cordoba"},{"id":8740322,"name":"Rudrapur","local":"Рудрапур","country":"IN","lat":28.98,"lon":79.4,"pop":154554,"tz":"Asia/Kolkata"},{"id":1259005,"name":"Raigarh","local":"Райгарх","country":"IN","lat":21.898,"lon":83.397,"pop":150019,"tz":"Asia/Kolkata"},{"id":293725,"name":"Rehovot","local":"Реховот","country":"IL","lat":31.894,"lon":34.812,"pop":149392,"tz":"Asia/Jerusalem"},{"id":52407,"name":"Ruqi","local":"Ruqi","country":"SO","lat":9.973,"lon":43.428,"pop":148702,"tz":"Africa/Mogadishu"},{"id":3169361,"name":"Rimini","local":"Римини","country":"IT","lat":44.058,"lon":12.565,"pop":148688,"tz":"Europe/Rome"},{"id":4907959,"name":"Rockford","local":"Рокфорд","country":"US","lat":42.271,"lon":-89.094,"pop":148278,"tz":"America/Chicago"},{"id":118994,"name":"Rafsanjan","local":"Рафсанджане","country":"IR","lat":30.407,"lon":55.994,"pop":147680,"tz":"Asia/Tehran"},{"id":3873454,"name":"Renca","local":"Ренка","country":"CL","lat":-33.402,"lon":-70.706,"pop":147151,"tz":"America/Santiago"},{"id":13546323,"name":"Rosemont-La Petite-Patrie","local":"Rosemont–La Petite-Patrie","country":"CA","lat":45.537,"lon":-73.607,"pop":146501,"tz":"America/Toronto"},{"id":3086800,"name":"Ruda Slaska","local":"Руда-Сленска","country":"PL","lat":50.258,"lon":18.856,"pop":146189,"tz":"Europe/Warsaw"},{"id":1185240,"name":"Ramna Maidan","local":"Ramna Maidan","country":"BD","lat":23.733,"lon":90.4,"pop":143677,"tz":"Asia/Dhaka"},{"id":1258178,"name":"Rewari","local":"Rewāri","country":"IN","lat":28.199,"lon":76.618,"pop":143021,"tz":"Asia/Kolkata"},{"id":3086586,"name":"Rybnik","local":"Рыбник","country":"PL","lat":50.097,"lon":18.542,"pop":142510,"tz":"Europe/Warsaw"},{"id":1630058,"name":"Rangkasbitung","local":"Rangkasbitung","country":"ID","lat":-6.359,"lon":106.249,"pop":137041,"tz":"Asia/Jakarta"},{"id":368277,"name":"Rabak","local":"Рабак","country":"SD","lat":13.181,"lon":32.74,"pop":135281,"tz":"Africa/Khartoum"},{"id":1699296,"name":"Rodriguez","local":"Родригес","country":"PH","lat":14.76,"lon":121.2,"pop":134432,"tz":"Asia/Manila"},{"id":963230,"name":"Randfontein","local":"Рандфонтейн","country":"ZA","lat":-26.184,"lon":27.702,"pop":133654,"tz":"Africa/Johannesburg"},{"id":11962381,"name":"Rio Pequeno","local":"Rio Pequeno","country":"BR","lat":-23.571,"lon":-46.759,"pop":131631,"tz":"America/Sao_Paulo"},{"id":1258470,"name":"Raniganj","local":"Ранигандже","country":"IN","lat":23.616,"lon":87.131,"pop":131261,"tz":"Asia/Kolkata"},{"id":1258916,"name":"Rajapalayam","local":"Rajapalayam","country":"IN","lat":9.453,"lon":77.553,"pop":130442,"tz":"Asia/Kolkata"},{"id":5388881,"name":"Roseville","local":"Розвелл","country":"US","lat":38.752,"lon":-121.288,"pop":130269,"tz":"America/Los_Angeles"},{"id":502971,"name":"Ramenki","local":"Раменки","country":"RU","lat":55.7,"lon":37.5,"pop":130000,"tz":"Europe/Moscow"},{"id":2849483,"name":"Regensburg","local":"Регенсбург","country":"DE","lat":49.015,"lon":12.102,"pop":129151,"tz":"Europe/Berlin"},{"id":1691490,"name":"Rosario","local":"Rosario","country":"PH","lat":13.632,"lon":121.221,"pop":128352,"tz":"Asia/Manila"},{"id":612287,"name":"Rustavi","local":"Рустави","country":"GE","lat":41.563,"lon":44.979,"pop":128249,"tz":"Asia/Tbilisi"},{"id":3670730,"name":"Rionegro","local":"Рионегро","country":"CO","lat":6.155,"lon":-75.374,"pop":128153,"tz":"America/Bogota"},{"id":281102,"name":"Rafah","local":"Рафах","country":"PS","lat":31.297,"lon":34.244,"pop":126305,"tz":"Asia/Gaza"},{"id":6544495,"name":"Retiro","local":"Retiro","country":"ES","lat":40.413,"lon":-3.683,"pop":126058,"tz":"Europe/Madrid"},{"id":1519843,"name":"Rudnyy","local":"Рудный","country":"KZ","lat":52.972,"lon":63.111,"pop":124000,"tz":"Asia/Qostanay"},{"id":2483668,"name":"Relizane","local":"Relizane","country":"DZ","lat":35.737,"lon":0.556,"pop":123255,"tz":"Africa/Algiers"},{"id":2849647,"name":"Recklinghausen","local":"Реклингхаузен","country":"DE","lat":51.614,"lon":7.197,"pop":122438,"tz":"Europe/Berlin"},{"id":727523,"name":"Ruse","local":"Русе","country":"BG","lat":43.849,"lon":25.953,"pop":121168,"tz":"Europe/Sofia"},{"id":289011,"name":"Rustaq","local":"Рустака","country":"OM","lat":23.391,"lon":57.424,"pop":120000,"tz":"Asia/Muscat"},{"id":740483,"name":"Rize","local":"Ризе","country":"TR","lat":41.021,"lon":40.522,"pop":119828,"tz":"Europe/Istanbul"},{"id":3413829,"name":"Reykjavik","local":"Рейкьявик","country":"IS","lat":64.135,"lon":-21.895,"pop":118918,"tz":"Atlantic/Reykjavik"},{"id":11962419,"name":"Raposo Tavares","local":"Raposo Tavares","country":"BR","lat":-23.592,"lon":-46.786,"pop":117738,"tz":"America/Sao_Paulo"},{"id":2639093,"name":"Rotherham","local":"Ротерем","country":"GB","lat":53.43,"lon":-1.357,"pop":117618,"tz":"Europe/London"},{"id":2482908,"name":"Rouiba","local":"Rouiba","country":"DZ","lat":36.738,"lon":3.281,"pop":117558,"tz":"Africa/Algiers"},{"id":2848273,"name":"Remscheid","local":"Ремшайд","country":"DE","lat":51.18,"lon":7.192,"pop":117118,"tz":"Europe/Berlin"},{"id":1258126,"name":"Rishra","local":"Rishra","country":"IN","lat":22.724,"lon":88.346,"pop":117014,"tz":"Asia/Kolkata"},{"id":2982652,"name":"Rouen","local":"Руан","country":"FR","lat":49.443,"lon":1.099,"pop":116331,"tz":"Europe/Paris"},{"id":4724129,"name":"Round Rock","local":"Раунд-Рок","country":"US","lat":30.508,"lon":-97.679,"pop":115997,"tz":"America/Chicago"},{"id":3451329,"name":"Ribeirao Pires","local":"Ribeirão Pires","country":"BR","lat":-23.711,"lon":-46.413,"pop":115559,"tz":"America/Sao_Paulo"},{"id":13450916,"name":"Recanto das Emas","local":"Recanto das Emas","country":"BR","lat":-15.909,"lon":-48.064,"pop":115550,"tz":"America/Sao_Paulo"},{"id":13546322,"name":"Riviere-des-Prairies-Pointe-aux-Trembles","local":"Rivière-des-Prairies–Pointe-aux-Trembles","country":"CA","lat":45.641,"lon":-73.585,"pop":113868,"tz":"America/Toronto"},{"id":2847736,"name":"Reutlingen","local":"Ройтлинген","country":"DE","lat":48.491,"lon":9.204,"pop":112627,"tz":"Europe/Berlin"},{"id":5043473,"name":"Rochester","local":"Рочестер","country":"US","lat":44.022,"lon":-92.47,"pop":112225,"tz":"America/Chicago"},{"id":3451668,"name":"Resende","local":"Резенди","country":"BR","lat":-22.469,"lon":-44.447,"pop":111514,"tz":"America/Sao_Paulo"},{"id":4722625,"name":"Richardson","local":"Ричардсон","country":"US","lat":32.948,"lon":-96.73,"pop":110815,"tz":"America/Chicago"},{"id":8593863,"name":"Rodenkirchen","local":"Rodenkirchen","country":"DE","lat":50.893,"lon":6.995,"pop":110158,"tz":"Europe/Berlin"},{"id":1028079,"name":"Ressano Garcia","local":"Ressano Garcia","country":"MZ","lat":-25.443,"lon":31.995,"pop":110000,"tz":"Africa/Maputo"},{"id":5387428,"name":"Richmond","local":"Ричмонд","country":"US","lat":37.936,"lon":-122.348,"pop":109708,"tz":"America/Los_Angeles"},{"id":3191648,"name":"Rijeka","local":"Риека","country":"HR","lat":45.327,"lon":14.442,"pop":107964,"tz":"Europe/Zagreb"},{"id":1607017,"name":"Rayong","local":"Районг","country":"TH","lat":12.681,"lon":101.258,"pop":106737,"tz":"Asia/Bangkok"},{"id":1258474,"name":"Ranebennur","local":"Ranebennur","country":"IN","lat":14.622,"lon":75.63,"pop":106406,"tz":"Asia/Kolkata"},{"id":1336139,"name":"Rangamati","local":"Rangamati","country":"BD","lat":22.643,"lon":92.192,"pop":106069,"tz":"Asia/Dhaka"},{"id":12432977,"name":"Riacho Fundo II","local":"Riacho Fundo II","country":"BR","lat":-15.898,"lon":-48.047,"pop":105210,"tz":"America/Sao_Paulo"},{"id":1258044,"name":"Roorkee","local":"Рурки","country":"IN","lat":29.866,"lon":77.891,"pop":103894,"tz":"Asia/Kolkata"},{"id":3111933,"name":"Reus","local":"Реус","country":"ES","lat":41.156,"lon":1.107,"pop":103477,"tz":"Europe/Madrid"},{"id":5387288,"name":"Rialto","local":"Риальто","country":"US","lat":34.106,"lon":-117.37,"pop":103132,"tz":"America/Los_Angeles"},{"id":1214073,"name":"Rantauprapat","local":"Rantauprapat","country":"ID","lat":2.1,"lon":99.833,"pop":103009,"tz":"Asia/Jakarta"},{"id":508751,"name":"Ryazanskiy","local":"Рязанский","country":"RU","lat":55.733,"lon":37.767,"pop":101000,"tz":"Europe/Moscow"},{"id":6118158,"name":"Red Deer","local":"Ред-Дир","country":"CA","lat":52.267,"lon":-113.802,"pop":100844,"tz":"America/Edmonton"},{"id":3988392,"name":"Rosarito","local":"Росарито","country":"MX","lat":32.36,"lon":-117.046,"pop":100660,"tz":"America/Tijuana"},{"id":5808189,"name":"Renton","local":"Рентон","country":"US","lat":47.483,"lon":-122.217,"pop":100242,"tz":"America/Los_Angeles"},{"id":4782167,"name":"Roanoke","local":"Роанок","country":"US","lat":37.271,"lon":-79.941,"pop":100011,"tz":"America/New_York"},{"id":2982681,"name":"Roubaix","local":"Рубе","country":"FR","lat":50.694,"lon":3.175,"pop":99507,"tz":"Europe/Paris"},{"id":3906466,"name":"Riberalta","local":"Риберальта","country":"BO","lat":-11.01,"lon":-66.053,"pop":99070,"tz":"America/La_Paz"},{"id":5133825,"name":"Richmond Hill","local":"Richmond Hill","country":"US","lat":40.7,"lon":-73.831,"pop":98984,"tz":"America/New_York"},{"id":1797181,"name":"Renqiu","local":"Renqiu","country":"CN","lat":38.709,"lon":116.101,"pop":98569,"tz":"Asia/Shanghai"},{"id":2639272,"name":"Rochdale","local":"Рочдейл","country":"GB","lat":53.618,"lon":-2.155,"pop":97550,"tz":"Europe/London"},{"id":3390288,"name":"Rio Largo","local":"Rio Largo","country":"BR","lat":-9.478,"lon":-35.853,"pop":97435,"tz":"America/Maceio"},{"id":502965,"name":"Ramenskoye","local":"Раменское","country":"RU","lat":55.563,"lon":38.242,"pop":96000,"tz":"Europe/Moscow"},{"id":3838859,"name":"Rio Gallegos","local":"Рио-Гальегос","country":"AR","lat":-51.625,"lon":-69.252,"pop":95796,"tz":"America/Argentina/Rio_Gallegos"},{"id":2644737,"name":"Royal Leamington Spa","local":"Лемингтон Спа","country":"GB","lat":52.285,"lon":-1.52,"pop":95172,"tz":"Europe/London"},{"id":2639192,"name":"Romford","local":"Romford","country":"GB","lat":51.575,"lon":0.186,"pop":95000,"tz":"Europe/London"},{"id":2511716,"name":"Roquetas de Mar","local":"Рокетас-де-Мар","country":"ES","lat":36.764,"lon":-2.615,"pop":94925,"tz":"Europe/Madrid"},{"id":4219934,"name":"Roswell","local":"Розвел","country":"US","lat":34.023,"lon":-84.362,"pop":94501,"tz":"America/New_York"},{"id":882009,"name":"Ruwa","local":"Рува","country":"ZW","lat":-17.89,"lon":31.245,"pop":94083,"tz":"Africa/Harare"},{"id":3628952,"name":"Rubio","local":"Рубио","country":"VE","lat":7.702,"lon":-72.356,"pop":93197,"tz":"America/Caracas"},{"id":668872,"name":"Ramnicu Valcea","local":"Рымнику-Вылча","country":"RO","lat":45.1,"lon":24.367,"pop":93151,"tz":"Europe/Bucharest"},{"id":2850872,"name":"Rahlstedt","local":"Ралштет","country":"DE","lat":53.602,"lon":10.157,"pop":92511,"tz":"Europe/Berlin"},{"id":1150954,"name":"Ratchaburi","local":"Ратчабури","country":"TH","lat":13.537,"lon":99.817,"pop":92448,"tz":"Asia/Bangkok"},{"id":1258803,"name":"Rajpura","local":"Rajpura","country":"IN","lat":30.479,"lon":76.593,"pop":92301,"tz":"Asia/Kolkata"},{"id":2850174,"name":"Ratingen","local":"Ратинген","country":"DE","lat":51.297,"lon":6.849,"pop":91606,"tz":"Europe/Berlin"},{"id":5570160,"name":"Redding","local":"Реддинг","country":"US","lat":40.587,"lon":-122.392,"pop":91582,"tz":"America/Los_Angeles"},{"id":1258291,"name":"Rayachoti","local":"Rayachoti","country":"IN","lat":14.057,"lon":78.751,"pop":91234,"tz":"Asia/Kolkata"},{"id":3590858,"name":"Retalhuleu","local":"Реталулеу","country":"GT","lat":14.536,"lon":-91.678,"pop":90505,"tz":"America/Guatemala"},{"id":3429594,"name":"Reconquista","local":"Реконкиста","country":"AR","lat":-29.15,"lon":-59.65,"pop":90184,"tz":"America/Argentina/Cordoba"},{"id":1258099,"name":"Roha","local":"Roha","country":"IN","lat":18.437,"lon":73.12,"pop":90000,"tz":"Asia/Kolkata"},{"id":1258686,"name":"Ramgarh","local":"Rāmgarh","country":"IN","lat":23.63,"lon":85.522,"pop":88781,"tz":"Asia/Kolkata"},{"id":3839479,"name":"Rafaela","local":"Рафаэла","country":"AR","lat":-31.253,"lon":-61.491,"pop":88713,"tz":"America/Argentina/Cordoba"},{"id":5207728,"name":"Reading","local":"Рединг","country":"US","lat":40.336,"lon":-75.927,"pop":87879,"tz":"America/New_York"},{"id":5487811,"name":"Rio Rancho","local":"Рио-Ранчо","country":"US","lat":35.233,"lon":-106.664,"pop":87521,"tz":"America/Denver"},{"id":1607055,"name":"Rat Burana","local":"Rat Burana","country":"TH","lat":13.682,"lon":100.506,"pop":86695,"tz":"Asia/Bangkok"},{"id":226554,"name":"Rutoma","local":"Rutoma","country":"UG","lat":-0.567,"lon":30.383,"pop":86100,"tz":"Africa/Kampala"},{"id":2111258,"name":"Ryugasaki","local":"Рюгасаки","country":"JP","lat":35.9,"lon":140.183,"pop":85761,"tz":"Asia/Tokyo"},{"id":6318107,"name":"Redencao","local":"Redenção","country":"BR","lat":-8.029,"lon":-50.031,"pop":85597,"tz":"America/Belem"},{"id":5386834,"name":"Redwood City","local":"Редвуд Сити","country":"US","lat":37.485,"lon":-122.236,"pop":85288,"tz":"America/Los_Angeles"},{"id":11428685,"name":"Rukban","local":"Rukban","country":"JO","lat":33.314,"lon":38.703,"pop":85000,"tz":"Asia/Amman"},{"id":6119518,"name":"Repentigny","local":"Репантиньи","country":"CA","lat":45.742,"lon":-73.45,"pop":84965,"tz":"America/Toronto"},{"id":2639557,"name":"Redditch","local":"Реддитч","country":"GB","lat":52.306,"lon":-1.946,"pop":84300,"tz":"Europe/London"},{"id":2848756,"name":"Reinickendorf","local":"Reinickendorf","country":"DE","lat":52.564,"lon":13.336,"pop":83972,"tz":"Europe/Berlin"},{"id":206047,"name":"Rutshuru","local":"Рутшуру","country":"CD","lat":-1.187,"lon":29.447,"pop":82680,"tz":"Africa/Lubumbashi"},{"id":12047417,"name":"Reef Al Fujairah City","local":"Reef Al Fujairah City","country":"AE","lat":25.145,"lon":56.248,"pop":82310,"tz":"Asia/Dubai"},{"id":668954,"name":"Resita","local":"Решица","country":"RO","lat":45.301,"lon":21.889,"pop":81228,"tz":"Europe/Bucharest"},{"id":2151437,"name":"Rockhampton","local":"Рокхемптон","country":"AU","lat":-23.38,"lon":150.506,"pop":81021,"tz":"Australia/Brisbane"},{"id":3169561,"name":"Ravenna","local":"Равенна","country":"IT","lat":44.413,"lon":12.201,"pop":80868,"tz":"Europe/Rome"},{"id":2482886,"name":"Rouissat","local":"Rouissat","country":"DZ","lat":31.924,"lon":5.35,"pop":80784,"tz":"Africa/Algiers"},{"id":1279715,"name":"Rikaze","local":"Шигадзе","country":"CN","lat":29.25,"lon":88.883,"pop":80000,"tz":"Asia/Shanghai"},{"id":502018,"name":"Reutov","local":"Реутов","country":"RU","lat":55.763,"lon":37.863,"pop":78370,"tz":"Europe/Moscow"},{"id":2847631,"name":"Rheinhausen","local":"Rheinhausen","country":"DE","lat":51.401,"lon":6.712,"pop":78203,"tz":"Europe/Berlin"},{"id":5268249,"name":"Racine","local":"Расин","country":"US","lat":42.726,"lon":-87.783,"pop":77742,"tz":"America/Chicago"},{"id":2747930,"name":"Roosendaal","local":"Розендаль","country":"NL","lat":51.531,"lon":4.465,"pop":77725,"tz":"Europe/Amsterdam"},{"id":8740018,"name":"Rabkavi-Banhatti","local":"Rabkavi-Banhatti","country":"IN","lat":16.47,"lon":75.12,"pop":77004,"tz":"Asia/Kolkata"},{"id":2982235,"name":"Rueil-Malmaison","local":"Рюэй-Мальмезон","country":"FR","lat":48.877,"lon":2.19,"pop":76616,"tz":"Europe/Paris"},{"id":2847645,"name":"Rheine","local":"Райн","country":"DE","lat":52.285,"lon":7.441,"pop":76491,"tz":"Europe/Berlin"},{"id":293768,"name":"Ramla","local":"Рамла","country":"IL","lat":31.926,"lon":34.864,"pop":76246,"tz":"Asia/Jerusalem"},{"id":1258338,"name":"Ratnagiri","local":"Ратнагири","country":"IN","lat":16.992,"lon":73.31,"pop":76229,"tz":"Asia/Kolkata"},{"id":293807,"name":"Ra'anana","local":"Ra'anana","country":"IL","lat":32.184,"lon":34.874,"pop":75421,"tz":"Asia/Jerusalem"},{"id":3353383,"name":"Rundu","local":"Рунду","country":"NA","lat":-17.918,"lon":19.773,"pop":75180,"tz":"Africa/Windhoek"},{"id":118826,"name":"Ramhormoz","local":"Rāmhormoz","country":"IR","lat":31.28,"lon":49.604,"pop":74285,"tz":"Asia/Tehran"},{"id":2523650,"name":"Ragusa","local":"Рагуза","country":"IT","lat":36.926,"lon":14.724,"pop":74251,"tz":"Europe/Rome"},{"id":1259083,"name":"Rabkavi","local":"Rabkavi","country":"IN","lat":16.476,"lon":75.111,"pop":73835,"tz":"Asia/Kolkata"},{"id":5768233,"name":"Rapid City","local":"Рапид-Сити","country":"US","lat":44.081,"lon":-103.231,"pop":73569,"tz":"America/Denver"},{"id":5007402,"name":"Rochester Hills","local":"Рочестер-Хилс","country":"US","lat":42.658,"lon":-83.15,"pop":73424,"tz":"America/Detroit"},{"id":2638978,"name":"Rugby","local":"Рагби","country":"GB","lat":52.371,"lon":-1.264,"pop":73150,"tz":"Europe/London"},{"id":2246544,"name":"Richard-Toll","local":"Richard-Toll","country":"SN","lat":16.462,"lon":-15.701,"pop":73147,"tz":"Africa/Dakar"},{"id":7026885,"name":"Ratchathewi","local":"Ratchathewi","country":"TH","lat":13.759,"lon":100.534,"pop":73035,"tz":"Asia/Bangkok"},{"id":3111294,"name":"Rubi","local":"Руби","country":"ES","lat":41.492,"lon":2.033,"pop":72987,"tz":"Europe/Madrid"},{"id":3390160,"name":"Russas","local":"Russas","country":"BR","lat":-4.94,"lon":-37.976,"pop":72928,"tz":"America/Fortaleza"},{"id":103035,"name":"Rabigh","local":"Rābigh","country":"SA","lat":22.799,"lon":39.035,"pop":72928,"tz":"Asia/Riyadh"},{"id":293690,"name":"Rosh Ha'Ayin","local":"Rosh Ha‘Ayin","country":"IL","lat":32.096,"lon":34.957,"pop":72881,"tz":"Asia/Jerusalem"},{"id":3451152,"name":"Rio do Sul","local":"Риу-ду-Сул","country":"BR","lat":-27.214,"lon":-49.643,"pop":72587,"tz":"America/Sao_Paulo"},{"id":3450964,"name":"Rolandia","local":"Rolândia","country":"BR","lat":-23.31,"lon":-51.369,"pop":71670,"tz":"America/Sao_Paulo"},{"id":4593142,"name":"Rock Hill","local":"Rock Hill","country":"US","lat":34.925,"lon":-81.025,"pop":71548,"tz":"America/New_York"},{"id":1258289,"name":"Rayagada","local":"Rāyagada","country":"IN","lat":19.171,"lon":83.414,"pop":71208,"tz":"Asia/Kolkata"},{"id":1258366,"name":"Ratangarh","local":"Ratangarh","country":"IN","lat":28.081,"lon":74.619,"pop":71124,"tz":"Asia/Kolkata"},{"id":4170156,"name":"Riverview","local":"Ривервью","country":"US","lat":27.866,"lon":-82.326,"pop":71050,"tz":"America/New_York"},{"id":5386754,"name":"Redlands","local":"Редлендс","country":"US","lat":34.056,"lon":-117.183,"pop":71035,"tz":"America/Los_Angeles"},{"id":5385941,"name":"Rancho Cordova","local":"Ранчо Кордова","country":"US","lat":38.589,"lon":-121.303,"pop":71017,"tz":"America/Los_Angeles"},{"id":1258546,"name":"Ranaghat","local":"Rānāghāt","country":"IN","lat":23.176,"lon":88.567,"pop":70984,"tz":"Asia/Kolkata"},{"id":6822115,"name":"Ritto","local":"Rittō","country":"JP","lat":35.027,"lon":136.0,"pop":70312,"tz":"Asia/Tokyo"},{"id":1167507,"name":"Rabwah","local":"Rabwah","country":"PK","lat":31.755,"lon":72.914,"pop":70000,"tz":"Asia/Karachi"},{"id":1630238,"name":"Raha","local":"Raha","country":"ID","lat":-4.838,"lon":122.721,"pop":69980,"tz":"Asia/Makassar"},{"id":1282884,"name":"Rajbiraj","local":"Rājbirāj","country":"NP","lat":26.54,"lon":86.748,"pop":69803,"tz":"Asia/Kathmandu"},{"id":5133858,"name":"Ridgewood","local":"Ridgewood","country":"US","lat":40.7,"lon":-73.906,"pop":69317,"tz":"America/New_York"},{"id":2639022,"name":"Royal Tunbridge Wells","local":"Ројал Танбриџ Велс","country":"GB","lat":51.133,"lon":0.263,"pop":68910,"tz":"Europe/London"},{"id":3107112,"name":"Rivas-Vaciamadrid","local":"Васиамадрид","country":"ES","lat":40.326,"lon":-3.511,"pop":68405,"tz":"Europe/Madrid"},{"id":5386785,"name":"Redondo Beach","local":"Редондо-Бич","country":"US","lat":33.849,"lon":-118.388,"pop":68166,"tz":"America/Los_Angeles"},{"id":668732,"name":"Roman","local":"Роман","country":"RO","lat":46.921,"lon":26.926,"pop":67819,"tz":"Europe/Bucharest"},{"id":1258797,"name":"Rajsamand","local":"Rājsamand","country":"IN","lat":25.071,"lon":73.88,"pop":67798,"tz":"Asia/Kolkata"},{"id":1691509,"name":"Rosales","local":"Rosales","country":"PH","lat":15.894,"lon":120.633,"pop":67510,"tz":"Asia/Manila"},{"id":8299614,"name":"Rossendale","local":"Rossendale","country":"GB","lat":53.685,"lon":-2.277,"pop":67400,"tz":"Europe/London"},{"id":4367175,"name":"Rockville","local":"Роквилл","country":"US","lat":39.084,"lon":-77.153,"pop":66980,"tz":"America/New_York"},{"id":3991043,"name":"Ramos Arizpe","local":"Рамос-Ариспе","country":"MX","lat":25.539,"lon":-100.947,"pop":66554,"tz":"America/Monterrey"},{"id":1258128,"name":"Rishikesh","local":"Ришикеш","country":"IN","lat":30.108,"lon":78.293,"pop":66390,"tz":"Asia/Kolkata"},{"id":2042645,"name":"Rajin","local":"Радзин","country":"KP","lat":42.256,"lon":130.283,"pop":66224,"tz":"Asia/Pyongyang"},{"id":6241325,"name":"Rotorua","local":"Роторуа","country":"NZ","lat":-38.139,"lon":176.245,"pop":65901,"tz":"Pacific/Auckland"},{"id":638936,"name":"Rovaniemi","local":"Рованиеми","country":"FI","lat":66.499,"lon":25.689,"pop":65670,"tz":"Europe/Helsinki"},{"id":1258740,"name":"Ramanathapuram","local":"Раманатхапурама","country":"IN","lat":9.372,"lon":78.831,"pop":65314,"tz":"Asia/Kolkata"},{"id":622794,"name":"Rechytsa","local":"Речица","country":"BY","lat":52.362,"lon":30.392,"pop":65213,"tz":"Europe/Minsk"},{"id":5387152,"name":"Reseda","local":"Reseda","country":"US","lat":34.201,"lon":-118.536,"pop":65000,"tz":"America/Los_Angeles"},{"id":1185236,"name":"Raipur","local":"Райпур","country":"BD","lat":23.039,"lon":90.768,"pop":64652,"tz":"Asia/Dhaka"},{"id":3440781,"name":"Rivera","local":"Ривера","country":"UY","lat":-30.905,"lon":-55.551,"pop":64631,"tz":"America/Montevideo"},{"id":1797158,"name":"Renzhao","local":"Renzhao","country":"CN","lat":36.639,"lon":120.204,"pop":64569,"tz":"Asia/Shanghai"},{"id":501215,"name":"Rossosh'","local":"Россошь","country":"RU","lat":51.121,"lon":38.512,"pop":64323,"tz":"Europe/Moscow"},{"id":1259056,"name":"Raghogarh","local":"Rāghogarh","country":"IN","lat":24.443,"lon":77.198,"pop":63873,"tz":"Asia/Kolkata"},{"id":4128894,"name":"Rogers","local":"Роджерс","country":"US","lat":36.332,"lon":-94.119,"pop":63159,"tz":"America/Chicago"},{"id":2638960,"name":"Runcorn","local":"Ранкорн","country":"GB","lat":53.342,"lon":-2.731,"pop":62872,"tz":"Europe/London"},{"id":2615006,"name":"Randers","local":"Рандерс","country":"DK","lat":56.461,"lon":10.036,"pop":62802,"tz":"Europe/Copenhagen"},{"id":118367,"name":"Robat Karim","local":"Robāţ Karīm","country":"IR","lat":35.485,"lon":51.083,"pop":62753,"tz":"Asia/Tehran"},{"id":1258207,"name":"Renukut","local":"Renukūt","country":"IN","lat":24.216,"lon":83.036,"pop":62413,"tz":"Asia/Kolkata"},{"id":499717,"name":"Rzhev","local":"Ржев","country":"RU","lat":56.263,"lon":34.329,"pop":62246,"tz":"Europe/Moscow"},{"id":501231,"name":"Rossosh'","local":"Россошь","country":"RU","lat":50.196,"lon":39.566,"pop":62000,"tz":"Europe/Moscow"},{"id":502011,"name":"Revda","local":"Ревда","country":"RU","lat":56.802,"lon":59.938,"pop":61785,"tz":"Asia/Yekaterinburg"},{"id":1258290,"name":"Rayadrug","local":"Rāyadrug","country":"IN","lat":14.7,"lon":76.852,"pop":61749,"tz":"Asia/Kolkata"},{"id":1258352,"name":"Rath","local":"Рата","country":"IN","lat":25.595,"lon":79.567,"pop":61728,"tz":"Asia/Kolkata"},{"id":5388319,"name":"Rocklin","local":"Роклин","country":"US","lat":38.791,"lon":-121.236,"pop":61213,"tz":"America/Los_Angeles"},{"id":11962428,"name":"Republica","local":"Republica","country":"BR","lat":-23.545,"lon":-46.641,"pop":60720,"tz":"America/Sao_Paulo"},{"id":5808079,"name":"Redmond","local":"Редмонд","country":"US","lat":47.674,"lon":-122.122,"pop":60598,"tz":"America/Los_Angeles"},{"id":4724194,"name":"Rowlett","local":"Rowlett","country":"US","lat":32.903,"lon":-96.564,"pop":60236,"tz":"America/Chicago"},{"id":1797038,"name":"Runing","local":"Runing","country":"CN","lat":33.001,"lon":114.354,"pop":60202,"tz":"Asia/Shanghai"},{"id":2844988,"name":"Rosenheim","local":"Розенхайм","country":"DE","lat":47.856,"lon":12.122,"pop":60167,"tz":"Europe/Berlin"},{"id":5386039,"name":"Rancho Penasquitos","local":"Rancho Penasquitos","country":"US","lat":32.959,"lon":-117.115,"pop":60000,"tz":"America/Los_Angeles"},{"id":2467815,"name":"Rades","local":"Радес","country":"TN","lat":36.769,"lon":10.275,"pop":59998,"tz":"Africa/Tunis"},{"id":3451704,"name":"Registro","local":"Registro","country":"BR","lat":-24.488,"lon":-47.844,"pop":59947,"tz":"America/Sao_Paulo"},{"id":2842884,"name":"Ruesselsheim am Main","local":"Рюссельсхайм","country":"DE","lat":49.99,"lon":8.423,"pop":59730,"tz":"Europe/Berlin"},{"id":2639447,"name":"Rhondda","local":"Ронда","country":"GB","lat":51.659,"lon":-3.449,"pop":59450,"tz":"Europe/London"},{"id":1258868,"name":"Rajgarh","local":"Rājgarh","country":"IN","lat":28.642,"lon":75.386,"pop":59193,"tz":"Asia/Kolkata"},{"id":3451261,"name":"Rio Bonito","local":"Rio Bonito","country":"BR","lat":-22.709,"lon":-42.61,"pop":59113,"tz":"America/Sao_Paulo"},{"id":5007804,"name":"Royal Oak","local":"Ройал-Ок","country":"US","lat":42.489,"lon":-83.145,"pop":59008,"tz":"America/Detroit"},{"id":3087584,"name":"Raciborz","local":"Ратибор","country":"PL","lat":50.092,"lon":18.219,"pop":58464,"tz":"Europe/Warsaw"},{"id":4781530,"name":"Reston","local":"Рестон","country":"US","lat":38.969,"lon":-77.341,"pop":58404,"tz":"America/New_York"},{"id":1443381,"name":"Roshanpura","local":"Roshanpura","country":"IN","lat":28.601,"lon":76.989,"pop":57217,"tz":"Asia/Kolkata"},{"id":302355,"name":"Reyhanli","local":"Рейханлы","country":"TR","lat":36.268,"lon":36.567,"pop":56995,"tz":"Europe/Istanbul"},{"id":501283,"name":"Roslavl'","local":"Рославль","country":"RU","lat":53.954,"lon":32.864,"pop":56971,"tz":"Europe/Moscow"},{"id":6318182,"name":"Rolim de Moura","local":"Rolim de Moura","country":"BR","lat":-11.804,"lon":-61.803,"pop":56406,"tz":"America/Porto_Velho"},{"id":400666,"name":"Rodos","local":"Родос","country":"GR","lat":36.436,"lon":28.222,"pop":56128,"tz":"Europe/Athens"},{"id":1257951,"name":"Ropar","local":"Ropar","country":"IN","lat":30.969,"lon":76.527,"pop":56038,"tz":"Asia/Kolkata"},{"id":2787889,"name":"Roeselare","local":"Руселаре","country":"BE","lat":50.947,"lon":3.123,"pop":56016,"tz":"Europe/Brussels"},{"id":4488762,"name":"Rocky Mount","local":"Роки-Маунт","country":"US","lat":35.938,"lon":-77.791,"pop":55806,"tz":"America/New_York"},{"id":423549,"name":"Rumonge","local":"Rumonge","country":"BI","lat":-3.974,"lon":29.439,"pop":55599,"tz":"Africa/Bujumbura"},{"id":1258294,"name":"Raxaul","local":"Раксаул","country":"IN","lat":26.98,"lon":84.851,"pop":55536,"tz":"Asia/Kolkata"},{"id":617486,"name":"Ribnita","local":"Рыбница","country":"MD","lat":47.768,"lon":29.01,"pop":55455,"tz":"Europe/Chisinau"},{"id":695274,"name":"Rubizhne","local":"Рубежное","country":"UA","lat":49.006,"lon":38.381,"pop":55247,"tz":"Europe/Kyiv"},{"id":1185127,"name":"Ramganj","local":"Rāmganj","country":"BD","lat":23.101,"lon":90.85,"pop":55241,"tz":"Asia/Dhaka"},{"id":500019,"name":"Rybatskoye","local":"Рыбацкое","country":"RU","lat":59.839,"lon":30.499,"pop":55076,"tz":"Europe/Moscow"},{"id":2483757,"name":"Reghaia","local":"Reghaïa","country":"DZ","lat":36.736,"lon":3.34,"pop":54962,"tz":"Africa/Algiers"},{"id":5388867,"name":"Rosemead","local":"Роузмид","country":"US","lat":34.081,"lon":-118.073,"pop":54908,"tz":"America/Los_Angeles"},{"id":2263827,"name":"Rio de Mouro","local":"Rio de Mouro","country":"PT","lat":38.766,"lon":-9.328,"pop":54695,"tz":"Europe/Lisbon"},{"id":4908033,"name":"Rogers Park","local":"Rogers Park","country":"US","lat":42.009,"lon":-87.667,"pop":54402,"tz":"America/Chicago"},{"id":5808276,"name":"Richland","local":"Ричленд","country":"US","lat":46.286,"lon":-119.284,"pop":54248,"tz":"America/Los_Angeles"},{"id":1258922,"name":"Razampeta","local":"Rāzampeta","country":"IN","lat":14.195,"lon":79.159,"pop":54050,"tz":"Asia/Kolkata"},{"id":3451383,"name":"Ribeira do Pombal","local":"Ribeira do Pombal","country":"BR","lat":-10.834,"lon":-38.536,"pop":54010,"tz":"America/Bahia"},{"id":1258581,"name":"Rampur Hat","local":"Rampur Hat","country":"IN","lat":24.177,"lon":87.783,"pop":53468,"tz":"Asia/Kolkata"},{"id":4832294,"name":"Revere","local":"Ревир","country":"US","lat":42.408,"lon":-71.012,"pop":53422,"tz":"America/New_York"},{"id":3838793,"name":"Rio Tercero","local":"Río Tercero","country":"AR","lat":-32.177,"lon":-64.113,"pop":53389,"tz":"America/Argentina/Cordoba"},{"id":6318184,"name":"Rondon do Para","local":"Rondon do Pará","country":"BR","lat":-4.776,"lon":-48.067,"pop":53143,"tz":"America/Belem"},{"id":3520235,"name":"Rioverde","local":"Rioverde","country":"MX","lat":21.931,"lon":-99.995,"pop":53128,"tz":"America/Mexico_City"},{"id":3838854,"name":"Rio Grande","local":"Рио-Гранде","country":"AR","lat":-53.788,"lon":-67.71,"pop":52681,"tz":"America/Argentina/Ushuaia"},{"id":1521370,"name":"Ridder","local":"Лениногорск","country":"KZ","lat":50.345,"lon":83.516,"pop":52664,"tz":"Asia/Almaty"},{"id":13494722,"name":"Ramapuram","local":"Ramapuram","country":"IN","lat":13.032,"lon":80.182,"pop":52295,"tz":"Asia/Kolkata"},{"id":2639506,"name":"Reigate","local":"Райгейт","country":"GB","lat":51.237,"lon":-0.206,"pop":52123,"tz":"Europe/London"},{"id":2614481,"name":"Roskilde","local":"Роскилле","country":"DK","lat":55.642,"lon":12.08,"pop":51916,"tz":"Europe/Copenhagen"},{"id":2639545,"name":"Redhill","local":"Redhill","country":"GB","lat":51.24,"lon":-0.17,"pop":51559,"tz":"Europe/London"},{"id":6119451,"name":"Renfrew-Collingwood","local":"Renfrew-Collingwood","country":"CA","lat":49.245,"lon":-123.038,"pop":51530,"tz":"America/Vancouver"},{"id":8741053,"name":"Rajgangpur","local":"Rajgangpur","country":"IN","lat":22.2,"lon":84.583,"pop":51362,"tz":"Asia/Kolkata"},{"id":1258637,"name":"Ramnagar","local":"Rāmnagar","country":"IN","lat":29.392,"lon":79.128,"pop":51244,"tz":"Asia/Kolkata"},{"id":2151716,"name":"Reservoir","local":"Reservoir","country":"AU","lat":-37.717,"lon":145.0,"pop":51096,"tz":"Australia/Melbourne"},{"id":11184474,"name":"Rampura Phul","local":"Rampura Phul","country":"IN","lat":30.276,"lon":75.243,"pop":51023,"tz":"Asia/Kolkata"},{"id":1258201,"name":"Repalle","local":"Репалле","country":"IN","lat":16.018,"lon":80.83,"pop":50866,"tz":"Asia/Kolkata"},{"id":1167380,"name":"Rajanpur","local":"Rajanpur","country":"PK","lat":29.104,"lon":70.33,"pop":50682,"tz":"Asia/Karachi"},{"id":1166827,"name":"Rohri","local":"Rohri","country":"PK","lat":27.692,"lon":68.895,"pop":50649,"tz":"Asia/Karachi"},{"id":3168843,"name":"Rovigo","local":"Ровиго","country":"IT","lat":45.07,"lon":11.79,"pop":50279,"tz":"Europe/Rome"},{"id":1258386,"name":"Rasipuram","local":"Rasipuram","country":"IN","lat":11.46,"lon":78.186,"pop":50244,"tz":"Asia/Kolkata"},{"id":1161983,"name":"Rawalakot","local":"Равалакот","country":"PK","lat":33.858,"lon":73.76,"pop":50000,"tz":"Asia/Karachi"},{"id":2735083,"name":"Rio Tinto","local":"Риу-Тинту","country":"PT","lat":41.179,"lon":-8.56,"pop":49966,"tz":"Europe/Lisbon"},{"id":5006917,"name":"Redford","local":"Редфорд","country":"US","lat":42.383,"lon":-83.297,"pop":49936,"tz":"America/Detroit"},{"id":2111268,"name":"Ryogoku","local":"Ryōgoku","country":"JP","lat":35.717,"lon":140.367,"pop":49735,"tz":"Asia/Tokyo"},{"id":13132719,"name":"Rwamwanja Refugee Camp","local":"Rwamwanja Refugee Camp","country":"UG","lat":0.348,"lon":30.654,"pop":49700,"tz":"Africa/Kampala"},{"id":5386082,"name":"Rancho Santa Margarita","local":"Ранчо Санта Маргарита","country":"US","lat":33.641,"lon":-117.603,"pop":49324,"tz":"America/Los_Angeles"},{"id":500299,"name":"Ruzayevka","local":"Рузаевка","country":"RU","lat":54.06,"lon":44.949,"pop":49311,"tz":"Europe/Moscow"},{"id":418521,"name":"Rehnan","local":"Rehnān","country":"IR","lat":32.683,"lon":51.602,"pop":49143,"tz":"Asia/Tehran"},{"id":5389126,"name":"Rowland Heights","local":"Ровланд Хајтс","country":"US","lat":33.976,"lon":-117.905,"pop":48993,"tz":"America/Los_Angeles"},{"id":2849802,"name":"Ravensburg","local":"Равенсбург","country":"DE","lat":47.782,"lon":9.611,"pop":48825,"tz":"Europe/Berlin"},{"id":3169231,"name":"Rivoli","local":"Риволи","country":"IT","lat":45.071,"lon":7.515,"pop":48629,"tz":"Europe/Rome"},{"id":5488441,"name":"Roswell","local":"Розуэлл","country":"US","lat":33.394,"lon":-104.525,"pop":48544,"tz":"America/Denver"},{"id":1258639,"name":"Ramnagar","local":"Rāmnagar","country":"IN","lat":27.164,"lon":84.323,"pop":48411,"tz":"Asia/Kolkata"},{"id":2850257,"name":"Rastatt","local":"Раштатт","country":"DE","lat":48.859,"lon":8.21,"pop":47906,"tz":"Europe/Berlin"},{"id":1228730,"name":"Ratnapura","local":"Ратнапуры","country":"LK","lat":6.686,"lon":80.404,"pop":47832,"tz":"Asia/Colombo"},{"id":1167031,"name":"Ratodero","local":"Ратодеро","country":"PK","lat":27.802,"lon":68.289,"pop":47819,"tz":"Asia/Karachi"},{"id":1540356,"name":"Raduzhny","local":"Радужный","country":"RU","lat":62.096,"lon":77.475,"pop":47679,"tz":"Asia/Yekaterinburg"},{"id":5007655,"name":"Roseville","local":"Розвелл","country":"US","lat":42.497,"lon":-82.937,"pop":47637,"tz":"America/Detroit"},{"id":118191,"name":"Rudsar","local":"Rūdsar","country":"IR","lat":37.137,"lon":50.292,"pop":47502,"tz":"Asia/Tehran"},{"id":2748076,"name":"Rijswijk","local":"Rijswijk","country":"NL","lat":52.036,"lon":4.325,"pop":47299,"tz":"Europe/Amsterdam"},{"id":293783,"name":"Ramat HaSharon","local":"Рамат-ха-Шарон","country":"IL","lat":32.146,"lon":34.839,"pop":47245,"tz":"Asia/Jerusalem"},{"id":201463,"name":"Rwamagana","local":"Рвамагана","country":"RW","lat":-1.949,"lon":30.435,"pop":47203,"tz":"Africa/Kigali"},{"id":3169447,"name":"Rho","local":"Ро","country":"IT","lat":45.532,"lon":9.04,"pop":47086,"tz":"Europe/Rome"},{"id":6128081,"name":"Rouge","local":"Rouge","country":"CA","lat":43.804,"lon":-79.166,"pop":46496,"tz":"America/Toronto"},{"id":2847690,"name":"Rheda-Wiedenbrueck","local":"Ред-Виденбрюк","country":"DE","lat":51.85,"lon":8.3,"pop":46123,"tz":"Europe/Berlin"},{"id":1258534,"name":"Ranavav","local":"Rānāvāv","country":"IN","lat":21.687,"lon":69.745,"pop":46018,"tz":"Asia/Kolkata"},{"id":502793,"name":"Rasskazovo","local":"Рассказово","country":"RU","lat":52.664,"lon":41.889,"pop":45957,"tz":"Europe/Moscow"},{"id":12808660,"name":"Roquette","local":"Roquette","country":"FR","lat":48.858,"lon":2.381,"pop":45842,"tz":"Europe/Paris"},{"id":1258584,"name":"Rampura","local":"Rāmpura","country":"IN","lat":30.256,"lon":75.241,"pop":45639,"tz":"Asia/Kolkata"},{"id":695379,"name":"Rovenky","local":"Ровеньки","country":"UA","lat":48.083,"lon":39.378,"pop":45514,"tz":"Europe/Kyiv"},{"id":2748172,"name":"Ridderkerk","local":"Риддеркерк","country":"NL","lat":51.873,"lon":4.603,"pop":45189,"tz":"Europe/Amsterdam"},{"id":2748000,"name":"Roermond","local":"Рурмонда","country":"NL","lat":51.194,"lon":5.987,"pop":44975,"tz":"Europe/Amsterdam"},{"id":2483936,"name":"Ras el Oued","local":"Рас-эль-Уэд","country":"DZ","lat":35.944,"lon":5.031,"pop":44947,"tz":"Africa/Algiers"},{"id":1258698,"name":"Rameswaram","local":"Рамешварам","country":"IN","lat":9.289,"lon":79.313,"pop":44856,"tz":"Asia/Kolkata"},{"id":350207,"name":"Ras Gharib","local":"Ras Gharib","country":"EG","lat":28.358,"lon":33.078,"pop":44852,"tz":"Africa/Cairo"},{"id":3086706,"name":"Rumia","local":"Румя","country":"PL","lat":54.571,"lon":18.388,"pop":44791,"tz":"Europe/Warsaw"},{"id":3087497,"name":"Radomsko","local":"Радомско","country":"PL","lat":51.067,"lon":19.445,"pop":44700,"tz":"Europe/Warsaw"},{"id":3542502,"name":"Regla","local":"Regla","country":"CU","lat":23.125,"lon":-82.332,"pop":44431,"tz":"America/Havana"},{"id":1258642,"name":"Ramnagar","local":"Rāmnagar","country":"IN","lat":25.269,"lon":83.03,"pop":44277,"tz":"Asia/Kolkata"},{"id":350350,"name":"Rafah","local":"Rafaḩ","country":"EG","lat":31.282,"lon":34.239,"pop":44215,"tz":"Africa/Cairo"},{"id":3451134,"name":"Rio Grande da Serra","local":"Rio Grande da Serra","country":"BR","lat":-23.744,"lon":-46.398,"pop":44170,"tz":"America/Sao_Paulo"},{"id":1258952,"name":"Raisen","local":"Raisen","country":"IN","lat":23.33,"lon":77.781,"pop":44162,"tz":"Asia/Kolkata"},{"id":12047644,"name":"Rejon placu Swietego Macieja","local":"Rejon placu Świętego Macieja","country":"PL","lat":51.121,"lon":17.038,"pop":44090,"tz":"Europe/Warsaw"},{"id":1629749,"name":"Rembangan","local":"Rembangan","country":"ID","lat":-6.704,"lon":111.342,"pop":44030,"tz":"Asia/Jakarta"},{"id":500886,"name":"Rtishchevo","local":"Ртищево","country":"RU","lat":52.26,"lon":43.787,"pop":44013,"tz":"Europe/Saratov"},{"id":5133640,"name":"Rego Park","local":"Риго-Парк","country":"US","lat":40.726,"lon":-73.853,"pop":43925,"tz":"America/New_York"},{"id":282239,"name":"Ramallah","local":"Рамалла","country":"PS","lat":31.9,"lon":35.204,"pop":43880,"tz":"Asia/Hebron"},{"id":1797126,"name":"Rizhuang","local":"Rizhuang","country":"CN","lat":36.951,"lon":120.383,"pop":43758,"tz":"Asia/Shanghai"},{"id":3542744,"name":"Ranchuelo","local":"Ranchuelo","country":"CU","lat":22.373,"lon":-80.15,"pop":43695,"tz":"America/Havana"},{"id":1258756,"name":"Ramachandrapuram","local":"Rāmachandrapuram","country":"IN","lat":16.836,"lon":82.029,"pop":43657,"tz":"Asia/Kolkata"},{"id":3336893,"name":"Rodgau","local":"Родгау","country":"DE","lat":50.026,"lon":8.886,"pop":43315,"tz":"Europe/Berlin"},{"id":1853354,"name":"Ryuo","local":"Ryūō","country":"JP","lat":35.65,"lon":138.5,"pop":43180,"tz":"Asia/Tokyo"},{"id":13353689,"name":"Ranjangaon S","local":"Ranjangaon S","country":"IN","lat":19.844,"lon":75.215,"pop":42877,"tz":"Asia/Kolkata"},{"id":1691804,"name":"Recodo","local":"Recodo","country":"PH","lat":6.952,"lon":121.964,"pop":42788,"tz":"Asia/Manila"},{"id":5386035,"name":"Rancho Palos Verdes","local":"Ранчо Палос Вердес","country":"US","lat":33.744,"lon":-118.387,"pop":42732,"tz":"America/Los_Angeles"},{"id":2843729,"name":"Rottenburg","local":"Rottenburg","country":"DE","lat":48.476,"lon":8.935,"pop":42721,"tz":"Europe/Berlin"},{"id":2639524,"name":"Redruth","local":"Редрът","country":"GB","lat":50.233,"lon":-5.224,"pop":42690,"tz":"Europe/London"},{"id":2843350,"name":"Rudow","local":"Rudow","country":"DE","lat":52.424,"lon":13.485,"pop":42631,"tz":"Europe/Berlin"},{"id":4723406,"name":"Rockwall","local":"Роквол","country":"US","lat":32.931,"lon":-96.46,"pop":42566,"tz":"America/Chicago"},{"id":5388564,"name":"Rohnert Park","local":"Ронерт Парк","country":"US","lat":38.34,"lon":-122.701,"pop":42407,"tz":"America/Los_Angeles"},{"id":6354895,"name":"Rimouski","local":"Римуски","country":"CA","lat":48.449,"lon":-68.524,"pop":42240,"tz":"America/Toronto"},{"id":1258270,"name":"Razam","local":"Rāzām","country":"IN","lat":18.449,"lon":83.66,"pop":42197,"tz":"Asia/Kolkata"},{"id":3652257,"name":"Rosa Zarate","local":"Rosa Zarate","country":"EC","lat":0.328,"lon":-79.474,"pop":42121,"tz":"America/Guayaquil"},{"id":150453,"name":"Rujewa","local":"Rujewa","country":"TZ","lat":-8.7,"lon":34.383,"pop":42013,"tz":"Africa/Dar_es_Salaam"},{"id":1734883,"name":"Rompin","local":"Rompin","country":"MY","lat":2.708,"lon":102.505,"pop":41931,"tz":"Asia/Kuala_Lumpur"},{"id":5780557,"name":"Riverton","local":"Ривертон","country":"US","lat":40.522,"lon":-111.939,"pop":41900,"tz":"America/Denver"},{"id":2982757,"name":"Rosny-sous-Bois","local":"Рони-су-Буа","country":"FR","lat":48.87,"lon":2.499,"pop":41627,"tz":"Europe/Paris"},{"id":1258864,"name":"Rajgir","local":"Раджгир","country":"IN","lat":25.028,"lon":85.421,"pop":41587,"tz":"Asia/Kolkata"},{"id":1629380,"name":"Ruteng","local":"Рутенг","country":"ID","lat":-8.611,"lon":120.464,"pop":41533,"tz":"Asia/Makassar"},{"id":882599,"name":"Redcliff","local":"Рэдклифф","country":"ZW","lat":-19.033,"lon":29.783,"pop":41526,"tz":"Africa/Harare"},{"id":1258692,"name":"Ramganj Mandi","local":"Rāmganj Mandi","country":"IN","lat":24.646,"lon":75.943,"pop":41328,"tz":"Asia/Kolkata"},{"id":102985,"name":"Rahimah","local":"Raḩīmah","country":"SA","lat":26.708,"lon":50.062,"pop":41188,"tz":"Asia/Riyadh"},{"id":2614600,"name":"Rodovre","local":"Редовре","country":"DK","lat":55.681,"lon":12.454,"pop":40652,"tz":"Europe/Copenhagen"},{"id":3520274,"name":"Rio Blanco","local":"Рио-Бланко","country":"MX","lat":18.83,"lon":-97.156,"pop":40611,"tz":"America/Mexico_City"},{"id":3390682,"name":"Remanso","local":"Remanso","country":"BR","lat":-9.622,"lon":-42.081,"pop":40586,"tz":"America/Bahia"},{"id":1629974,"name":"Rantepao","local":"Rantepao","country":"ID","lat":-2.97,"lon":119.898,"pop":40438,"tz":"Asia/Makassar"},{"id":1214055,"name":"Reuleuet","local":"Reuleuet","country":"ID","lat":5.217,"lon":96.283,"pop":40393,"tz":"Asia/Jakarta"},{"id":2482939,"name":"Rouached","local":"Rouached","country":"DZ","lat":36.458,"lon":6.043,"pop":40263,"tz":"Africa/Algiers"},{"id":118704,"name":"Ravar","local":"Rāvar","country":"IR","lat":31.266,"lon":56.805,"pop":40167,"tz":"Asia/Tehran"},{"id":1732663,"name":"Raub","local":"Raub","country":"MY","lat":3.79,"lon":101.857,"pop":40024,"tz":"Asia/Kuala_Lumpur"},{"id":2983362,"name":"Roanne","local":"Роанн","country":"FR","lat":46.036,"lon":4.068,"pop":39840,"tz":"Europe/Paris"},{"id":1630200,"name":"Rajapolah","local":"Rajapolah","country":"ID","lat":-7.221,"lon":108.19,"pop":39840,"tz":"Asia/Jakarta"},{"id":3168837,"name":"Rozzano","local":"Rozzano","country":"IT","lat":45.382,"lon":9.156,"pop":39731,"tz":"Europe/Rome"},{"id":4908068,"name":"Romeoville","local":"Ромиовил","country":"US","lat":41.648,"lon":-88.09,"pop":39719,"tz":"America/Chicago"},{"id":329592,"name":"Robit","local":"Robit","country":"ET","lat":9.995,"lon":39.897,"pop":39600,"tz":"Africa/Addis_Ababa"},{"id":1259069,"name":"Radhanpur","local":"Rādhanpur","country":"IN","lat":23.832,"lon":71.605,"pop":39558,"tz":"Asia/Kolkata"},{"id":12432978,"name":"Riacho Fundo","local":"Riacho Fundo","country":"BR","lat":-15.884,"lon":-48.016,"pop":39552,"tz":"America/Sao_Paulo"},{"id":1607001,"name":"Roi Et","local":"Рои Эт","country":"TH","lat":16.057,"lon":103.653,"pop":39328,"tz":"Asia/Bangkok"},{"id":3451124,"name":"Rio Negrinho","local":"Rio Negrinho","country":"BR","lat":-26.254,"lon":-49.518,"pop":39261,"tz":"America/Sao_Paulo"},{"id":2983770,"name":"Reze","local":"Реза","country":"FR","lat":47.191,"lon":-1.569,"pop":39248,"tz":"Europe/Paris"},{"id":3169412,"name":"Rieti","local":"Риети","country":"IT","lat":42.405,"lon":12.857,"pop":39068,"tz":"Europe/Rome"},{"id":1258186,"name":"Revelganj","local":"Revelganj","country":"IN","lat":25.79,"lon":84.636,"pop":39039,"tz":"Asia/Kolkata"},{"id":639734,"name":"Rauma","local":"Раума","country":"FI","lat":61.127,"lon":21.511,"pop":38909,"tz":"Europe/Helsinki"},{"id":1797161,"name":"Renyi","local":"Renyi","country":"CN","lat":29.507,"lon":105.478,"pop":38864,"tz":"Asia/Shanghai"},{"id":11184472,"name":"Rangat","local":"Rangat","country":"IN","lat":12.506,"lon":92.915,"pop":38824,"tz":"Asia/Kolkata"},{"id":1259019,"name":"Rahuri","local":"Rāhuri","country":"IN","lat":19.391,"lon":74.65,"pop":38813,"tz":"Asia/Kolkata"},{"id":2511852,"name":"Rincon de la Victoria","local":"Ринкон-де-ла-Виктория","country":"ES","lat":36.717,"lon":-4.276,"pop":38666,"tz":"Europe/Madrid"},{"id":3429576,"name":"Retiro","local":"Ретиро","country":"AR","lat":-34.583,"lon":-58.383,"pop":38635,"tz":"America/Argentina/Buenos_Aires"},{"id":2639660,"name":"Ramsgate","local":"Рамсгейт","country":"GB","lat":51.336,"lon":1.418,"pop":38624,"tz":"Europe/London"},{"id":4907907,"name":"Rock Island","local":"Рок-Айленд","country":"US","lat":41.509,"lon":-90.579,"pop":38620,"tz":"America/Chicago"},{"id":3045965,"name":"Rakospalota","local":"Rákospalota","country":"HU","lat":47.565,"lon":19.122,"pop":38530,"tz":"Europe/Budapest"},{"id":668873,"name":"Ramnicu Sarat","local":"Рымнику-Сэрат","country":"RO","lat":45.383,"lon":27.05,"pop":38526,"tz":"Europe/Bucharest"},{"id":1258795,"name":"Rajula","local":"Rājula","country":"IN","lat":21.039,"lon":71.443,"pop":38489,"tz":"Asia/Kolkata"},{"id":3390188,"name":"Rosario","local":"Rosário","country":"BR","lat":-2.94,"lon":-44.249,"pop":38475,"tz":"America/Fortaleza"},{"id":3111605,"name":"Ripollet","local":"Рипольет","country":"ES","lat":41.497,"lon":2.157,"pop":38347,"tz":"Europe/Madrid"},{"id":695464,"name":"Romny","local":"Ромни","country":"UA","lat":50.751,"lon":33.475,"pop":38305,"tz":"Europe/Kyiv"},{"id":3873441,"name":"Rengo","local":"Ренго","country":"CL","lat":-34.406,"lon":-70.858,"pop":38100,"tz":"America/Santiago"},{"id":5780802,"name":"Roy","local":"Рой","country":"US","lat":41.162,"lon":-112.026,"pop":37964,"tz":"America/Denver"},{"id":3924877,"name":"Rolim de Moura do Guapore","local":"Rolim de Moura do Guaporé","country":"BR","lat":-13.083,"lon":-62.277,"pop":37949,"tz":"America/Porto_Velho"},{"id":1465867,"name":"Rajakilpakkam","local":"Rajakilpakkam","country":"IN","lat":12.919,"lon":80.17,"pop":37906,"tz":"Asia/Kolkata"},{"id":882100,"name":"Rusape","local":"Rusape","country":"ZW","lat":-18.528,"lon":32.128,"pop":37906,"tz":"Africa/Harare"},{"id":1258111,"name":"Robertsganj","local":"Робертсгандж","country":"IN","lat":24.689,"lon":83.068,"pop":37855,"tz":"Asia/Kolkata"},{"id":1258297,"name":"Rawatbhata","local":"Rāwatbhāta","country":"IN","lat":24.93,"lon":75.592,"pop":37699,"tz":"Asia/Kolkata"},{"id":4170617,"name":"Royal Palm Beach","local":"Ројал Пам Бич","country":"US","lat":26.708,"lon":-80.231,"pop":37633,"tz":"America/New_York"},{"id":3451241,"name":"Rio Brilhante","local":"Риу-Брильянти","country":"BR","lat":-21.802,"lon":-54.546,"pop":37601,"tz":"America/Campo_Grande"},{"id":2638946,"name":"Rushden","local":"Ръшдън","country":"GB","lat":52.289,"lon":-0.602,"pop":37584,"tz":"Europe/London"},{"id":3451242,"name":"Rio Branco do Sul","local":"Риу-Бранку-ду-Сул","country":"BR","lat":-25.19,"lon":-49.314,"pop":37558,"tz":"America/Sao_Paulo"},{"id":1493648,"name":"Rezh","local":"Реж","country":"RU","lat":57.371,"lon":61.404,"pop":37420,"tz":"Asia/Yekaterinburg"},{"id":2639563,"name":"Redcar","local":"Редкар","country":"GB","lat":54.617,"lon":-1.06,"pop":37203,"tz":"Europe/London"},{"id":226600,"name":"Rukungiri","local":"Rukungiri","country":"UG","lat":-0.841,"lon":29.942,"pop":37200,"tz":"Africa/Kampala"},{"id":4522411,"name":"Reynoldsburg","local":"Рејнолдсберг","country":"US","lat":39.955,"lon":-82.812,"pop":37158,"tz":"America/New_York"},{"id":2846939,"name":"Riesa","local":"Риза","country":"DE","lat":51.308,"lon":13.292,"pop":37156,"tz":"Europe/Berlin"},{"id":1258347,"name":"Ratia","local":"Ратиа","country":"IN","lat":29.69,"lon":75.577,"pop":37152,"tz":"Asia/Kolkata"},{"id":1166933,"name":"Renala Khurd","local":"Ренала-Кхерд","country":"PK","lat":30.879,"lon":73.599,"pop":37111,"tz":"Asia/Karachi"},{"id":501187,"name":"Rostokino","local":"Ростокино","country":"RU","lat":55.833,"lon":37.667,"pop":37000,"tz":"Europe/Moscow"},{"id":2511730,"name":"Ronda","local":"Ронда","country":"ES","lat":36.742,"lon":-5.167,"pop":36827,"tz":"Europe/Madrid"},{"id":3450873,"name":"Rosario do Sul","local":"Росарио-ду-Сул","country":"BR","lat":-30.258,"lon":-54.914,"pop":36630,"tz":"America/Sao_Paulo"},{"id":4219762,"name":"Rome","local":"Ром","country":"US","lat":34.257,"lon":-85.165,"pop":36323,"tz":"America/New_York"},{"id":1691911,"name":"Ramon","local":"Рамон","country":"PH","lat":16.784,"lon":121.535,"pop":36307,"tz":"Asia/Manila"},{"id":5043193,"name":"Richfield","local":"Ричфилд","country":"US","lat":44.883,"lon":-93.283,"pop":36216,"tz":"America/Chicago"},{"id":1448637,"name":"Risalpur Cantonment","local":"Risalpur Cantonment","country":"PK","lat":34.06,"lon":71.993,"pop":36074,"tz":"Asia/Karachi"},{"id":10689579,"name":"Ravu","local":"Rāvu","country":"IN","lat":22.637,"lon":75.815,"pop":36055,"tz":"Asia/Kolkata"},{"id":2111277,"name":"Rifu","local":"Rifu","country":"JP","lat":38.331,"lon":140.977,"pop":36014,"tz":"Asia/Tokyo"},{"id":117773,"name":"Ramsar","local":"Rāmsar","country":"IR","lat":36.918,"lon":50.648,"pop":35997,"tz":"Asia/Tehran"},{"id":2511994,"name":"Realejo Alto","local":"Realejo Alto","country":"ES","lat":28.376,"lon":-16.586,"pop":35963,"tz":"Atlantic/Canary"},{"id":10858989,"name":"Ramanattukara","local":"Ramanattukara","country":"IN","lat":11.178,"lon":75.869,"pop":35937,"tz":"Asia/Kolkata"},{"id":4170005,"name":"Richmond West","local":"Ричмонд-Уэст","country":"US","lat":25.61,"lon":-80.43,"pop":35884,"tz":"America/New_York"},{"id":4263681,"name":"Richmond","local":"Ричмонд","country":"US","lat":39.829,"lon":-84.89,"pop":35854,"tz":"America/Indiana/Indianapolis"},{"id":6318194,"name":"Ruropolis","local":"Rurópolis","country":"BR","lat":-4.096,"lon":-54.91,"pop":35769,"tz":"America/Santarem"},{"id":3573840,"name":"Rio Claro","local":"Rio Claro","country":"TT","lat":10.306,"lon":-61.176,"pop":35650,"tz":"America/Port_of_Spain"},{"id":181374,"name":"Ramu","local":"Ramu","country":"KE","lat":3.931,"lon":41.223,"pop":35644,"tz":"Africa/Nairobi"},{"id":5043799,"name":"Roseville","local":"Розвелл","country":"US","lat":45.006,"lon":-93.157,"pop":35580,"tz":"America/Chicago"},{"id":1259060,"name":"Rafiganj","local":"Rafiganj","country":"IN","lat":24.818,"lon":84.634,"pop":35536,"tz":"Asia/Kolkata"},{"id":4723914,"name":"Rosenberg","local":"Розенберг","country":"US","lat":29.557,"lon":-95.809,"pop":35510,"tz":"America/Chicago"},{"id":6126305,"name":"Rock Forest","local":"Rock Forest","country":"CA","lat":45.357,"lon":-71.997,"pop":35500,"tz":"America/Toronto"},{"id":668995,"name":"Reghin-Sat","local":"Reghin-Sat","country":"RO","lat":46.783,"lon":24.717,"pop":35490,"tz":"Europe/Bucharest"},{"id":1258819,"name":"Rajpipla","local":"Rājpīpla","country":"IN","lat":21.867,"lon":73.5,"pop":35392,"tz":"Asia/Kolkata"},{"id":3451071,"name":"Rio Real","local":"Rio Real","country":"BR","lat":-11.485,"lon":-37.933,"pop":35362,"tz":"America/Bahia"},{"id":1258295,"name":"Rawatsar","local":"Rāwatsār","country":"IN","lat":29.267,"lon":74.403,"pop":35102,"tz":"Asia/Kolkata"},{"id":2983011,"name":"Romans-sur-Isere","local":"Роман-сюр-Изер","country":"FR","lat":45.05,"lon":5.066,"pop":35002,"tz":"Europe/Paris"},{"id":13580121,"name":"Rayduzhnyi Masyv","local":"Райдужний масив","country":"UA","lat":50.486,"lon":30.586,"pop":35000,"tz":"Europe/Kyiv"},{"id":1265830,"name":"Rairangpur","local":"Райрангпур","country":"IN","lat":22.267,"lon":86.174,"pop":34929,"tz":"Asia/Kolkata"},{"id":6136777,"name":"Rutland","local":"Rutland","country":"CA","lat":49.9,"lon":-119.386,"pop":34800,"tz":"America/Vancouver"},{"id":1258704,"name":"Ramdurg","local":"Rāmdurg","country":"IN","lat":15.946,"lon":75.298,"pop":34800,"tz":"Asia/Kolkata"},{"id":1512955,"name":"Rishton","local":"Риштан","country":"UZ","lat":40.357,"lon":71.285,"pop":34800,"tz":"Asia/Tashkent"},{"id":2659099,"name":"Rapperswil","local":"Рапперсвиль","country":"CH","lat":47.226,"lon":8.822,"pop":34776,"tz":"Europe/Zurich"},{"id":3451102,"name":"Rio Pardo","local":"Рио-Пардо","country":"BR","lat":-29.99,"lon":-52.378,"pop":34654,"tz":"America/Sao_Paulo"},{"id":5389213,"name":"Rubidoux","local":"Рубиду","country":"US","lat":33.996,"lon":-117.406,"pop":34280,"tz":"America/Los_Angeles"},{"id":6691227,"name":"Radcliffe","local":"Radcliffe","country":"GB","lat":53.562,"lon":-2.325,"pop":34239,"tz":"Europe/London"},{"id":1222662,"name":"Razzakov","local":"Ісфана","country":"KG","lat":39.839,"lon":69.528,"pop":34219,"tz":"Asia/Bishkek"},{"id":3353540,"name":"Rehoboth","local":"Рехобот","country":"NA","lat":-23.317,"lon":17.09,"pop":34185,"tz":"Africa/Windhoek"},{"id":2483968,"name":"Ras el Aioun","local":"Râs el Aïoun","country":"DZ","lat":35.674,"lon":5.645,"pop":34167,"tz":"Africa/Algiers"},{"id":3168854,"name":"Rovereto","local":"Роверето","country":"IT","lat":45.89,"lon":11.041,"pop":34152,"tz":"Europe/Rome"},{"id":1258124,"name":"Risod","local":"Risod","country":"IN","lat":19.977,"lon":76.788,"pop":34136,"tz":"Asia/Kolkata"},{"id":3542455,"name":"Remedios","local":"Ремедиос","country":"CU","lat":22.495,"lon":-79.545,"pop":34108,"tz":"America/Havana"},{"id":2042498,"name":"Ranam","local":"Нанам","country":"KP","lat":41.714,"lon":129.684,"pop":34055,"tz":"Asia/Pyongyang"},{"id":4170174,"name":"Riviera Beach","local":"Ривијера Бич","country":"US","lat":26.775,"lon":-80.058,"pop":34005,"tz":"America/New_York"},{"id":2356228,"name":"Reo","local":"Рео","country":"BF","lat":12.32,"lon":-2.471,"pop":33894,"tz":"Africa/Ouagadougou"},{"id":1258930,"name":"Rajakhera","local":"Rājākhera","country":"IN","lat":26.898,"lon":78.171,"pop":33666,"tz":"Asia/Kolkata"},{"id":2150894,"name":"Rowville","local":"Rowville","country":"AU","lat":-37.933,"lon":145.233,"pop":33571,"tz":"Australia/Melbourne"},{"id":4305974,"name":"Richmond","local":"Ричмонд","country":"US","lat":37.748,"lon":-84.295,"pop":33533,"tz":"America/New_York"},{"id":3390326,"name":"Ribeirao","local":"Ribeirão","country":"BR","lat":-8.514,"lon":-35.378,"pop":33507,"tz":"America/Recife"},{"id":3451474,"name":"Riachao do Jacuipe","local":"Riachão do Jacuípe","country":"BR","lat":-11.807,"lon":-39.386,"pop":33386,"tz":"America/Bahia"},{"id":1258229,"name":"Remuna","local":"Ремуна","country":"IN","lat":21.528,"lon":86.872,"pop":33378,"tz":"Asia/Kolkata"},{"id":933141,"name":"Ramotswa","local":"Ramotswa","country":"BW","lat":-24.872,"lon":25.87,"pop":33271,"tz":"Africa/Gaborone"},{"id":3362349,"name":"Robertson","local":"Robertson","country":"ZA","lat":-33.803,"lon":19.885,"pop":33204,"tz":"Africa/Johannesburg"},{"id":2183310,"name":"Rolleston","local":"Rolleston","country":"NZ","lat":-43.583,"lon":172.383,"pop":33200,"tz":"Pacific/Auckland"},{"id":1258674,"name":"Ramgarh","local":"Rāmgarh","country":"IN","lat":28.171,"lon":74.98,"pop":33024,"tz":"Asia/Kolkata"},{"id":4218165,"name":"Redan","local":"Редан","country":"US","lat":33.745,"lon":-84.132,"pop":33015,"tz":"America/New_York"},{"id":1797100,"name":"Ronglong","local":"Ronglong","country":"CN","lat":29.436,"lon":105.449,"pop":32983,"tz":"Asia/Shanghai"},{"id":2483761,"name":"Reggane","local":"Reggane","country":"DZ","lat":26.716,"lon":0.171,"pop":32974,"tz":"Africa/Algiers"},{"id":3988594,"name":"Rio Grande","local":"Río Grande","country":"MX","lat":23.827,"lon":-103.034,"pop":32944,"tz":"America/Mexico_City"},{"id":3169424,"name":"Riccione","local":"Риччоне","country":"IT","lat":43.999,"lon":12.657,"pop":32744,"tz":"Europe/Rome"},{"id":6318186,"name":"Rorainopolis","local":"Rorainópolis","country":"BR","lat":0.946,"lon":-60.418,"pop":32647,"tz":"America/Boa_Vista"},{"id":2851077,"name":"Radebeul","local":"Радебойль","country":"DE","lat":51.107,"lon":13.66,"pop":32643,"tz":"Europe/Berlin"},{"id":5134295,"name":"Rome","local":"Рим","country":"US","lat":43.213,"lon":-75.456,"pop":32573,"tz":"America/New_York"},{"id":2847639,"name":"Rheinfelden","local":"Райнфельден","country":"DE","lat":47.56,"lon":7.787,"pop":32535,"tz":"Europe/Berlin"},{"id":254352,"name":"Rethymno","local":"Ретимнон","country":"GR","lat":35.366,"lon":24.482,"pop":32468,"tz":"Europe/Athens"},{"id":962330,"name":"Richmond","local":"Richmond","country":"ZA","lat":-29.872,"lon":30.272,"pop":32445,"tz":"Africa/Johannesburg"},{"id":4366476,"name":"Randallstown","local":"Рандалстаун","country":"US","lat":39.367,"lon":-76.795,"pop":32430,"tz":"America/New_York"},{"id":1797106,"name":"Rongjiang","local":"Rongjiang","country":"CN","lat":26.55,"lon":101.25,"pop":32291,"tz":"Asia/Shanghai"},{"id":3191429,"name":"Ruma","local":"Рума","country":"RS","lat":45.008,"lon":19.822,"pop":32229,"tz":"Europe/Belgrade"},{"id":2847662,"name":"Rheinberg","local":"Rheinberg","country":"DE","lat":51.546,"lon":6.595,"pop":32188,"tz":"Europe/Berlin"},{"id":2639583,"name":"Rayleigh","local":"Rayleigh","country":"GB","lat":51.586,"lon":0.605,"pop":32150,"tz":"Europe/London"},{"id":4948403,"name":"Randolph","local":"Рандольф","country":"US","lat":42.163,"lon":-71.041,"pop":32112,"tz":"America/New_York"},{"id":367927,"name":"Rumbek","local":"Румбеке","country":"SS","lat":6.806,"lon":29.677,"pop":32083,"tz":"Africa/Juba"},{"id":1258380,"name":"Rasra","local":"Rasrā","country":"IN","lat":25.858,"lon":83.855,"pop":31876,"tz":"Asia/Kolkata"},{"id":2483649,"name":"Remchi","local":"Remchi","country":"DZ","lat":35.062,"lon":-1.434,"pop":31837,"tz":"Africa/Algiers"},{"id":622739,"name":"Rahachow","local":"Рогачев","country":"BY","lat":53.093,"lon":30.049,"pop":31821,"tz":"Europe/Minsk"},{"id":1167398,"name":"Raiwind","local":"Raiwind","country":"PK","lat":31.249,"lon":74.215,"pop":31592,"tz":"Asia/Karachi"},{"id":1259034,"name":"Rahatgarh","local":"Rāhatgarh","country":"IN","lat":23.79,"lon":78.395,"pop":31537,"tz":"Asia/Kolkata"},{"id":3873145,"name":"Rio Bueno","local":"Río Bueno","country":"CL","lat":-40.335,"lon":-72.956,"pop":31366,"tz":"America/Santiago"},{"id":3451202,"name":"Rio das Pedras","local":"Rio das Pedras","country":"BR","lat":-22.843,"lon":-47.606,"pop":31328,"tz":"America/Sao_Paulo"},{"id":3451121,"name":"Rio Negro","local":"Rio Negro","country":"BR","lat":-26.106,"lon":-49.797,"pop":31324,"tz":"America/Sao_Paulo"},{"id":2638926,"name":"Rutherglen","local":"Рутерглен","country":"GB","lat":55.829,"lon":-4.214,"pop":31180,"tz":"Europe/London"},{"id":1258726,"name":"Ramapuram","local":"Rāmāpuram","country":"IN","lat":13.101,"lon":79.184,"pop":31169,"tz":"Asia/Kolkata"},{"id":10400291,"name":"Rosera","local":"Rosera","country":"IN","lat":25.755,"lon":86.032,"pop":31155,"tz":"Asia/Kolkata"},{"id":501183,"name":"Rostov","local":"Ростов Великий","country":"RU","lat":57.191,"lon":39.413,"pop":31039,"tz":"Europe/Moscow"},{"id":2638976,"name":"Ruislip","local":"Ruislip","country":"GB","lat":51.573,"lon":-0.423,"pop":31000,"tz":"Europe/London"},{"id":5207490,"name":"Radnor","local":"Radnor","country":"US","lat":40.046,"lon":-75.36,"pop":30878,"tz":"America/New_York"},{"id":1258012,"name":"Rudarpur","local":"Rūdarpur","country":"IN","lat":26.445,"lon":83.613,"pop":30873,"tz":"Asia/Kolkata"},{"id":6318104,"name":"Raposa","local":"Raposa","country":"BR","lat":-2.423,"lon":-44.103,"pop":30839,"tz":"America/Fortaleza"},{"id":11550029,"name":"Rosas","local":"Rosas","country":"ES","lat":40.428,"lon":-3.594,"pop":30751,"tz":"Europe/Madrid"},{"id":3451448,"name":"Riacho de Santana","local":"Риашу-ди-Сантана","country":"BR","lat":-13.609,"lon":-42.939,"pop":30711,"tz":"America/Bahia"},{"id":181135,"name":"Rongai","local":"Rongai","country":"KE","lat":-0.173,"lon":35.863,"pop":30471,"tz":"Africa/Nairobi"},{"id":2483000,"name":"Robbah","local":"Robbah","country":"DZ","lat":33.28,"lon":6.91,"pop":30446,"tz":"Africa/Algiers"},{"id":1258247,"name":"Rehli","local":"Rehli","country":"IN","lat":23.637,"lon":79.063,"pop":30329,"tz":"Asia/Kolkata"},{"id":12718698,"name":"Ribaue","local":"Ribáuè","country":"MZ","lat":-14.945,"lon":38.324,"pop":30241,"tz":"Africa/Maputo"},{"id":1258895,"name":"Rajauli","local":"Rajauli","country":"IN","lat":24.645,"lon":85.5,"pop":30170,"tz":"Asia/Kolkata"},{"id":2850954,"name":"Radolfzell","local":"Радольфцелль","country":"DE","lat":47.742,"lon":8.971,"pop":30096,"tz":"Europe/Berlin"},{"id":5091872,"name":"Rochester","local":"Рочестер","country":"US","lat":43.305,"lon":-70.976,"pop":30038,"tz":"America/New_York"},{"id":3617052,"name":"Rivas","local":"Ривас","country":"NI","lat":11.44,"lon":-85.827,"pop":30000,"tz":"America/Managua"},{"id":1258677,"name":"Ramgarh","local":"Rāmgarh","country":"IN","lat":27.251,"lon":75.179,"pop":29834,"tz":"Asia/Kolkata"},{"id":1258875,"name":"Rajgarh","local":"Rājgarh","country":"IN","lat":24.008,"lon":76.733,"pop":29726,"tz":"Asia/Kolkata"},{"id":1258786,"name":"Rajura","local":"Rājūra","country":"IN","lat":19.779,"lon":79.365,"pop":29668,"tz":"Asia/Kolkata"},{"id":1258950,"name":"Raisinghnagar","local":"Rāisinghnagar","country":"IN","lat":29.536,"lon":73.449,"pop":29626,"tz":"Asia/Kolkata"},{"id":1734854,"name":"Rembau","local":"Rembau","country":"MY","lat":2.59,"lon":102.091,"pop":29595,"tz":"Asia/Kuala_Lumpur"},{"id":1466025,"name":"Reddipalaiyam","local":"Reddipālaiyam","country":"IN","lat":13.108,"lon":80.121,"pop":29511,"tz":"Asia/Kolkata"},{"id":5103055,"name":"Rahway","local":"Рахвзй","country":"US","lat":40.608,"lon":-74.278,"pop":29508,"tz":"America/New_York"},{"id":1258891,"name":"Rajaori","local":"Rajaori","country":"IN","lat":33.375,"lon":74.309,"pop":29486,"tz":"Asia/Kolkata"},{"id":2983276,"name":"Rochefort","local":"Рошфор","country":"FR","lat":45.943,"lon":-0.968,"pop":29427,"tz":"Europe/Paris"},{"id":4405188,"name":"Raytown","local":"Рејтаун","country":"US","lat":39.009,"lon":-94.464,"pop":29401,"tz":"America/Chicago"},{"id":1266485,"name":"Renwal","local":"Renwāl","country":"IN","lat":27.158,"lon":75.358,"pop":29201,"tz":"Asia/Kolkata"},{"id":3112154,"name":"Redondela","local":"Редондела","country":"ES","lat":42.283,"lon":-8.61,"pop":29194,"tz":"Europe/Madrid"},{"id":4129397,"name":"Russellville","local":"Раселвил","country":"US","lat":35.278,"lon":-93.134,"pop":29166,"tz":"America/Chicago"},{"id":2208285,"name":"Randwick","local":"Randwick","country":"AU","lat":-33.914,"lon":151.249,"pop":28943,"tz":"Australia/Sydney"},{"id":727696,"name":"Razgrad","local":"Разград","country":"BG","lat":43.533,"lon":26.518,"pop":28931,"tz":"Europe/Sofia"},{"id":2511700,"name":"Rota","local":"Рота","country":"ES","lat":36.624,"lon":-6.36,"pop":28848,"tz":"Europe/Madrid"},{"id":1257936,"name":"Rusera","local":"Rusera","country":"IN","lat":25.754,"lon":86.026,"pop":28781,"tz":"Asia/Kolkata"},{"id":5387494,"name":"Ridgecrest","local":"Риджкрест","country":"US","lat":35.622,"lon":-117.671,"pop":28780,"tz":"America/Los_Angeles"},{"id":1258993,"name":"Raikot","local":"Rāikot","country":"IN","lat":30.65,"lon":75.6,"pop":28734,"tz":"Asia/Kolkata"},{"id":2846843,"name":"Rietberg","local":"Ритберг","country":"DE","lat":51.809,"lon":8.428,"pop":28672,"tz":"Europe/Berlin"},{"id":2639268,"name":"Rochester","local":"Рочестер","country":"GB","lat":51.388,"lon":0.505,"pop":28671,"tz":"Europe/London"},{"id":5747882,"name":"Redmond","local":"Редмонд","country":"US","lat":44.273,"lon":-121.174,"pop":28654,"tz":"America/Los_Angeles"},{"id":1280124,"name":"Ruidian","local":"Ruidian","country":"CN","lat":25.532,"lon":98.409,"pop":28612,"tz":"Asia/Shanghai"},{"id":639406,"name":"Riihimaeki","local":"Рийхимяки","country":"FI","lat":60.738,"lon":24.777,"pop":28610,"tz":"Europe/Helsinki"},{"id":3451856,"name":"Rancharia","local":"Rancharia","country":"BR","lat":-22.229,"lon":-50.893,"pop":28588,"tz":"America/Sao_Paulo"},{"id":2151649,"name":"Richmond","local":"Richmond","country":"AU","lat":-37.818,"lon":145.002,"pop":28587,"tz":"Australia/Melbourne"},{"id":2467732,"name":"Rass el Djebel","local":"Rass el Djebel","country":"TN","lat":37.216,"lon":10.125,"pop":28574,"tz":"Africa/Tunis"},{"id":118223,"name":"Rudehen","local":"Rūdehen","country":"IR","lat":35.733,"lon":51.906,"pop":28533,"tz":"Asia/Tehran"},{"id":1630088,"name":"Randudongkal","local":"Randudongkal","country":"ID","lat":-7.098,"lon":109.324,"pop":28532,"tz":"Asia/Jakarta"},{"id":1258406,"name":"Rapar","local":"Rāpar","country":"IN","lat":23.573,"lon":70.647,"pop":28407,"tz":"Asia/Kolkata"},{"id":2538059,"name":"Rich","local":"Rich","country":"MA","lat":32.256,"lon":-4.502,"pop":28382,"tz":"Africa/Casablanca"},{"id":367972,"name":"Rufa'a","local":"Rufā‘a","country":"SD","lat":14.76,"lon":33.368,"pop":28374,"tz":"Africa/Khartoum"},{"id":7302846,"name":"Ramanayyapeta","local":"Ramanayyapeta","country":"IN","lat":16.945,"lon":82.239,"pop":28369,"tz":"Asia/Kolkata"},{"id":2983154,"name":"Rodez","local":"Родез","country":"FR","lat":44.353,"lon":2.573,"pop":28337,"tz":"Europe/Paris"},{"id":2848245,"name":"Rendsburg","local":"Рендсбург","country":"DE","lat":54.302,"lon":9.672,"pop":28323,"tz":"Europe/Berlin"},{"id":3450832,"name":"Ruy Barbosa","local":"Ruy Barbosa","country":"BR","lat":-12.284,"lon":-40.494,"pop":28282,"tz":"America/Bahia"},{"id":3451100,"name":"Rio Pardo de Minas","local":"Rio Pardo de Minas","country":"BR","lat":-15.61,"lon":-42.54,"pop":28271,"tz":"America/Sao_Paulo"},{"id":2983536,"name":"Rillieux-la-Pape","local":"Риллиэукс-ла-Пап","country":"FR","lat":45.817,"lon":4.9,"pop":28076,"tz":"Europe/Paris"},{"id":2471012,"name":"Rhennouch","local":"Rhennouch","country":"TN","lat":33.941,"lon":10.064,"pop":28051,"tz":"Africa/Tunis"},{"id":3988651,"name":"Rincon de Romos","local":"Ринкон-де-Ромос","country":"MX","lat":22.228,"lon":-102.322,"pop":27988,"tz":"America/Mexico_City"},{"id":1258492,"name":"Rangia","local":"Rangia","country":"IN","lat":26.449,"lon":91.614,"pop":27889,"tz":"Asia/Kolkata"},{"id":4908237,"name":"Round Lake Beach","local":"Round Lake Beach","country":"US","lat":42.372,"lon":-88.09,"pop":27852,"tz":"America/Chicago"},{"id":2748083,"name":"Rijssen","local":"Rijssen","country":"NL","lat":52.307,"lon":6.518,"pop":27740,"tz":"Europe/Amsterdam"},{"id":1258967,"name":"Raipur","local":"Rāipur","country":"IN","lat":30.311,"lon":78.09,"pop":27702,"tz":"Asia/Kolkata"},{"id":4949068,"name":"Roslindale","local":"Roslindale","country":"US","lat":42.291,"lon":-71.124,"pop":27683,"tz":"America/New_York"},{"id":501730,"name":"Rodniki","local":"Родники","country":"RU","lat":57.105,"lon":41.736,"pop":27681,"tz":"Europe/Moscow"},{"id":5605242,"name":"Rexburg","local":"Рексберг","country":"US","lat":43.826,"lon":-111.79,"pop":27663,"tz":"America/Boise"},{"id":6232305,"name":"Remuera","local":"Remuera","country":"NZ","lat":-36.88,"lon":174.798,"pop":27600,"tz":"Pacific/Auckland"},{"id":3670644,"name":"Roldanillo","local":"Roldanillo","country":"CO","lat":4.413,"lon":-76.155,"pop":27561,"tz":"America/Bogota"},{"id":3111807,"name":"Ribeira","local":"Ribeira","country":"ES","lat":42.738,"lon":-8.441,"pop":27518,"tz":"Europe/Madrid"},{"id":1258928,"name":"Rajaldesar","local":"Rājaldesar","country":"IN","lat":28.028,"lon":74.474,"pop":27419,"tz":"Asia/Kolkata"},{"id":668605,"name":"Rosiorii de Vede","local":"Roșiorii de Vede","country":"RO","lat":44.117,"lon":24.983,"pop":27416,"tz":"Europe/Bucharest"},{"id":13580324,"name":"Rusanivka","local":"Русанівка","country":"UA","lat":50.44,"lon":30.597,"pop":27400,"tz":"Europe/Kyiv"},{"id":3390732,"name":"Redencao","local":"Redenção","country":"BR","lat":-4.226,"lon":-38.731,"pop":27214,"tz":"America/Fortaleza"},{"id":11549969,"name":"Rios Rosas","local":"Rios Rosas","country":"ES","lat":40.442,"lon":-3.698,"pop":27163,"tz":"Europe/Madrid"},{"id":2850213,"name":"Rathenow","local":"Ратенов","country":"DE","lat":52.607,"lon":12.337,"pop":27115,"tz":"Europe/Berlin"},{"id":1258307,"name":"Raver","local":"Rāver","country":"IN","lat":21.248,"lon":76.035,"pop":27039,"tz":"Asia/Kolkata"},{"id":12047623,"name":"Rejon placu Grunwaldzkiego","local":"Rejon placu Grunwaldzkiego","country":"PL","lat":51.117,"lon":17.061,"pop":27030,"tz":"Europe/Warsaw"},{"id":3169602,"name":"Rapallo","local":"Рапалло","country":"IT","lat":44.35,"lon":9.228,"pop":26993,"tz":"Europe/Rome"},{"id":639853,"name":"Raseborg","local":"Расеборг","country":"FI","lat":59.977,"lon":23.44,"pop":26982,"tz":"Europe/Helsinki"},{"id":1258869,"name":"Rajgarh","local":"Rājgarh","country":"IN","lat":27.237,"lon":76.622,"pop":26953,"tz":"Asia/Kolkata"},{"id":2844862,"name":"Roesrath","local":"Рёсрат","country":"DE","lat":50.896,"lon":7.182,"pop":26868,"tz":"Europe/Berlin"},{"id":2984513,"name":"Rambouillet","local":"Рамбуйе","country":"FR","lat":48.644,"lon":1.83,"pop":26674,"tz":"Europe/Paris"},{"id":3057789,"name":"Ruzomberok","local":"Ружомберок","country":"SK","lat":49.075,"lon":19.308,"pop":26671,"tz":"Europe/Bratislava"},{"id":1150921,"name":"Ron Phibun","local":"Ron Phibun","country":"TH","lat":8.179,"lon":99.854,"pop":26621,"tz":"Asia/Bangkok"},{"id":3701917,"name":"Rio Abajo","local":"Río Abajo","country":"PA","lat":9.024,"lon":-79.494,"pop":26607,"tz":"America/Panama"},{"id":12188617,"name":"Remseck am Neckar","local":"Remseck am Neckar","country":"DE","lat":48.872,"lon":9.273,"pop":26549,"tz":"Europe/Berlin"},{"id":3802739,"name":"Rio de Teapa","local":"Río de Teapa","country":"MX","lat":17.775,"lon":-92.902,"pop":26500,"tz":"America/Merida"},{"id":2128382,"name":"Rumoi","local":"Румои","country":"JP","lat":43.934,"lon":141.643,"pop":26454,"tz":"Asia/Tokyo"},{"id":456202,"name":"Rezekne","local":"Резекне","country":"LV","lat":56.51,"lon":27.34,"pop":26429,"tz":"Europe/Riga"},{"id":2150767,"name":"Ryde","local":"Ryde","country":"AU","lat":-33.819,"lon":151.106,"pop":26385,"tz":"Australia/Sydney"},{"id":3839307,"name":"Rawson","local":"Роусон","country":"AR","lat":-43.3,"lon":-65.106,"pop":26335,"tz":"America/Argentina/Catamarca"},{"id":2847666,"name":"Rheinbach","local":"Райнбах","country":"DE","lat":50.626,"lon":6.949,"pop":26262,"tz":"Europe/Berlin"},{"id":1258598,"name":"Rampur","local":"Rāmpur","country":"IN","lat":29.806,"lon":77.453,"pop":26257,"tz":"Asia/Kolkata"},{"id":3520407,"name":"Reforma","local":"Reforma","country":"MX","lat":17.859,"lon":-93.154,"pop":26257,"tz":"America/Merida"},{"id":1691606,"name":"Rizal","local":"Ризал","country":"PH","lat":15.712,"lon":121.106,"pop":26201,"tz":"Asia/Manila"},{"id":8948705,"name":"Romano Banco","local":"Romano Banco","country":"IT","lat":45.423,"lon":9.107,"pop":26163,"tz":"Europe/Rome"},{"id":1258140,"name":"Reengus","local":"Reengus","country":"IN","lat":27.364,"lon":75.568,"pop":26139,"tz":"Asia/Kolkata"},{"id":2638911,"name":"Ryde","local":"Райд","country":"GB","lat":50.73,"lon":-1.162,"pop":26082,"tz":"Europe/London"},{"id":1258213,"name":"Renigunta","local":"Renigunta","country":"IN","lat":13.651,"lon":79.513,"pop":26031,"tz":"Asia/Kolkata"},{"id":4366647,"name":"Reisterstown","local":"Рајстерстаун","country":"US","lat":39.47,"lon":-76.832,"pop":25968,"tz":"America/New_York"},{"id":2639409,"name":"Rhyl","local":"Рил","country":"GB","lat":53.319,"lon":-3.492,"pop":25874,"tz":"Europe/London"},{"id":640124,"name":"Raisio","local":"Райсио","country":"FI","lat":60.486,"lon":22.169,"pop":25846,"tz":"Europe/Helsinki"},{"id":5042561,"name":"Ramsey","local":"Рамси","country":"US","lat":45.261,"lon":-93.45,"pop":25828,"tz":"America/Chicago"},{"id":5134395,"name":"Rosedale","local":"Rosedale","country":"US","lat":40.662,"lon":-73.735,"pop":25812,"tz":"America/New_York"},{"id":3542137,"name":"Rio Guayabal de Yateras","local":"Río Guayabal de Yateras","country":"CU","lat":20.367,"lon":-75.017,"pop":25753,"tz":"America/Havana"},{"id":8604596,"name":"Retreat","local":"Retreat","country":"ZA","lat":-34.055,"lon":18.476,"pop":25745,"tz":"Africa/Johannesburg"},{"id":8469295,"name":"Randolph","local":"Рандольф Тауншип","country":"US","lat":40.848,"lon":-74.581,"pop":25734,"tz":"America/New_York"},{"id":6318165,"name":"Rio Preto da Eva","local":"Rio Preto da Eva","country":"BR","lat":-2.698,"lon":-59.702,"pop":25723,"tz":"America/Manaus"},{"id":1189638,"name":"Raojan","local":"Raojān","country":"BD","lat":22.535,"lon":91.919,"pop":25708,"tz":"Asia/Dhaka"},{"id":2843106,"name":"Rummelsburg","local":"Rummelsburg","country":"DE","lat":52.501,"lon":13.493,"pop":25697,"tz":"Europe/Berlin"},{"id":1128265,"name":"Rustaq","local":"Rustāq","country":"AF","lat":37.126,"lon":69.83,"pop":25636,"tz":"Asia/Kabul"},{"id":2846523,"name":"Rinteln","local":"Ринтельн","country":"DE","lat":52.186,"lon":9.079,"pop":25626,"tz":"Europe/Berlin"},{"id":5103269,"name":"Ridgewood","local":"Риджвуд","country":"US","lat":40.979,"lon":-74.117,"pop":25621,"tz":"America/New_York"},{"id":11835536,"name":"Riyad al Khabra'","local":"Riyāḑ al Khabrā’","country":"SA","lat":26.067,"lon":43.553,"pop":25588,"tz":"Asia/Riyadh"},{"id":5208117,"name":"Rhawnhurst","local":"Rhawnhurst","country":"US","lat":40.062,"lon":-75.056,"pop":25581,"tz":"America/New_York"},{"id":5386984,"name":"Reedley","local":"Ридли","country":"US","lat":36.596,"lon":-119.45,"pop":25569,"tz":"America/Los_Angeles"},{"id":3440777,"name":"Rocha","local":"Роча","country":"UY","lat":-34.48,"lon":-54.331,"pop":25515,"tz":"America/Montevideo"},{"id":2843636,"name":"Rottweil","local":"Ротвайль","country":"DE","lat":48.168,"lon":8.627,"pop":25510,"tz":"Europe/Berlin"},{"id":2843355,"name":"Rudolstadt","local":"Рудольштадт","country":"DE","lat":50.72,"lon":11.34,"pop":25476,"tz":"Europe/Berlin"},{"id":3670874,"name":"Repelon","local":"Repelón","country":"CO","lat":10.495,"lon":-75.124,"pop":25467,"tz":"America/Bogota"},{"id":2639436,"name":"Rhosllannerchrugog","local":"Rhosllannerchrugog","country":"GB","lat":53.01,"lon":-3.058,"pop":25362,"tz":"Europe/London"},{"id":2848845,"name":"Reinbek","local":"Райнбек","country":"DE","lat":53.517,"lon":10.249,"pop":25261,"tz":"Europe/Berlin"},{"id":924102,"name":"Rumphi","local":"Rumphi","country":"MW","lat":-11.019,"lon":33.857,"pop":25216,"tz":"Africa/Blantyre"},{"id":2483746,"name":"Reguiba","local":"Reguiba","country":"DZ","lat":33.564,"lon":6.703,"pop":25210,"tz":"Africa/Algiers"},{"id":1258859,"name":"Rajgurunagar","local":"Rājgurunagar","country":"IN","lat":18.867,"lon":73.9,"pop":25146,"tz":"Asia/Kolkata"},{"id":1258477,"name":"Rania","local":"Рания","country":"IN","lat":29.525,"lon":74.837,"pop":25123,"tz":"Asia/Kolkata"},{"id":336511,"name":"Raqo","local":"Raqo","country":"ET","lat":6.419,"lon":45.853,"pop":25090,"tz":"Africa/Addis_Ababa"},{"id":2844265,"name":"Roth","local":"Рота","country":"DE","lat":49.248,"lon":11.091,"pop":25083,"tz":"Europe/Berlin"},{"id":2983440,"name":"Ris-Orangis","local":"Риз Оранжис","country":"FR","lat":48.651,"lon":2.414,"pop":25082,"tz":"Europe/Paris"},{"id":1274021,"name":"Rampachodavaram","local":"Rampachodavaram","country":"IN","lat":17.441,"lon":81.776,"pop":25074,"tz":"Asia/Kolkata"},{"id":3692863,"name":"Rioja","local":"Rioja","country":"PE","lat":-6.057,"lon":-77.167,"pop":25057,"tz":"America/Lima"},{"id":102744,"name":"Rumah","local":"Rumāḩ","country":"SA","lat":25.564,"lon":47.164,"pop":25031,"tz":"Asia/Riyadh"},{"id":786565,"name":"Radovis","local":"Радовиш","country":"MK","lat":41.638,"lon":22.465,"pop":24984,"tz":"Europe/Skopje"},{"id":4522586,"name":"Riverside","local":"Риверсайд","country":"US","lat":39.78,"lon":-84.124,"pop":24972,"tz":"America/New_York"},{"id":3045971,"name":"Rakoskeresztur","local":"Rákoskeresztúr","country":"HU","lat":47.473,"lon":19.262,"pop":24971,"tz":"Europe/Budapest"},{"id":4170358,"name":"Rockledge","local":"Рокледж","country":"US","lat":28.351,"lon":-80.725,"pop":24926,"tz":"America/New_York"},{"id":1797213,"name":"Renhe","local":"Renhe","country":"CN","lat":26.417,"lon":101.017,"pop":24903,"tz":"Asia/Shanghai"},{"id":2983026,"name":"Romainville","local":"Роменвиль","country":"FR","lat":48.885,"lon":2.435,"pop":24772,"tz":"Europe/Paris"},{"id":368230,"name":"Rahad al Bardi","local":"Rahad al Bardi","country":"SD","lat":11.3,"lon":23.883,"pop":24768,"tz":"Africa/Khartoum"},{"id":4948462,"name":"Reading","local":"Рединг","country":"US","lat":42.526,"lon":-71.095,"pop":24747,"tz":"America/New_York"},{"id":1258362,"name":"Ratanpur","local":"Ratanpur","country":"IN","lat":22.287,"lon":82.168,"pop":24636,"tz":"Asia/Kolkata"},{"id":3390280,"name":"Rio Tinto","local":"Rio Tinto","country":"BR","lat":-6.803,"lon":-35.081,"pop":24581,"tz":"America/Fortaleza"},{"id":3451663,"name":"Reserva","local":"Reserva","country":"BR","lat":-24.65,"lon":-50.851,"pop":24573,"tz":"America/Sao_Paulo"},{"id":1150965,"name":"Ranong","local":"Ранонг","country":"TH","lat":9.966,"lon":98.635,"pop":24561,"tz":"Asia/Bangkok"},{"id":7538520,"name":"Rocinha","local":"Росинья","country":"BR","lat":-22.989,"lon":-43.249,"pop":24543,"tz":"America/Sao_Paulo"},{"id":1167386,"name":"Raja Jang","local":"Raja Jang","country":"PK","lat":31.221,"lon":74.255,"pop":24407,"tz":"Asia/Karachi"},{"id":4443296,"name":"Ridgeland","local":"Риджланд","country":"US","lat":32.428,"lon":-90.132,"pop":24351,"tz":"America/Chicago"},{"id":10530672,"name":"Rajakheri","local":"Rajākheri","country":"IN","lat":23.859,"lon":78.785,"pop":24232,"tz":"Asia/Kolkata"},{"id":2787769,"name":"Ronse","local":"Ронсе","country":"BE","lat":50.746,"lon":3.6,"pop":24204,"tz":"Europe/Brussels"},{"id":5134203,"name":"Rockville Centre","local":"Роквил Центер","country":"US","lat":40.659,"lon":-73.641,"pop":24201,"tz":"America/New_York"},{"id":4908052,"name":"Rolling Meadows","local":"Ролинг Медоус","country":"US","lat":42.084,"lon":-88.013,"pop":24190,"tz":"America/Chicago"},{"id":962847,"name":"Reitz","local":"Reitz","country":"ZA","lat":-27.801,"lon":28.427,"pop":24181,"tz":"Africa/Johannesburg"},{"id":8347896,"name":"Roxburgh Park","local":"Roxburgh Park","country":"AU","lat":-37.626,"lon":144.926,"pop":24129,"tz":"Australia/Melbourne"},{"id":5387844,"name":"Riverbank","local":"Ривербанк","country":"US","lat":37.736,"lon":-120.935,"pop":24122,"tz":"America/Los_Angeles"},{"id":2850995,"name":"Radevormwald","local":"Радеформвальд","country":"DE","lat":51.202,"lon":7.36,"pop":24100,"tz":"Europe/Berlin"},{"id":2638977,"name":"Rugeley","local":"Ръджли","country":"GB","lat":52.759,"lon":-1.937,"pop":24033,"tz":"Europe/London"},{"id":13132462,"name":"Ruaha","local":"Ruaha","country":"TZ","lat":-7.657,"lon":36.983,"pop":24000,"tz":"Africa/Dar_es_Salaam"},{"id":5836898,"name":"Rock Springs","local":"Рок-Спрингс","country":"US","lat":41.587,"lon":-109.203,"pop":23962,"tz":"America/Denver"},{"id":3168770,"name":"Ruvo di Puglia","local":"Руво-ди-Пулья","country":"IT","lat":41.118,"lon":16.484,"pop":23938,"tz":"Europe/Rome"},{"id":2523577,"name":"Rossano Stazione","local":"Rossano Stazione","country":"IT","lat":39.599,"lon":16.635,"pop":23824,"tz":"Europe/Rome"},{"id":669289,"name":"Radauti","local":"Рэдэуци","country":"RO","lat":47.85,"lon":25.917,"pop":23822,"tz":"Europe/Bucharest"},{"id":1258203,"name":"Reoti","local":"Реоти","country":"IN","lat":25.851,"lon":84.378,"pop":23819,"tz":"Asia/Kolkata"},{"id":2017487,"name":"Raychikhinsk","local":"Райчихинск","country":"RU","lat":49.796,"lon":129.403,"pop":23745,"tz":"Asia/Yakutsk"},{"id":3542167,"name":"Rio Cauto","local":"Río Cauto","country":"CU","lat":20.56,"lon":-76.917,"pop":23737,"tz":"America/Havana"},{"id":640276,"name":"Raahe","local":"Рахе","country":"FI","lat":64.683,"lon":24.483,"pop":23566,"tz":"Europe/Helsinki"},{"id":6128577,"name":"Rouyn-Noranda","local":"Руэн-Норанда","country":"CA","lat":48.237,"lon":-79.023,"pop":23504,"tz":"America/Toronto"},{"id":3451791,"name":"Raul Soares","local":"Raul Soares","country":"BR","lat":-20.102,"lon":-42.453,"pop":23423,"tz":"America/Sao_Paulo"},{"id":5007531,"name":"Romulus","local":"Ромул","country":"US","lat":42.222,"lon":-83.397,"pop":23417,"tz":"America/Detroit"},{"id":2845222,"name":"Ronnenberg","local":"Ронненберг","country":"DE","lat":52.319,"lon":9.655,"pop":23416,"tz":"Europe/Berlin"},{"id":5043779,"name":"Rosemount","local":"Росмаунт","country":"US","lat":44.739,"lon":-93.126,"pop":23413,"tz":"America/Chicago"},{"id":1258553,"name":"Ramtek","local":"Рамтек","country":"IN","lat":21.396,"lon":79.327,"pop":23404,"tz":"Asia/Kolkata"},{"id":1258061,"name":"Ron","local":"Рона","country":"IN","lat":15.699,"lon":75.734,"pop":23311,"tz":"Asia/Kolkata"},{"id":12718837,"name":"Redhill","local":"Redhill","country":"ZA","lat":-26.261,"lon":30.825,"pop":23153,"tz":"Africa/Johannesburg"},{"id":3451399,"name":"Ribas do Rio Pardo","local":"Ribas do Rio Pardo","country":"BR","lat":-20.443,"lon":-53.759,"pop":23150,"tz":"America/Campo_Grande"},{"id":8348930,"name":"Robina","local":"Robina","country":"AU","lat":-28.071,"lon":153.393,"pop":23140,"tz":"Australia/Brisbane"},{"id":3045960,"name":"Rakosszentmihaly","local":"Rákosszentmihály","country":"HU","lat":47.525,"lon":19.155,"pop":23098,"tz":"Europe/Budapest"},{"id":2614764,"name":"Ringsted","local":"Рингстед","country":"DK","lat":55.443,"lon":11.79,"pop":23086,"tz":"Europe/Copenhagen"},{"id":4908173,"name":"Roselle","local":"Roselle","country":"US","lat":41.985,"lon":-88.08,"pop":22994,"tz":"America/Chicago"},{"id":3996737,"name":"Rodolfo Sanchez Taboada","local":"Rodolfo Sánchez Taboada","country":"MX","lat":31.723,"lon":-116.572,"pop":22957,"tz":"America/Tijuana"},{"id":92002,"name":"Ruwandiz","local":"Равандуз","country":"IQ","lat":36.611,"lon":44.522,"pop":22943,"tz":"Asia/Baghdad"},{"id":3670692,"name":"Rivera","local":"Rivera","country":"CO","lat":2.777,"lon":-75.256,"pop":22877,"tz":"America/Bogota"},{"id":2639015,"name":"Royton","local":"Royton","country":"GB","lat":53.565,"lon":-2.123,"pop":22848,"tz":"Europe/London"},{"id":3629102,"name":"Rio Chico","local":"Río Chico","country":"VE","lat":10.319,"lon":-65.978,"pop":22830,"tz":"America/Caracas"},{"id":1259049,"name":"Raghunathpur","local":"Raghunathpur","country":"IN","lat":23.539,"lon":86.674,"pop":22802,"tz":"Asia/Kolkata"},{"id":226690,"name":"Rubanda","local":"Rubanda","country":"UG","lat":-1.188,"lon":29.846,"pop":22800,"tz":"Africa/Kampala"},{"id":3383188,"name":"Rainville","local":"Rainville","country":"SR","lat":5.834,"lon":-55.138,"pop":22747,"tz":"America/Paramaribo"},{"id":5388873,"name":"Rosemont","local":"Роземонт","country":"US","lat":38.552,"lon":-121.365,"pop":22681,"tz":"America/Los_Angeles"},{"id":13495380,"name":"Riley Park","local":"Riley Park","country":"CA","lat":49.243,"lon":-123.093,"pop":22555,"tz":"America/Vancouver"},{"id":10249965,"name":"Raman","local":"Rāman","country":"IN","lat":29.95,"lon":74.979,"pop":22553,"tz":"Asia/Kolkata"},{"id":2849548,"name":"Rees","local":"Рес","country":"DE","lat":51.763,"lon":6.398,"pop":22544,"tz":"Europe/Berlin"},{"id":2849156,"name":"Reichenbach/Vogtland","local":"Reichenbach/Vogtland","country":"DE","lat":50.623,"lon":12.303,"pop":22530,"tz":"Europe/Berlin"},{"id":1258843,"name":"Rajmahal","local":"Rājmahal","country":"IN","lat":25.053,"lon":87.83,"pop":22514,"tz":"Asia/Kolkata"},{"id":1167142,"name":"Ranipur","local":"Ranipur","country":"PK","lat":27.287,"lon":68.506,"pop":22495,"tz":"Asia/Karachi"},{"id":3066909,"name":"Repy","local":"Řepy","country":"CZ","lat":50.071,"lon":14.301,"pop":22461,"tz":"Europe/Prague"},{"id":4305504,"name":"Radcliff","local":"Радклиф","country":"US","lat":37.84,"lon":-85.949,"pop":22387,"tz":"America/New_York"},{"id":1258323,"name":"Ratu","local":"Rātu","country":"IN","lat":23.42,"lon":85.215,"pop":22379,"tz":"Asia/Kolkata"},{"id":2538401,"name":"Ras el Ma","local":"Ras el Ma","country":"MA","lat":33.974,"lon":-5.096,"pop":22345,"tz":"Africa/Casablanca"},{"id":4339348,"name":"Ruston","local":"Растон","country":"US","lat":32.523,"lon":-92.638,"pop":22340,"tz":"America/Chicago"},{"id":1259036,"name":"Rahata","local":"Rahata","country":"IN","lat":19.717,"lon":74.481,"pop":22335,"tz":"Asia/Kolkata"},{"id":12156859,"name":"Rockcliffe-Smythe","local":"Rockcliffe-Smythe","country":"CA","lat":43.675,"lon":-79.494,"pop":22246,"tz":"America/Toronto"},{"id":10778177,"name":"Ramavarappadu","local":"Rāmavarappādu","country":"IN","lat":16.521,"lon":80.681,"pop":22222,"tz":"Asia/Kolkata"},{"id":3390581,"name":"Riachao","local":"Riachão","country":"BR","lat":-7.362,"lon":-46.617,"pop":22145,"tz":"America/Fortaleza"},{"id":2844437,"name":"Rotenburg","local":"Ротенбург","country":"DE","lat":53.11,"lon":9.404,"pop":22139,"tz":"Europe/Berlin"},{"id":2639586,"name":"Rawtenstall","local":"Rawtenstall","country":"GB","lat":53.701,"lon":-2.284,"pop":22114,"tz":"Europe/London"},{"id":5749352,"name":"Roseburg","local":"Росберг","country":"US","lat":43.217,"lon":-123.342,"pop":22114,"tz":"America/Los_Angeles"},{"id":150436,"name":"Rulenge","local":"Rulenge","country":"TZ","lat":-2.717,"lon":30.633,"pop":22069,"tz":"Africa/Dar_es_Salaam"},{"id":500047,"name":"Ryazhsk","local":"Ряжск","country":"RU","lat":53.706,"lon":40.08,"pop":22041,"tz":"Europe/Moscow"},{"id":2650346,"name":"Retford","local":"Retford","country":"GB","lat":53.322,"lon":-0.943,"pop":22023,"tz":"Europe/London"},{"id":2639495,"name":"Renfrew","local":"Ренфру","country":"GB","lat":55.872,"lon":-4.393,"pop":22010,"tz":"Europe/London"},{"id":2511880,"name":"Ribarroja del Turia","local":"Ribarroja del Turia","country":"ES","lat":39.546,"lon":-0.571,"pop":21992,"tz":"Europe/Madrid"},{"id":501320,"name":"Roshal'","local":"Рошаль","country":"RU","lat":55.669,"lon":39.875,"pop":21951,"tz":"Europe/Moscow"},{"id":3523900,"name":"Reyes Acozac","local":"Лос Рејес Акозак","country":"MX","lat":19.776,"lon":-98.981,"pop":21910,"tz":"America/Mexico_City"},{"id":760503,"name":"Rembertow","local":"Рембертув","country":"PL","lat":52.261,"lon":21.164,"pop":21893,"tz":"Europe/Warsaw"},{"id":3086531,"name":"Rydultowy","local":"Рыдултовы","country":"PL","lat":50.059,"lon":18.417,"pop":21887,"tz":"Europe/Warsaw"},{"id":2639069,"name":"Rottingdean","local":"Rottingdean","country":"GB","lat":50.81,"lon":-0.059,"pop":21756,"tz":"Europe/London"},{"id":5103500,"name":"Roselle","local":"Розел","country":"US","lat":40.652,"lon":-74.259,"pop":21670,"tz":"America/New_York"},{"id":3451478,"name":"Riachao das Neves","local":"Riachão das Neves","country":"BR","lat":-11.746,"lon":-44.91,"pop":21642,"tz":"America/Bahia"},{"id":2787989,"name":"Rixensart","local":"Риксенсарт","country":"BE","lat":50.712,"lon":4.525,"pop":21616,"tz":"Europe/Brussels"},{"id":4560722,"name":"Rittenhouse","local":"Rittenhouse","country":"US","lat":39.948,"lon":-75.172,"pop":21582,"tz":"America/New_York"},{"id":1797172,"name":"Renxian","local":"Renxian","country":"CN","lat":30.661,"lon":107.679,"pop":21499,"tz":"Asia/Shanghai"},{"id":201524,"name":"Ruhango","local":"Ruhango","country":"RW","lat":-2.225,"lon":29.791,"pop":21478,"tz":"Africa/Kigali"},{"id":2639389,"name":"Richmond","local":"Richmond","country":"GB","lat":51.462,"lon":-0.306,"pop":21469,"tz":"Europe/London"},{"id":723736,"name":"Rimavska Sobota","local":"Римавска Собота","country":"SK","lat":48.383,"lon":20.022,"pop":21434,"tz":"Europe/Bratislava"},{"id":3087307,"name":"Rawicz","local":"Равич","country":"PL","lat":51.609,"lon":16.859,"pop":21380,"tz":"Europe/Warsaw"},{"id":3272941,"name":"Riedstadt","local":"Ридштадт","country":"DE","lat":49.834,"lon":8.496,"pop":21362,"tz":"Europe/Berlin"},{"id":3450963,"name":"Rolante","local":"Rolante","country":"BR","lat":-29.651,"lon":-50.576,"pop":21253,"tz":"America/Sao_Paulo"},{"id":5386053,"name":"Rancho San Diego","local":"Rancho San Diego","country":"US","lat":32.747,"lon":-116.935,"pop":21208,"tz":"America/Los_Angeles"},{"id":13494704,"name":"Reethapuram","local":"Reethapuram","country":"IN","lat":8.184,"lon":77.248,"pop":21177,"tz":"Asia/Kolkata"},{"id":3988462,"name":"Romita","local":"Romita","country":"MX","lat":20.871,"lon":-101.517,"pop":21176,"tz":"America/Mexico_City"},{"id":2639325,"name":"Ripley","local":"Рипли","country":"GB","lat":53.033,"lon":-1.4,"pop":21097,"tz":"Europe/London"},{"id":3451357,"name":"Ribeirao da Ilha","local":"Ribeirão da Ilha","country":"BR","lat":-27.699,"lon":-48.532,"pop":21000,"tz":"America/Sao_Paulo"},{"id":1258816,"name":"Rajpur","local":"Rajpur","country":"IN","lat":21.94,"lon":75.136,"pop":20947,"tz":"Asia/Kolkata"},{"id":2983074,"name":"Roissy-en-Brie","local":"Руасси-ан-Бри","country":"FR","lat":48.792,"lon":2.647,"pop":20933,"tz":"Europe/Paris"},{"id":2659070,"name":"Renens","local":"Ренан","country":"CH","lat":46.54,"lon":6.588,"pop":20927,"tz":"Europe/Zurich"},{"id":12156862,"name":"Rosedale-Moore Park","local":"Rosedale-Moore Park","country":"CA","lat":43.683,"lon":-79.38,"pop":20923,"tz":"America/Toronto"},{"id":3670849,"name":"Retiro","local":"Retiro","country":"CO","lat":6.059,"lon":-75.503,"pop":20700,"tz":"America/Bogota"},{"id":181122,"name":"Rongo","local":"Rongo","country":"KE","lat":-0.757,"lon":34.598,"pop":20688,"tz":"Africa/Nairobi"},{"id":329586,"name":"Robit","local":"Robīt","country":"ET","lat":12.017,"lon":39.633,"pop":20679,"tz":"Africa/Addis_Ababa"},{"id":5134453,"name":"Rotterdam","local":"Rotterdam","country":"US","lat":42.787,"lon":-73.971,"pop":20652,"tz":"America/New_York"},{"id":3390490,"name":"Riacho das Almas","local":"Riacho das Almas","country":"BR","lat":-8.134,"lon":-35.856,"pop":20639,"tz":"America/Recife"},{"id":12047628,"name":"Rejon ulicy Traugutta","local":"Rejon ulicy Traugutta","country":"PL","lat":51.102,"lon":17.048,"pop":20617,"tz":"Europe/Warsaw"},{"id":6122758,"name":"Riverview","local":"Ривервью","country":"CA","lat":46.055,"lon":-64.816,"pop":20584,"tz":"America/Moncton"},