[{"id":1253573,"name":"Vadodara","local":"Вадодара","country":"IN","lat":22.299,"lon":73.208,"pop":1822221,"tz":"Asia/Kolkata"},{"id":2761369,"name":"Vienna","local":"Вена","country":"AT","lat":48.208,"lon":16.372,"pop":1691468,"tz":"Europe/Vienna"},{"id":3625549,"name":"Valencia","local":"Валенсия","country":"VE","lat":10.162,"lon":-68.0,"pop":1619470,"tz":"America/Caracas"},{"id":1253133,"name":"Virar","local":"Virār","country":"IN","lat":19.456,"lon":72.811,"pop":1222390,"tz":"Asia/Kolkata"},{"id":1253405,"name":"Varanasi","local":"Варанаси","country":"IN","lat":25.317,"lon":83.01,"pop":1164404,"tz":"Asia/Kolkata"},{"id":1253184,"name":"Vijayawada","local":"Виджаявада","country":"IN","lat":16.507,"lon":80.647,"pop":1143232,"tz":"Asia/Kolkata"},{"id":1253102,"name":"Visakhapatnam","local":"Вишакхапатнам","country":"IN","lat":17.68,"lon":83.202,"pop":1063178,"tz":"Asia/Kolkata"},{"id":472045,"name":"Voronezh","local":"Воронеж","country":"RU","lat":51.668,"lon":39.192,"pop":1047549,"tz":"Europe/Moscow"},{"id":472757,"name":"Volgograd","local":"Волгоград","country":"RU","lat":48.714,"lon":44.498,"pop":1013533,"tz":"Europe/Volgograd"},{"id":1931681,"name":"Victoria","local":"Victoria","country":"HK","lat":22.288,"lon":114.144,"pop":956800,"tz":"Asia/Hong_Kong"},{"id":2509954,"name":"Valencia","local":"Валенсия","country":"ES","lat":39.474,"lon":-0.38,"pop":824340,"tz":"Europe/Madrid"},{"id":1562798,"name":"Vinh","local":"Винь","country":"VN","lat":18.673,"lon":105.692,"pop":790000,"tz":"Asia/Bangkok"},{"id":1680102,"name":"Valenzuela","local":"Valenzuela","country":"PH","lat":14.7,"lon":120.967,"pop":725173,"tz":"Asia/Manila"},{"id":6173331,"name":"Vancouver","local":"Ванкувер","country":"CA","lat":49.25,"lon":-123.119,"pop":662248,"tz":"America/Vancouver"},{"id":3587902,"name":"Villa Nueva","local":"Вилья-Нуэва","country":"GT","lat":14.525,"lon":-90.585,"pop":618397,"tz":"America/Guatemala"},{"id":2013348,"name":"Vladivostok","local":"Владивосток","country":"RU","lat":43.106,"lon":131.874,"pop":604901,"tz":"Asia/Vladivostok"},{"id":593116,"name":"Vilnius","local":"Вильнюс","country":"LT","lat":54.689,"lon":25.28,"pop":542366,"tz":"Europe/Vilnius"},{"id":298117,"name":"Van","local":"Ван","country":"TR","lat":38.495,"lon":43.383,"pop":525016,"tz":"Europe/Istanbul"},{"id":4011743,"name":"Victoria de Durango","local":"Дуранго","country":"MX","lat":24.02,"lon":-104.658,"pop":518709,"tz":"America/Monterrey"},{"id":3666304,"name":"Valledupar","local":"Вальедупар","country":"CO","lat":10.465,"lon":-73.253,"pop":490075,"tz":"America/Bogota"},{"id":1253286,"name":"Vellore","local":"Веллор","country":"IN","lat":12.918,"lon":79.133,"pop":484690,"tz":"Asia/Kolkata"},{"id":944385,"name":"Vereeniging","local":"Феринихинг","country":"ZA","lat":-26.673,"lon":27.926,"pop":474681,"tz":"Africa/Johannesburg"},{"id":1562414,"name":"Vung Tau","local":"Вунгтау","country":"VN","lat":10.346,"lon":107.084,"pop":464860,"tz":"Asia/Ho_Chi_Minh"},{"id":4791259,"name":"Virginia Beach","local":"Вирджиния-Бич","country":"US","lat":36.853,"lon":-75.978,"pop":454808,"tz":"America/New_York"},{"id":3827407,"name":"Venustiano Carranza","local":"Venustiano Carranza","country":"MX","lat":19.444,"lon":-99.105,"pop":430978,"tz":"America/Mexico_City"},{"id":3514783,"name":"Veracruz","local":"Веракрус","country":"MX","lat":19.181,"lon":-96.143,"pop":428323,"tz":"America/Mexico_City"},{"id":1562820,"name":"Viet Tri","local":"Việt Trì","country":"VN","lat":21.323,"lon":105.402,"pop":415280,"tz":"Asia/Bangkok"},{"id":3445026,"name":"Vila Velha","local":"Вила-Велья","country":"BR","lat":-20.33,"lon":-40.292,"pop":394930,"tz":"America/Sao_Paulo"},{"id":689558,"name":"Vinnytsya","local":"Винница","country":"UA","lat":49.232,"lon":28.469,"pop":369839,"tz":"Europe/Kyiv"},{"id":620127,"name":"Vitebsk","local":"Витебск","country":"BY","lat":55.19,"lon":30.205,"pop":358395,"tz":"Europe/Minsk"},{"id":473247,"name":"Vladimir","local":"Владимир","country":"RU","lat":56.139,"lon":40.4,"pop":357024,"tz":"Europe/Moscow"},{"id":3514670,"name":"Villahermosa","local":"Вильяэрмоса","country":"MX","lat":17.986,"lon":-92.939,"pop":353577,"tz":"America/Merida"},{"id":3868121,"name":"Vina del Mar","local":"Винья-дель-Мар","country":"CL","lat":-33.025,"lon":-71.552,"pop":334248,"tz":"America/Santiago"},{"id":1275701,"name":"Vijayapura","local":"Биджапур","country":"IN","lat":16.824,"lon":75.715,"pop":327427,"tz":"Asia/Kolkata"},{"id":472231,"name":"Volzhsky","local":"Волжский","country":"RU","lat":48.786,"lon":44.78,"pop":323293,"tz":"Europe/Volgograd"},{"id":6173577,"name":"Vaughan","local":"Вон","country":"CA","lat":43.836,"lon":-79.498,"pop":323103,"tz":"America/Toronto"},{"id":3665900,"name":"Villavicencio","local":"Вильявисенсио","country":"CO","lat":4.132,"lon":-73.626,"pop":321717,"tz":"America/Bogota"},{"id":726050,"name":"Varna","local":"Варна","country":"BG","lat":43.219,"lon":27.91,"pop":318737,"tz":"Europe/Sofia"},{"id":3445451,"name":"Varzea Grande","local":"Várzea Grande","country":"BR","lat":-15.647,"lon":-56.133,"pop":314627,"tz":"America/Cuiaba"},{"id":3444924,"name":"Vitoria","local":"Витория","country":"BR","lat":-20.319,"lon":-40.338,"pop":312656,"tz":"America/Sao_Paulo"},{"id":472459,"name":"Vologda","local":"Вологда","country":"RU","lat":59.224,"lon":39.884,"pop":312420,"tz":"Europe/Moscow"},{"id":473249,"name":"Vladikavkaz","local":"Владикавказ","country":"RU","lat":43.041,"lon":44.67,"pop":306258,"tz":"Europe/Moscow"},{"id":3106672,"name":"Valladolid","local":"Вальядолид","country":"ES","lat":41.655,"lon":-4.724,"pop":300618,"tz":"Europe/Madrid"},{"id":3105976,"name":"Vigo","local":"Виго","country":"ES","lat":42.233,"lon":-8.723,"pop":293642,"tz":"Europe/Madrid"},{"id":6174041,"name":"Victoria","local":"Виктория","country":"CA","lat":48.436,"lon":-123.352,"pop":289625,"tz":"America/Vancouver"},{"id":3445156,"name":"Viamao","local":"Виаман","country":"BR","lat":-30.081,"lon":-51.023,"pop":285269,"tz":"America/Sao_Paulo"},{"id":3868626,"name":"Valparaiso","local":"Вальпараисо","country":"CL","lat":-33.036,"lon":-71.63,"pop":282448,"tz":"America/Santiago"},{"id":3444876,"name":"Volta Redonda","local":"Волта-Редонда","country":"BR","lat":-22.523,"lon":-44.104,"pop":279898,"tz":"America/Sao_Paulo"},{"id":3164527,"name":"Verona","local":"Верона","country":"IT","lat":45.439,"lon":10.994,"pop":258031,"tz":"Europe/Rome"},{"id":3444914,"name":"Vitoria da Conquista","local":"Витория-да-Конкиста","country":"BR","lat":-14.866,"lon":-40.839,"pop":253137,"tz":"America/Bahia"},{"id":632453,"name":"Vantaa","local":"Вантаа","country":"FI","lat":60.294,"lon":25.041,"pop":252724,"tz":"Europe/Helsinki"},{"id":944986,"name":"Vanderbijlpark","local":"Фандербейлпарк","country":"ZA","lat":-26.712,"lon":27.838,"pop":246754,"tz":"Africa/Johannesburg"},{"id":3625542,"name":"Valera","local":"Валера","country":"VE","lat":9.318,"lon":-70.604,"pop":244708,"tz":"America/Caracas"},{"id":688758,"name":"Vyhurivshchyna-Troieshchyna","local":"Троещина","country":"UA","lat":50.511,"lon":30.603,"pop":240000,"tz":"Europe/Kyiv"},{"id":1253084,"name":"Vizianagaram","local":"Визианагарам","country":"IN","lat":18.117,"lon":83.411,"pop":228720,"tz":"Asia/Kolkata"},{"id":519336,"name":"Velikiy Novgorod","local":"Великий Новгород","country":"RU","lat":58.521,"lon":31.271,"pop":222868,"tz":"Europe/Moscow"},{"id":470451,"name":"Vykhino-Zhulebino","local":"Выхино-Жулебино","country":"RU","lat":55.702,"lon":37.812,"pop":216000,"tz":"Europe/Moscow"},{"id":1562818,"name":"Viet Yen","local":"Вьетйен","country":"VN","lat":21.267,"lon":106.133,"pop":205900,"tz":"Asia/Ho_Chi_Minh"},{"id":8504949,"name":"Vasyl'evsky Ostrov","local":"Васильевский остров","country":"RU","lat":59.941,"lon":30.254,"pop":203058,"tz":"Europe/Moscow"},{"id":6318856,"name":"Valparaiso de Goias","local":"Valparaíso de Goiás","country":"BR","lat":-16.066,"lon":-47.979,"pop":198861,"tz":"America/Sao_Paulo"},{"id":1651944,"name":"Vientiane","local":"Вьентьян","country":"LA","lat":17.967,"lon":102.6,"pop":196731,"tz":"Asia/Vientiane"},{"id":5814616,"name":"Vancouver","local":"Ванкувер","country":"US","lat":45.639,"lon":-122.661,"pop":196442,"tz":"America/Los_Angeles"},{"id":1562773,"name":"Vinh Chau","local":"Vĩnh Châu","country":"VN","lat":9.324,"lon":105.98,"pop":183918,"tz":"Asia/Ho_Chi_Minh"},{"id":112214,"name":"Varamin","local":"Варамин","country":"IR","lat":35.324,"lon":51.646,"pop":179603,"tz":"Asia/Tehran"},{"id":1253237,"name":"Veraval","local":"Verāval","country":"IN","lat":20.908,"lon":70.368,"pop":171121,"tz":"Asia/Kolkata"},{"id":11962431,"name":"Vila Andrade","local":"Vila Andrade","country":"BR","lat":-23.626,"lon":-46.728,"pop":168669,"tz":"America/Sao_Paulo"},{"id":472761,"name":"Volgodonsk","local":"Волгодонск","country":"RU","lat":47.511,"lon":42.153,"pop":167731,"tz":"Europe/Moscow"},{"id":7279741,"name":"Vapi","local":"Vapi","country":"IN","lat":20.372,"lon":72.905,"pop":163630,"tz":"Asia/Kolkata"},{"id":1253200,"name":"Vidisha","local":"Видиша","country":"IN","lat":23.526,"lon":77.811,"pop":155951,"tz":"Asia/Kolkata"},{"id":3587923,"name":"Villa Canales","local":"Villa Canales","country":"GT","lat":14.483,"lon":-90.534,"pop":155423,"tz":"America/Guatemala"},{"id":298033,"name":"Viransehir","local":"Вираншехире","country":"TR","lat":37.223,"lon":39.755,"pop":154163,"tz":"Europe/Istanbul"},{"id":3625515,"name":"Valle de La Pascua","local":"Валье-де-Ла-Паскуа","country":"VE","lat":9.216,"lon":-66.007,"pop":153136,"tz":"America/Caracas"},{"id":942470,"name":"Vryheid","local":"Vryheid","country":"ZA","lat":-27.77,"lon":30.792,"pop":150012,"tz":"Africa/Johannesburg"},{"id":5405288,"name":"Valencia","local":"Valencia","country":"US","lat":34.444,"lon":-118.61,"pop":148456,"tz":"America/Los_Angeles"},{"id":13546324,"name":"Villeray-Saint-Michel-Parc-Extension","local":"Villeray–Saint-Michel–Parc-Extension","country":"CA","lat":45.559,"lon":-73.605,"pop":144814,"tz":"America/Toronto"},{"id":11962432,"name":"Vila Curuca","local":"Vila Curuca","country":"BR","lat":-23.51,"lon":-46.416,"pop":140673,"tz":"America/Sao_Paulo"},{"id":1253468,"name":"Valsad","local":"Valsād","country":"IN","lat":20.61,"lon":72.934,"pop":139764,"tz":"Asia/Kolkata"},{"id":1562693,"name":"Vinh Long","local":"Vĩnh Long","country":"VN","lat":10.254,"lon":105.972,"pop":137870,"tz":"Asia/Ho_Chi_Minh"},{"id":3445487,"name":"Varginha","local":"Варжинья","country":"BR","lat":-21.551,"lon":-45.43,"pop":136467,"tz":"America/Sao_Paulo"},{"id":5405693,"name":"Van Nuys","local":"Ван-Найс","country":"US","lat":34.187,"lon":-118.449,"pop":136443,"tz":"America/Los_Angeles"},{"id":11962412,"name":"Vila Jacui","local":"Vila Jacui","country":"BR","lat":-23.503,"lon":-46.462,"pop":134189,"tz":"America/Sao_Paulo"},{"id":3384987,"name":"Vitoria de Santo Antao","local":"Витория-де-Санту-Антан","country":"BR","lat":-8.118,"lon":-35.291,"pop":134084,"tz":"America/Recife"},{"id":3868707,"name":"Valdivia","local":"Вальдивия","country":"CL","lat":-39.814,"lon":-73.246,"pop":133419,"tz":"America/Santiago"},{"id":11947989,"name":"Villa Mercedes","local":"Villa Mercedes","country":"CL","lat":-37.404,"lon":-71.979,"pop":131936,"tz":"America/Santiago"},{"id":2968254,"name":"Villeurbanne","local":"Вийёрбан","country":"FR","lat":45.766,"lon":4.88,"pop":131445,"tz":"Europe/Paris"},{"id":5406567,"name":"Visalia","local":"Висейлия","country":"US","lat":36.33,"lon":-119.292,"pop":130104,"tz":"America/Los_Angeles"},{"id":3445162,"name":"Vespasiano","local":"Vespasiano","country":"BR","lat":-19.692,"lon":-43.923,"pop":129246,"tz":"America/Sao_Paulo"},{"id":3444866,"name":"Votorantim","local":"Votorantim","country":"BR","lat":-23.547,"lon":-47.438,"pop":127923,"tz":"America/Sao_Paulo"},{"id":2664454,"name":"Vaesteras","local":"Вестерос","country":"SE","lat":59.616,"lon":16.553,"pop":127799,"tz":"Europe/Stockholm"},{"id":3445061,"name":"Vila Mariana","local":"Vila Mariana","country":"BR","lat":-23.588,"lon":-46.635,"pop":127286,"tz":"America/Sao_Paulo"},{"id":3104748,"name":"Villaverde","local":"Villaverde","country":"ES","lat":40.35,"lon":-3.7,"pop":126802,"tz":"Europe/Madrid"},{"id":3445578,"name":"Valinhos","local":"Валиньюс","country":"BR","lat":-22.971,"lon":-46.996,"pop":126373,"tz":"America/Sao_Paulo"},{"id":943882,"name":"Virginia","local":"Вирджиния","country":"ZA","lat":-28.104,"lon":26.866,"pop":122502,"tz":"Africa/Johannesburg"},{"id":5406222,"name":"Victorville","local":"Викторвилл","country":"US","lat":34.536,"lon":-117.291,"pop":122225,"tz":"America/Los_Angeles"},{"id":473972,"name":"Veshnyaki","local":"Вешняки","country":"RU","lat":55.724,"lon":37.82,"pop":122000,"tz":"Europe/Moscow"},{"id":5405380,"name":"Vallejo","local":"Вальехо","country":"US","lat":38.104,"lon":-122.257,"pop":121692,"tz":"America/Los_Angeles"},{"id":1253315,"name":"Vejalpur","local":"Vejalpur","country":"IN","lat":22.69,"lon":73.563,"pop":121610,"tz":"Asia/Kolkata"},{"id":1562548,"name":"Vinh Yen","local":"Vĩnh Yên","country":"VN","lat":21.309,"lon":105.605,"pop":119128,"tz":"Asia/Bangkok"},{"id":3445446,"name":"Varzea Paulista","local":"Várzea Paulista","country":"BR","lat":-23.211,"lon":-46.828,"pop":115771,"tz":"America/Sao_Paulo"},{"id":933945,"name":"Vacoas","local":"Vacoas","country":"MU","lat":-20.298,"lon":57.478,"pop":115289,"tz":"Indian/Mauritius"},{"id":3183719,"name":"Vlore","local":"Влёра","country":"AL","lat":40.47,"lon":19.484,"pop":115261,"tz":"Europe/Tirane"},{"id":11962414,"name":"Vila Medeiros","local":"Vila Medeiros","country":"BR","lat":-23.489,"lon":-46.578,"pop":114839,"tz":"America/Sao_Paulo"},{"id":3427408,"name":"Villa Lugano","local":"Villa Lugano","country":"AR","lat":-34.679,"lon":-58.473,"pop":114000,"tz":"America/Argentina/Buenos_Aires"},{"id":1162813,"name":"Vihari","local":"Vihari","country":"PK","lat":30.044,"lon":72.356,"pop":112840,"tz":"Asia/Karachi"},{"id":3164419,"name":"Vicenza","local":"Виченца","country":"IT","lat":45.547,"lon":11.547,"pop":111980,"tz":"Europe/Rome"},{"id":3445062,"name":"Vila Maria","local":"Vila Maria","country":"BR","lat":-23.514,"lon":-46.586,"pop":108543,"tz":"America/Sao_Paulo"},{"id":3534599,"name":"Vedado","local":"Vedado","country":"CU","lat":23.138,"lon":-82.393,"pop":108369,"tz":"America/Havana"},{"id":11962403,"name":"Vila Prudente","local":"Vila Prudente","country":"BR","lat":-23.593,"lon":-46.573,"pop":105590,"tz":"America/Sao_Paulo"},{"id":13546317,"name":"Ville-Marie","local":"Ville-Marie","country":"CA","lat":45.499,"lon":-73.57,"pop":104944,"tz":"America/Toronto"},{"id":11962413,"name":"Vila Matilde","local":"Vila Matilde","country":"BR","lat":-23.539,"lon":-46.518,"pop":103558,"tz":"America/Sao_Paulo"},{"id":2732265,"name":"Viseu","local":"Визеу","country":"PT","lat":40.662,"lon":-7.909,"pop":103502,"tz":"Europe/Lisbon"},{"id":476077,"name":"Velikiye Luki","local":"Великие Луки","country":"RU","lat":56.341,"lon":30.544,"pop":103149,"tz":"Europe/Moscow"},{"id":2745641,"name":"Venlo","local":"Венло","country":"NL","lat":51.37,"lon":6.168,"pop":101988,"tz":"Europe/Amsterdam"},{"id":5406602,"name":"Vista","local":"Виста","country":"US","lat":33.2,"lon":-117.243,"pop":100890,"tz":"America/Los_Angeles"},{"id":1253367,"name":"Vasco da Gama","local":"Васко-да-Гама","country":"IN","lat":15.396,"lon":73.816,"pop":100485,"tz":"Asia/Kolkata"},{"id":3625341,"name":"Villa de Cura","local":"Villa de Cura","country":"VE","lat":10.039,"lon":-67.489,"pop":99669,"tz":"America/Caracas"},{"id":471430,"name":"Votkinsk","local":"Воткинск","country":"RU","lat":57.049,"lon":53.987,"pop":98633,"tz":"Europe/Samara"},{"id":9533392,"name":"Vinh Thanh","local":"Vĩnh Thạnh","country":"VN","lat":10.223,"lon":105.398,"pop":98399,"tz":"Asia/Ho_Chi_Minh"},{"id":1253166,"name":"Villupuram","local":"Villupuram","country":"IN","lat":11.94,"lon":79.492,"pop":97380,"tz":"Asia/Kolkata"},{"id":3868192,"name":"Villa Alemana","local":"Вилья-Алемана","country":"CL","lat":-33.048,"lon":-71.373,"pop":97320,"tz":"America/Santiago"},{"id":10226875,"name":"Vicente Pires","local":"Vicente Pires","country":"BR","lat":-15.81,"lon":-48.031,"pop":96871,"tz":"America/Sao_Paulo"},{"id":5405228,"name":"Vacaville","local":"Вакавил","country":"US","lat":38.357,"lon":-121.988,"pop":96803,"tz":"America/Los_Angeles"},{"id":7116866,"name":"Villa Mercedes","local":"Виља Мерседес","country":"AR","lat":-33.676,"lon":-65.458,"pop":96781,"tz":"America/Argentina/San_Luis"},{"id":5405878,"name":"Ventura","local":"Вентура","country":"US","lat":34.278,"lon":-119.293,"pop":96769,"tz":"America/Los_Angeles"},{"id":3924679,"name":"Vilhena","local":"Вилена","country":"BR","lat":-12.741,"lon":-60.146,"pop":95832,"tz":"America/Porto_Velho"},{"id":1253437,"name":"Vaniyambadi","local":"Vaniyambadi","country":"IN","lat":12.682,"lon":78.62,"pop":95061,"tz":"Asia/Kolkata"},{"id":8505053,"name":"Vostochnoe Degunino","local":"Восточное Дегунино","country":"RU","lat":55.88,"lon":37.558,"pop":95000,"tz":"Europe/Moscow"},{"id":13561143,"name":"Voroshylovskyi","local":"Ворошиловський","country":"UA","lat":48.0,"lon":37.8,"pop":94228,"tz":"Europe/Kyiv"},{"id":3832694,"name":"Villa Maria","local":"Villa María","country":"AR","lat":-32.408,"lon":-63.24,"pop":92453,"tz":"America/Argentina/Cordoba"},{"id":11962410,"name":"Vila Formosa","local":"Vila Formosa","country":"BR","lat":-23.568,"lon":-46.546,"pop":92186,"tz":"America/Sao_Paulo"},{"id":1253472,"name":"Valparai","local":"Valparai","country":"IN","lat":10.327,"lon":76.951,"pop":90353,"tz":"Asia/Kolkata"},{"id":1733331,"name":"Val Dor","local":"Val Dor","country":"MY","lat":5.252,"lon":100.49,"pop":88600,"tz":"Asia/Kuala_Lumpur"},{"id":2817724,"name":"Velbert","local":"Фельберт","country":"DE","lat":51.335,"lon":7.043,"pop":87669,"tz":"Europe/Berlin"},{"id":11520178,"name":"Velampalaiyam","local":"Velampālaiyam","country":"IN","lat":11.138,"lon":77.311,"pop":87427,"tz":"Asia/Kolkata"},{"id":2280045,"name":"Vavoua","local":"Вавуа","country":"CI","lat":7.382,"lon":-6.478,"pop":86977,"tz":"Africa/Abidjan"},{"id":1562570,"name":"Vinh Tuy","local":"Vĩnh Tuy","country":"VN","lat":21.0,"lon":105.883,"pop":86618,"tz":"Asia/Bangkok"},{"id":1680007,"name":"Victorias","local":"Victorias","country":"PH","lat":10.902,"lon":123.07,"pop":86510,"tz":"Asia/Manila"},{"id":3901742,"name":"Viacha","local":"Вијача","country":"BO","lat":-16.65,"lon":-68.3,"pop":86218,"tz":"America/La_Paz"},{"id":251833,"name":"Volos","local":"Волос","country":"GR","lat":39.369,"lon":22.948,"pop":86048,"tz":"Europe/Athens"},{"id":3445597,"name":"Valenca","local":"Valença","country":"BR","lat":-13.37,"lon":-39.073,"pop":85655,"tz":"America/Bahia"},{"id":2969679,"name":"Versailles","local":"Версаль","country":"FR","lat":48.804,"lon":2.134,"pop":85416,"tz":"Europe/Paris"},{"id":148942,"name":"Vwawa","local":"Vwawa","country":"TZ","lat":-9.108,"lon":32.935,"pop":85000,"tz":"Africa/Dar_es_Salaam"},{"id":11522311,"name":"Virappanchathiram","local":"Vīrappanchathiram","country":"IN","lat":11.353,"lon":77.713,"pop":84453,"tz":"Asia/Kolkata"},{"id":13580098,"name":"Voskresenka","local":"Воскресенка","country":"UA","lat":50.485,"lon":30.603,"pop":84200,"tz":"Europe/Kyiv"},{"id":2817220,"name":"Villingen-Schwenningen","local":"Виллинген-Швеннинген","country":"DE","lat":48.062,"lon":8.494,"pop":81770,"tz":"Europe/Berlin"},{"id":13157141,"name":"Vijalpor","local":"Vijalpor","country":"IN","lat":20.922,"lon":72.909,"pop":81245,"tz":"Asia/Kolkata"},{"id":2967849,"name":"Vitry-sur-Seine","local":"Витри-сюр-Сен","country":"FR","lat":48.787,"lon":2.403,"pop":81001,"tz":"Europe/Paris"},{"id":3164699,"name":"Varese","local":"Варезе","country":"IT","lat":45.821,"lon":8.825,"pop":80588,"tz":"Europe/Rome"},{"id":3445014,"name":"Vinhedo","local":"Vinhedo","country":"BR","lat":-23.03,"lon":-46.975,"pop":80111,"tz":"America/Sao_Paulo"},{"id":1486910,"name":"Vorkuta","local":"Воркута","country":"RU","lat":67.509,"lon":64.067,"pop":80039,"tz":"Europe/Moscow"},{"id":470546,"name":"Vyborg","local":"Выборг","country":"RU","lat":60.708,"lon":28.753,"pop":78633,"tz":"Europe/Moscow"},{"id":1225142,"name":"Valvedditturai","local":"Валведитураи","country":"LK","lat":9.817,"lon":80.167,"pop":78205,"tz":"Asia/Colombo"},{"id":616530,"name":"Vanadzor","local":"Ванадзор","country":"AM","lat":40.807,"lon":44.497,"pop":78100,"tz":"Asia/Yerevan"},{"id":471656,"name":"Voskresensk","local":"Воскресенск","country":"RU","lat":55.313,"lon":38.691,"pop":77086,"tz":"Europe/Moscow"},{"id":1253095,"name":"Visnagar","local":"Visnagar","country":"IN","lat":23.699,"lon":72.552,"pop":76753,"tz":"Asia/Kolkata"},{"id":3445133,"name":"Vicosa","local":"Висоза","country":"BR","lat":-20.754,"lon":-42.882,"pop":76430,"tz":"America/Sao_Paulo"},{"id":2817311,"name":"Viersen","local":"Фирзен","country":"DE","lat":51.254,"lon":6.394,"pop":76153,"tz":"Europe/Berlin"},{"id":1679802,"name":"Virac","local":"Вирак","country":"PH","lat":13.585,"lon":124.237,"pop":75135,"tz":"Asia/Manila"},{"id":3106868,"name":"Valdemoro","local":"Вальдеморо","country":"ES","lat":40.191,"lon":-3.679,"pop":74745,"tz":"Europe/Madrid"},{"id":3534597,"name":"Vedado del Cotorro","local":"Vedado del Cotorro","country":"CU","lat":23.05,"lon":-82.25,"pop":74650,"tz":"America/Havana"},{"id":2509769,"name":"Velez-Malaga","local":"Велес-Малага","country":"ES","lat":36.781,"lon":-4.103,"pop":74190,"tz":"Europe/Madrid"},{"id":2745467,"name":"Vlaardingen","local":"Vlaardingen","country":"NL","lat":51.913,"lon":4.342,"pop":73798,"tz":"Europe/Amsterdam"},{"id":8223970,"name":"Virudhachalam","local":"Virudhachalam","country":"IN","lat":11.515,"lon":79.328,"pop":73585,"tz":"Asia/Kolkata"},{"id":3445153,"name":"Viana","local":"Виана","country":"BR","lat":-20.39,"lon":-40.496,"pop":73423,"tz":"America/Sao_Paulo"},{"id":1253113,"name":"Virudunagar","local":"Virudunagar","country":"IN","lat":9.585,"lon":77.958,"pop":73273,"tz":"Asia/Kolkata"},{"id":3833062,"name":"Venado Tuerto","local":"Неукен","country":"AR","lat":-33.746,"lon":-61.967,"pop":72340,"tz":"America/Argentina/Cordoba"},{"id":3445596,"name":"Valenca","local":"Валенса","country":"BR","lat":-22.246,"lon":-43.7,"pop":71462,"tz":"America/Sao_Paulo"},{"id":2663536,"name":"Vaexjoe","local":"Векшё","country":"SE","lat":56.878,"lon":14.809,"pop":71282,"tz":"Europe/Stockholm"},{"id":2732544,"name":"Vila Nova de Gaia","local":"Вила-Нова-де-Гайя","country":"PT","lat":41.124,"lon":-8.612,"pop":70811,"tz":"Europe/Lisbon"},{"id":472278,"name":"Vol'sk","local":"Вольск","country":"RU","lat":52.042,"lon":47.383,"pop":70500,"tz":"Europe/Saratov"},{"id":148987,"name":"Vikindu","local":"Vikindu","country":"TZ","lat":-7.007,"lon":39.298,"pop":70000,"tz":"Africa/Dar_es_Salaam"},{"id":3444864,"name":"Votuporanga","local":"Votuporanga","country":"BR","lat":-20.423,"lon":-49.973,"pop":69863,"tz":"America/Sao_Paulo"},{"id":632978,"name":"Vaasa","local":"Вааса","country":"FI","lat":63.096,"lon":21.616,"pop":69819,"tz":"Europe/Helsinki"},{"id":3832791,"name":"Villa Carlos Paz","local":"Карлос-Паз","country":"AR","lat":-31.418,"lon":-64.49,"pop":69451,"tz":"America/Argentina/Cordoba"},{"id":6173767,"name":"Verdun","local":"Верден","country":"CA","lat":45.46,"lon":-73.571,"pop":69229,"tz":"America/Toronto"},{"id":11550025,"name":"Valdefuentes","local":"Valdefuentes","country":"ES","lat":40.494,"lon":-3.636,"pop":69176,"tz":"Europe/Madrid"},{"id":3445350,"name":"Venancio Aires","local":"Venâncio Aires","country":"BR","lat":-29.606,"lon":-52.192,"pop":68763,"tz":"America/Sao_Paulo"},{"id":3980605,"name":"Valle de Santiago","local":"Валье-де-Сантьяго","country":"MX","lat":20.391,"lon":-101.192,"pop":68058,"tz":"America/Mexico_City"},{"id":2745673,"name":"Velsen-Zuid","local":"Velsen-Zuid","country":"NL","lat":52.46,"lon":4.65,"pop":67758,"tz":"Europe/Amsterdam"},{"id":4739157,"name":"Victoria","local":"Виктория","country":"US","lat":28.805,"lon":-97.004,"pop":67574,"tz":"America/Chicago"},{"id":3106054,"name":"Vicalvaro","local":"Викальваро","country":"ES","lat":40.4,"lon":-3.6,"pop":66439,"tz":"Europe/Madrid"},{"id":3105935,"name":"Viladecans","local":"Виладеканс","country":"ES","lat":41.314,"lon":2.014,"pop":66168,"tz":"Europe/Madrid"},{"id":3105184,"name":"Vilanova i la Geltru","local":"Vilanova i la Geltrú","country":"ES","lat":41.224,"lon":1.725,"pop":65890,"tz":"Europe/Madrid"},{"id":8285535,"name":"Villa de Vallecas","local":"Villa de Vallecas","country":"ES","lat":40.367,"lon":-3.601,"pop":65162,"tz":"Europe/Madrid"},{"id":1679845,"name":"Villasis","local":"Villasis","country":"PH","lat":15.902,"lon":120.588,"pop":65086,"tz":"Asia/Manila"},{"id":13580103,"name":"Vynohradar","local":"Виноградар","country":"UA","lat":50.514,"lon":30.425,"pop":65000,"tz":"Europe/Kyiv"},{"id":3665913,"name":"Villa del Rosario","local":"Вилья-дель-Росарио","country":"CO","lat":7.834,"lon":-72.474,"pop":64951,"tz":"America/Bogota"},{"id":11549984,"name":"Valverde","local":"Valverde","country":"ES","lat":40.5,"lon":-3.679,"pop":64757,"tz":"Europe/Madrid"},{"id":1466021,"name":"Viraraghavapuram","local":"Vīrarāghavapuram","country":"IN","lat":13.073,"lon":80.108,"pop":64698,"tz":"Asia/Kolkata"},{"id":3445630,"name":"Vacaria","local":"Вакария","country":"BR","lat":-28.512,"lon":-50.934,"pop":64197,"tz":"America/Sao_Paulo"},{"id":3436728,"name":"Villa Elisa","local":"Villa Elisa","country":"PY","lat":-25.368,"lon":-57.593,"pop":64099,"tz":"America/Asuncion"},{"id":2971053,"name":"Valence","local":"Valence","country":"FR","lat":44.926,"lon":4.91,"pop":63864,"tz":"Europe/Paris"},{"id":663118,"name":"Vaslui","local":"Васлуй","country":"RO","lat":46.633,"lon":27.733,"pop":63035,"tz":"Europe/Bucharest"},{"id":1253150,"name":"Vinukonda","local":"Vinukonda","country":"IN","lat":16.053,"lon":79.74,"pop":62550,"tz":"Asia/Kolkata"},{"id":6543862,"name":"Villeneuve-d'Ascq","local":"Вильнёв-д’Аск","country":"FR","lat":50.617,"lon":3.167,"pop":62400,"tz":"Europe/Paris"},{"id":3164433,"name":"Viareggio","local":"Виареджио","country":"IT","lat":43.867,"lon":10.25,"pop":62169,"tz":"Europe/Rome"},{"id":470444,"name":"Vyksa","local":"Выкса","country":"RU","lat":55.321,"lon":42.174,"pop":61664,"tz":"Europe/Moscow"},{"id":1253080,"name":"Vriddhachalam","local":"Vriddhāchalam","country":"IN","lat":11.518,"lon":79.324,"pop":61498,"tz":"Asia/Kolkata"},{"id":251948,"name":"Vyronas","local":"Výronas","country":"GR","lat":37.961,"lon":23.753,"pop":61308,"tz":"Europe/Athens"},{"id":2745774,"name":"Veenendaal","local":"Veenendaal","country":"NL","lat":52.029,"lon":5.559,"pop":61271,"tz":"Europe/Amsterdam"},{"id":3188402,"name":"Valjevo","local":"Валево","country":"RS","lat":44.275,"lon":19.898,"pop":61035,"tz":"Europe/Belgrade"},{"id":3937547,"name":"Villa Poeta Jose Galvez Barrenechea","local":"Villa Poeta José Gálvez Barrenechea","country":"PE","lat":-12.213,"lon":-76.905,"pop":61000,"tz":"America/Lima"},{"id":4504621,"name":"Vineland","local":"Вайнланд","country":"US","lat":39.486,"lon":-75.026,"pop":60818,"tz":"America/New_York"},{"id":2610613,"name":"Vejle","local":"Вайле","country":"DK","lat":55.709,"lon":9.536,"pop":60231,"tz":"Europe/Copenhagen"},{"id":1253079,"name":"Vrindavan","local":"Вриндаван","country":"IN","lat":27.581,"lon":77.697,"pop":60195,"tz":"Asia/Kolkata"},{"id":1225018,"name":"Vavuniya","local":"Вавуния","country":"LK","lat":8.751,"lon":80.497,"pop":60176,"tz":"Asia/Colombo"},{"id":3815453,"name":"Villa Vicente Guerrero","local":"Villa Vicente Guerrero","country":"MX","lat":19.121,"lon":-98.166,"pop":60001,"tz":"America/Mexico_City"},{"id":11838960,"name":"Valley Glen","local":"Valley Glen","country":"US","lat":34.186,"lon":-118.42,"pop":60000,"tz":"America/Los_Angeles"},{"id":13494190,"name":"Vinhomes Ocean Park","local":"Vinhomes Ocean Park","country":"VN","lat":20.995,"lon":105.947,"pop":60000,"tz":"Asia/Bangkok"},{"id":3385106,"name":"Vicosa do Ceara","local":"Viçosa do Ceará","country":"BR","lat":-3.562,"lon":-41.092,"pop":59712,"tz":"America/Fortaleza"},{"id":725993,"name":"Veliko Turnovo","local":"Велико Търново","country":"BG","lat":43.081,"lon":25.629,"pop":59166,"tz":"Europe/Sofia"},{"id":1487281,"name":"Verkhnyaya Pyshma","local":"Верхняя Пышма","country":"RU","lat":56.97,"lon":60.582,"pop":59061,"tz":"Asia/Yekaterinburg"},{"id":2762372,"name":"Villach","local":"Филлах","country":"AT","lat":46.61,"lon":13.856,"pop":58882,"tz":"Europe/Vienna"},{"id":3901435,"name":"Vinto","local":"Винто","country":"BO","lat":-17.391,"lon":-66.317,"pop":58739,"tz":"America/La_Paz"},{"id":3385022,"name":"Viseu","local":"Viseu","country":"BR","lat":-1.197,"lon":-46.14,"pop":58692,"tz":"America/Belem"},{"id":2664740,"name":"Vasastaden","local":"Vasastaden","country":"SE","lat":59.35,"lon":18.033,"pop":58458,"tz":"Europe/Stockholm"},{"id":472234,"name":"Volzhsk","local":"Волжск","country":"RU","lat":55.867,"lon":48.359,"pop":58000,"tz":"Europe/Moscow"},{"id":3164376,"name":"Vigevano","local":"Виджевано","country":"IT","lat":45.314,"lon":8.854,"pop":57970,"tz":"Europe/Rome"},{"id":785058,"name":"Veles","local":"Велес","country":"MK","lat":41.717,"lon":21.772,"pop":57873,"tz":"Europe/Skopje"},{"id":2970072,"name":"Venissieux","local":"Венисье","country":"FR","lat":45.697,"lon":4.886,"pop":57584,"tz":"Europe/Paris"},{"id":3436725,"name":"Villa Hayes","local":"Villa Hayes","country":"PY","lat":-25.093,"lon":-57.527,"pop":57217,"tz":"America/Asuncion"},{"id":3042929,"name":"Veszprem","local":"Веспрем","country":"HU","lat":47.093,"lon":17.911,"pop":56927,"tz":"Europe/Budapest"},{"id":784227,"name":"Vranje","local":"Вране","country":"RS","lat":42.551,"lon":21.9,"pop":56199,"tz":"Europe/Belgrade"},{"id":942511,"name":"Vryburg","local":"Фрейбурга","country":"ZA","lat":-26.957,"lon":24.728,"pop":55879,"tz":"Africa/Johannesburg"},{"id":1253143,"name":"Viramgam","local":"Viramgām","country":"IN","lat":23.126,"lon":72.05,"pop":55821,"tz":"Asia/Kolkata"},{"id":4228147,"name":"Valdosta","local":"Валдоста","country":"US","lat":30.833,"lon":-83.28,"pop":55724,"tz":"America/New_York"},{"id":470676,"name":"Vyaz'ma","local":"Вязьма","country":"RU","lat":55.21,"lon":34.297,"pop":55500,"tz":"Europe/Moscow"},{"id":3445126,"name":"Videira","local":"Видейра","country":"BR","lat":-27.008,"lon":-51.152,"pop":55466,"tz":"America/Sao_Paulo"},{"id":3625346,"name":"Villa Bruzual","local":"Villa Bruzual","country":"VE","lat":9.332,"lon":-69.12,"pop":55244,"tz":"America/Caracas"},{"id":943960,"name":"Viljoenskroon","local":"Viljoenskroon","country":"ZA","lat":-27.208,"lon":26.949,"pop":54955,"tz":"Africa/Johannesburg"},{"id":2970777,"name":"Vannes","local":"Ван","country":"FR","lat":47.657,"lon":-2.762,"pop":54020,"tz":"Europe/Paris"},{"id":470252,"name":"Vyshniy Volochek","local":"Вышний Волочёк","country":"RU","lat":57.589,"lon":34.569,"pop":53800,"tz":"Europe/Moscow"},{"id":178522,"name":"Voi","local":"Вои","country":"KE","lat":-3.396,"lon":38.556,"pop":53353,"tz":"Africa/Nairobi"},{"id":3106601,"name":"Vallecas","local":"Vallecas","country":"ES","lat":40.383,"lon":-3.617,"pop":53208,"tz":"Europe/Madrid"},{"id":1253182,"name":"Vikarabad","local":"Vikārābād","country":"IN","lat":17.338,"lon":77.904,"pop":53143,"tz":"Asia/Kolkata"},{"id":3164630,"name":"Velletri","local":"Velletri","country":"IT","lat":41.686,"lon":12.778,"pop":52911,"tz":"Europe/Rome"},{"id":2784821,"name":"Verviers","local":"Вервье","country":"BE","lat":50.589,"lon":5.862,"pop":52824,"tz":"Europe/Brussels"},{"id":1253251,"name":"Venkatagiri","local":"Venkatagiri","country":"IN","lat":13.96,"lon":79.58,"pop":52688,"tz":"Asia/Kolkata"},{"id":11962411,"name":"Vila Guilherme","local":"Vila Guilherme","country":"BR","lat":-23.509,"lon":-46.606,"pop":52587,"tz":"America/Sao_Paulo"},{"id":1680019,"name":"Victoria","local":"Victoria","country":"PH","lat":13.177,"lon":121.278,"pop":52215,"tz":"Asia/Manila"},{"id":473778,"name":"Vidnoye","local":"Видное","country":"RU","lat":55.552,"lon":37.709,"pop":51721,"tz":"Europe/Moscow"},{"id":3385122,"name":"Viana","local":"Виана","country":"BR","lat":-3.22,"lon":-45.004,"pop":51442,"tz":"America/Fortaleza"},{"id":3164603,"name":"Venice","local":"Венеция","country":"IT","lat":45.437,"lon":12.333,"pop":51298,"tz":"Europe/Rome"},{"id":13353582,"name":"Vazhakkala","local":"Vazhakkala","country":"IN","lat":10.012,"lon":76.326,"pop":51242,"tz":"Asia/Kolkata"},{"id":2522713,"name":"Vittoria","local":"Vittoria","country":"IT","lat":36.952,"lon":14.528,"pop":50852,"tz":"Europe/Rome"},{"id":3385088,"name":"Vigia","local":"Vigia","country":"BR","lat":-0.858,"lon":-48.142,"pop":50832,"tz":"America/Belem"},{"id":2509509,"name":"Vila-real","local":"Вильярреаль","country":"ES","lat":39.938,"lon":-0.101,"pop":50577,"tz":"Europe/Madrid"},{"id":6318864,"name":"Vargem Grande Paulista","local":"Vargem Grande Paulista","country":"BR","lat":-23.603,"lon":-47.026,"pop":50415,"tz":"America/Sao_Paulo"},{"id":11520375,"name":"Virapandi","local":"Vīrapāndi","country":"IN","lat":11.062,"lon":77.351,"pop":50301,"tz":"Asia/Kolkata"},{"id":11550013,"name":"Ventas","local":"Ventas","country":"ES","lat":40.422,"lon":-3.647,"pop":50218,"tz":"Europe/Madrid"},{"id":3491941,"name":"Villa Francisca","local":"Villa Francisca","country":"DO","lat":18.483,"lon":-69.889,"pop":50185,"tz":"America/Santo_Domingo"},{"id":476368,"name":"Vatutino","local":"Ватутино","country":"RU","lat":55.884,"lon":37.691,"pop":50000,"tz":"Europe/Moscow"},{"id":477377,"name":"Vagonoremont","local":"Вагоноремонт","country":"RU","lat":55.9,"lon":37.55,"pop":50000,"tz":"Europe/Moscow"},{"id":13494193,"name":"Vinhomes Smart City","local":"Vinhomes Smart City","country":"VN","lat":21.005,"lon":105.74,"pop":50000,"tz":"Asia/Ho_Chi_Minh"},{"id":13494194,"name":"Vinhomes Times City","local":"Vinhomes Times City","country":"VN","lat":20.994,"lon":105.868,"pop":50000,"tz":"Asia/Bangkok"},{"id":725712,"name":"Vratsa","local":"Враца","country":"BG","lat":43.211,"lon":23.563,"pop":49569,"tz":"Europe/Sofia"},{"id":3868158,"name":"Villarrica","local":"Вильяррика","country":"CL","lat":-39.286,"lon":-72.228,"pop":49184,"tz":"America/Santiago"},{"id":1487277,"name":"Verkhnyaya Salda","local":"Верхняя Салда","country":"RU","lat":58.045,"lon":60.551,"pop":48992,"tz":"Asia/Yekaterinburg"},{"id":3514876,"name":"Valladolid","local":"Вальядолид","country":"MX","lat":20.688,"lon":-88.199,"pop":48973,"tz":"America/Merida"},{"id":3832899,"name":"Viedma","local":"Вьедма","country":"AR","lat":-40.815,"lon":-63.0,"pop":48940,"tz":"America/Argentina/Salta"},{"id":3514868,"name":"Valle Hermoso","local":"Valle Hermoso","country":"MX","lat":25.673,"lon":-97.813,"pop":48918,"tz":"America/Monterrey"},{"id":3716044,"name":"Verrettes","local":"Verrettes","country":"HT","lat":19.05,"lon":-72.466,"pop":48724,"tz":"America/Port-au-Prince"},{"id":13353581,"name":"Vengara","local":"Vengara","country":"IN","lat":11.051,"lon":75.978,"pop":48600,"tz":"Asia/Kolkata"},{"id":1679980,"name":"Vigan","local":"Виган","country":"PH","lat":17.575,"lon":120.387,"pop":48545,"tz":"Asia/Manila"},{"id":1253091,"name":"Vite","local":"Вита","country":"IN","lat":17.273,"lon":74.538,"pop":48289,"tz":"Asia/Kolkata"},{"id":471101,"name":"Vsevolozhsk","local":"Всеволожск","country":"RU","lat":60.015,"lon":30.673,"pop":48224,"tz":"Europe/Moscow"},{"id":2968705,"name":"Villejuif","local":"Вильжюиф","country":"FR","lat":48.794,"lon":2.36,"pop":48048,"tz":"Europe/Paris"},{"id":13157324,"name":"Vermont Square","local":"Vermont Square","country":"US","lat":34.002,"lon":-118.299,"pop":47555,"tz":"America/Los_Angeles"},{"id":11549977,"name":"Vista Alegre","local":"Vista Alegre","country":"ES","lat":40.384,"lon":-3.746,"pop":47427,"tz":"Europe/Madrid"},{"id":9972726,"name":"Valasaravakkam","local":"Valasaravakkam","country":"IN","lat":13.044,"lon":80.173,"pop":47378,"tz":"Asia/Kolkata"},{"id":620391,"name":"Volkovysk","local":"Волковыск","country":"BY","lat":53.156,"lon":24.451,"pop":47300,"tz":"Europe/Minsk"},{"id":1253180,"name":"Vikramasingapuram","local":"Vikramasingapuram","country":"IN","lat":8.715,"lon":77.39,"pop":47241,"tz":"Asia/Kolkata"},{"id":11487540,"name":"Vattiyurkavu","local":"Vattiyūrkāvu","country":"IN","lat":8.525,"lon":76.989,"pop":47187,"tz":"Asia/Kolkata"},{"id":3164039,"name":"Viterbo","local":"Витербо","country":"IT","lat":42.419,"lon":12.106,"pop":47134,"tz":"Europe/Rome"},{"id":784372,"name":"Vitina","local":"Витина","country":"XK","lat":42.321,"lon":21.358,"pop":46959,"tz":"Europe/Belgrade"},{"id":11962422,"name":"Vila Leopoldina","local":"Vila Leopoldina","country":"BR","lat":-23.529,"lon":-46.734,"pop":46875,"tz":"America/Sao_Paulo"},{"id":13512358,"name":"Victoria-Downtown","local":"Victoria-Downtown","country":"CA","lat":48.428,"lon":-123.361,"pop":46309,"tz":"America/Vancouver"},{"id":2610802,"name":"Valby","local":"Вальбю","country":"DK","lat":55.666,"lon":12.514,"pop":46161,"tz":"Europe/Copenhagen"},{"id":3359741,"name":"Vredenburg","local":"Vredenburg","country":"ZA","lat":-32.907,"lon":17.99,"pop":45986,"tz":"Africa/Johannesburg"},{"id":2968054,"name":"Vincennes","local":"Венсен","country":"FR","lat":48.849,"lon":2.438,"pop":45923,"tz":"Europe/Paris"},{"id":3164565,"name":"Vercelli","local":"Верчелли","country":"IT","lat":45.322,"lon":8.42,"pop":45875,"tz":"Europe/Rome"},{"id":616062,"name":"Vagharshapat","local":"Вагаршапат","country":"AM","lat":40.166,"lon":44.295,"pop":45842,"tz":"Asia/Yerevan"},{"id":1220855,"name":"Vahdat","local":"Вахдат","country":"TJ","lat":38.556,"lon":69.014,"pop":45693,"tz":"Asia/Dushanbe"},{"id":472722,"name":"Volkhov","local":"Волхов","country":"RU","lat":59.923,"lon":32.34,"pop":45673,"tz":"Europe/Moscow"},{"id":2244177,"name":"Velingara","local":"Vélingara","country":"SN","lat":13.15,"lon":-14.117,"pop":45431,"tz":"Africa/Dakar"},{"id":2745392,"name":"Vlissingen","local":"Влиссинген","country":"NL","lat":51.443,"lon":3.574,"pop":45273,"tz":"Europe/Amsterdam"},{"id":1679811,"name":"Vinzons","local":"Vinzons","country":"PH","lat":14.174,"lon":122.907,"pop":45173,"tz":"Asia/Manila"},{"id":3868633,"name":"Vallenar","local":"Vallenar","country":"CL","lat":-28.576,"lon":-70.759,"pop":44895,"tz":"America/Santiago"},{"id":2971041,"name":"Valenciennes","local":"Валансьен","country":"FR","lat":50.359,"lon":3.525,"pop":44821,"tz":"Europe/Paris"},{"id":3163948,"name":"Vomero","local":"Vomero","country":"IT","lat":40.843,"lon":14.231,"pop":44791,"tz":"Europe/Rome"},{"id":1253098,"name":"Visharam","local":"Vishāram","country":"IN","lat":12.918,"lon":79.278,"pop":44786,"tz":"Asia/Kolkata"},{"id":733905,"name":"Veroia","local":"Верия","country":"GR","lat":40.524,"lon":22.202,"pop":44464,"tz":"Europe/Athens"},{"id":3832778,"name":"Villa Constitucion","local":"Villa Constitución","country":"AR","lat":-33.228,"lon":-60.33,"pop":44271,"tz":"America/Argentina/Cordoba"},{"id":1253403,"name":"Varangaon","local":"Varangaon","country":"IN","lat":21.018,"lon":75.91,"pop":44067,"tz":"Asia/Kolkata"},{"id":3832811,"name":"Villa Angela","local":"Villa Ángela","country":"AR","lat":-27.577,"lon":-60.711,"pop":43511,"tz":"America/Argentina/Cordoba"},{"id":3427453,"name":"Villa de Mayo","local":"Villa de Mayo","country":"AR","lat":-34.511,"lon":-58.681,"pop":43405,"tz":"America/Argentina/Buenos_Aires"},{"id":943032,"name":"Volksrust","local":"Volksrust","country":"ZA","lat":-27.365,"lon":29.882,"pop":43378,"tz":"Africa/Johannesburg"},{"id":1253392,"name":"Varkala","local":"Варкала","country":"IN","lat":8.733,"lon":76.717,"pop":43276,"tz":"Asia/Kolkata"},{"id":3385538,"name":"Vargem Grande","local":"Vargem Grande","country":"BR","lat":-3.543,"lon":-43.916,"pop":43261,"tz":"America/Fortaleza"},{"id":1024683,"name":"Vilankulo","local":"Виланкуло","country":"MZ","lat":-22.0,"lon":35.317,"pop":43183,"tz":"Africa/Maputo"},{"id":689487,"name":"Vyshneve","local":"Вишневе","country":"UA","lat":50.389,"lon":30.37,"pop":42983,"tz":"Europe/Kyiv"},{"id":3345517,"name":"Virei","local":"Virei","country":"AO","lat":-15.727,"lon":12.95,"pop":42607,"tz":"Africa/Luanda"},{"id":3465813,"name":"Vera Cruz","local":"Vera Cruz","country":"BR","lat":-12.96,"lon":-38.609,"pop":42529,"tz":"America/Bahia"},{"id":8341919,"name":"Varash","local":"Вараш","country":"UA","lat":51.34,"lon":25.855,"pop":42000,"tz":"Europe/Kyiv"},{"id":3164672,"name":"Vasto","local":"Васто","country":"IT","lat":42.111,"lon":14.706,"pop":41409,"tz":"Europe/Rome"},{"id":1253545,"name":"Vaijapur","local":"Vaijāpur","country":"IN","lat":19.927,"lon":74.728,"pop":41296,"tz":"Asia/Kolkata"},{"id":2610319,"name":"Viborg","local":"Виборг","country":"DK","lat":56.453,"lon":9.402,"pop":41239,"tz":"Europe/Copenhagen"},{"id":3436714,"name":"Villarrica","local":"Вильяррика","country":"PY","lat":-25.749,"lon":-56.435,"pop":41157,"tz":"America/Asuncion"},{"id":2816630,"name":"Voelklingen","local":"Фёльклинген","country":"DE","lat":49.252,"lon":6.859,"pop":41132,"tz":"Europe/Berlin"},{"id":6173004,"name":"Val-des-Arbres","local":"Val-des-Arbres","country":"CA","lat":45.598,"lon":-73.675,"pop":40974,"tz":"America/Toronto"},{"id":5405841,"name":"Venice","local":"Венис","country":"US","lat":33.991,"lon":-118.46,"pop":40885,"tz":"America/Los_Angeles"},{"id":10214681,"name":"Vadgaon","local":"Vadgaon","country":"IN","lat":20.376,"lon":78.113,"pop":40884,"tz":"Asia/Kolkata"},{"id":1054329,"name":"Vangaindrano","local":"Vangaindrano","country":"MG","lat":-23.35,"lon":47.6,"pop":40813,"tz":"Indian/Antananarivo"},{"id":1253296,"name":"Vellakkovil","local":"Vellakkovil","country":"IN","lat":10.946,"lon":77.712,"pop":40359,"tz":"Asia/Kolkata"},{"id":3445500,"name":"Vargem Grande do Sul","local":"Варжен-Гранди-ду-Сул","country":"BR","lat":-21.832,"lon":-46.894,"pop":40133,"tz":"America/Sao_Paulo"},{"id":6173864,"name":"Vernon","local":"Вернон","country":"CA","lat":50.267,"lon":-119.273,"pop":40116,"tz":"America/Vancouver"},{"id":3491952,"name":"Villa Altagracia","local":"Вилья-Альтаграсия","country":"DO","lat":18.673,"lon":-70.171,"pop":40027,"tz":"America/Santo_Domingo"},{"id":11185892,"name":"Vadavalli","local":"Vadavalli","country":"IN","lat":11.025,"lon":76.897,"pop":39873,"tz":"Asia/Kolkata"},{"id":3106050,"name":"Vic","local":"Vic","country":"ES","lat":41.93,"lon":2.255,"pop":39844,"tz":"Europe/Madrid"},{"id":3901547,"name":"Villamontes","local":"Вилья-Монтес","country":"BO","lat":-21.262,"lon":-63.469,"pop":39800,"tz":"America/La_Paz"},{"id":1253074,"name":"Vyara","local":"Vyāra","country":"IN","lat":21.111,"lon":73.394,"pop":39789,"tz":"Asia/Kolkata"},{"id":470734,"name":"Vyatskiye Polyany","local":"Вятские Поляны","country":"RU","lat":56.229,"lon":51.061,"pop":39534,"tz":"Europe/Kirov"},{"id":1253591,"name":"Vadasinor","local":"Vādāsinor","country":"IN","lat":22.957,"lon":73.335,"pop":39330,"tz":"Asia/Kolkata"},{"id":470666,"name":"Vyazniki","local":"Вязники","country":"RU","lat":56.242,"lon":42.149,"pop":39243,"tz":"Europe/Moscow"},{"id":3444969,"name":"Visconde do Rio Branco","local":"Visconde do Rio Branco","country":"BR","lat":-21.01,"lon":-42.841,"pop":39160,"tz":"America/Sao_Paulo"},{"id":473788,"name":"Vichuga","local":"Вичуга","country":"RU","lat":57.215,"lon":41.926,"pop":39071,"tz":"Europe/Moscow"},{"id":2745634,"name":"Venray","local":"Venray","country":"NL","lat":51.525,"lon":5.975,"pop":39047,"tz":"Europe/Amsterdam"},{"id":3385469,"name":"Varzea Alegre","local":"Várzea Alegre","country":"BR","lat":-6.789,"lon":-39.296,"pop":38984,"tz":"America/Fortaleza"},{"id":631077,"name":"Vuosaari","local":"Vuosaari","country":"FI","lat":60.21,"lon":25.142,"pop":38961,"tz":"Europe/Helsinki"},{"id":1253220,"name":"Vetapalem","local":"Vetapālem","country":"IN","lat":15.785,"lon":80.307,"pop":38671,"tz":"Asia/Kolkata"},{"id":2967870,"name":"Vitrolles","local":"Витроль","country":"FR","lat":43.46,"lon":5.249,"pop":38591,"tz":"Europe/Paris"},{"id":3163995,"name":"Voghera","local":"Вогера","country":"IT","lat":44.992,"lon":9.012,"pop":38464,"tz":"Europe/Rome"},{"id":3105600,"name":"Vilafranca del Penedes","local":"Вильяфранка-дель-Пенедес","country":"ES","lat":41.346,"lon":1.697,"pop":38425,"tz":"Europe/Madrid"},{"id":3650267,"name":"Ventanas","local":"Ventanas","country":"EC","lat":-1.443,"lon":-79.463,"pop":38168,"tz":"America/Guayaquil"},{"id":2745321,"name":"Voorburg","local":"Воорбург","country":"NL","lat":52.074,"lon":4.36,"pop":38000,"tz":"Europe/Amsterdam"},{"id":5142109,"name":"Valley Stream","local":"Вали Стрийм","country":"US","lat":40.664,"lon":-73.708,"pop":37962,"tz":"America/New_York"},{"id":689378,"name":"Volodymyr-Volynskyi","local":"Владимир","country":"UA","lat":50.853,"lon":24.324,"pop":37910,"tz":"Europe/Kyiv"},{"id":1054192,"name":"Vavatenina","local":"Ваватенина","country":"MG","lat":-17.467,"lon":49.2,"pop":37861,"tz":"Indian/Antananarivo"},{"id":738228,"name":"Vakfikebir","local":"Vakfıkebir","country":"TR","lat":41.046,"lon":39.276,"pop":37728,"tz":"Europe/Istanbul"},{"id":3105575,"name":"Vilagarcia de Arousa","local":"Вилагарсија де Ароуза","country":"ES","lat":42.596,"lon":-8.764,"pop":37576,"tz":"Europe/Madrid"},{"id":2970456,"name":"Vaulx-en-Velin","local":"Во-ан-Велен","country":"FR","lat":45.787,"lon":4.925,"pop":37489,"tz":"Europe/Paris"},{"id":3514677,"name":"Villaflores","local":"Villaflores","country":"MX","lat":16.234,"lon":-93.27,"pop":37237,"tz":"America/Mexico_City"},{"id":1253216,"name":"Vettur","local":"Vettūr","country":"IN","lat":8.717,"lon":76.726,"pop":37219,"tz":"Asia/Kolkata"},{"id":2610734,"name":"Vanlose","local":"Vanløse","country":"DK","lat":55.684,"lon":12.487,"pop":37115,"tz":"Europe/Copenhagen"},{"id":2968482,"name":"Villepinte","local":"Villepinte","country":"FR","lat":48.962,"lon":2.533,"pop":37114,"tz":"Europe/Paris"},{"id":690412,"name":"Vasylkiv","local":"Васильков","country":"UA","lat":50.187,"lon":30.313,"pop":37068,"tz":"Europe/Kyiv"},{"id":2784604,"name":"Vilvoorde","local":"Вилворде","country":"BE","lat":50.928,"lon":4.429,"pop":36955,"tz":"Europe/Brussels"},{"id":13353562,"name":"Vazhayur","local":"Vazhayur","country":"IN","lat":11.217,"lon":75.9,"pop":36909,"tz":"Asia/Kolkata"},{"id":3062394,"name":"Vrsovice","local":"Vršovice","country":"CZ","lat":50.067,"lon":14.46,"pop":36836,"tz":"Europe/Prague"},{"id":1253077,"name":"Vuyyuru","local":"Vuyyūru","country":"IN","lat":16.363,"lon":80.844,"pop":36755,"tz":"Asia/Kolkata"},{"id":784136,"name":"Vrsac","local":"Вршац","country":"RS","lat":45.117,"lon":21.304,"pop":36300,"tz":"Europe/Belgrade"},{"id":13353560,"name":"Vilappil","local":"Vilappil","country":"IN","lat":8.522,"lon":77.04,"pop":36212,"tz":"Asia/Kolkata"},{"id":3188383,"name":"Varazdin","local":"Вараждин","country":"HR","lat":46.304,"lon":16.338,"pop":36187,"tz":"Europe/Zagreb"},{"id":2732773,"name":"Viana do Castelo","local":"Вјана до Каштело","country":"PT","lat":41.693,"lon":-8.833,"pop":36148,"tz":"Europe/Lisbon"},{"id":2817065,"name":"Voerde","local":"Ферде","country":"DE","lat":51.597,"lon":6.686,"pop":36047,"tz":"Europe/Berlin"},{"id":13353558,"name":"Venganoor","local":"Venganoor","country":"IN","lat":8.396,"lon":77.003,"pop":35963,"tz":"Asia/Kolkata"},{"id":3445433,"name":"Vassouras","local":"Васорас","country":"BR","lat":-22.404,"lon":-43.663,"pop":35904,"tz":"America/Sao_Paulo"},{"id":477192,"name":"Valuyki","local":"Валуйки","country":"RU","lat":50.197,"lon":38.117,"pop":35887,"tz":"Europe/Moscow"},{"id":4176318,"name":"Valrico","local":"Валрико","country":"US","lat":27.938,"lon":-82.236,"pop":35545,"tz":"America/New_York"},{"id":3665973,"name":"Villamaria","local":"Villamaría","country":"CO","lat":5.046,"lon":-75.515,"pop":35302,"tz":"America/Bogota"},{"id":2509463,"name":"Villena","local":"Вильена","country":"ES","lat":38.637,"lon":-0.866,"pop":35222,"tz":"Europe/Madrid"},{"id":879431,"name":"Victoria Falls","local":"Victoria Falls","country":"ZW","lat":-17.933,"lon":25.831,"pop":35215,"tz":"Africa/Harare"},{"id":13580123,"name":"Vyshhorodskyi Masyv","local":"Вишгородський масив","country":"UA","lat":50.51,"lon":30.454,"pop":35200,"tz":"Europe/Kyiv"},{"id":1253193,"name":"Vijapur","local":"Vijāpur","country":"IN","lat":23.562,"lon":72.748,"pop":35118,"tz":"Asia/Kolkata"},{"id":3043293,"name":"Vac","local":"Вац","country":"HU","lat":47.776,"lon":19.136,"pop":35108,"tz":"Europe/Budapest"},{"id":1462711,"name":"Vijayapura","local":"Vijayapura","country":"IN","lat":13.297,"lon":77.802,"pop":34866,"tz":"Asia/Kolkata"},{"id":725905,"name":"Vidin","local":"Видин","country":"BG","lat":43.992,"lon":22.882,"pop":34797,"tz":"Europe/Sofia"},{"id":2817783,"name":"Vegesack","local":"Vegesack","country":"DE","lat":53.179,"lon":8.622,"pop":34757,"tz":"Europe/Berlin"},{"id":13353556,"name":"Villiappally","local":"Villiappally","country":"IN","lat":11.625,"lon":75.629,"pop":34502,"tz":"Asia/Kolkata"},{"id":6174151,"name":"Victoriaville","local":"Викториавилл","country":"CA","lat":46.05,"lon":-71.966,"pop":34426,"tz":"America/Toronto"},{"id":1253169,"name":"Villianur","local":"Вилианур","country":"IN","lat":11.914,"lon":79.756,"pop":34383,"tz":"Asia/Kolkata"},{"id":1253330,"name":"Vedaraniyam","local":"Vedaraniyam","country":"IN","lat":10.372,"lon":79.851,"pop":34266,"tz":"Asia/Kolkata"},{"id":2664996,"name":"Varberg","local":"Варберг","country":"SE","lat":57.106,"lon":12.251,"pop":34248,"tz":"Europe/Stockholm"},{"id":4095415,"name":"Vestavia Hills","local":"Vestavia Hills","country":"US","lat":33.449,"lon":-86.788,"pop":34174,"tz":"America/Chicago"},{"id":13157138,"name":"Vapi INA","local":"Vapi INA","country":"IN","lat":20.36,"lon":72.931,"pop":34162,"tz":"Asia/Kolkata"},{"id":6693230,"name":"Villa Santa Rita","local":"Villa Santa Rita","country":"AR","lat":-34.611,"lon":-58.481,"pop":34000,"tz":"America/Argentina/Buenos_Aires"},{"id":2509588,"name":"Villajoyosa","local":"Villajoyosa","country":"ES","lat":38.508,"lon":-0.233,"pop":33797,"tz":"Europe/Madrid"},{"id":3445459,"name":"Varzea da Palma","local":"Várzea da Palma","country":"BR","lat":-17.598,"lon":-44.734,"pop":33744,"tz":"America/Sao_Paulo"},{"id":1253275,"name":"Vemalwada","local":"Vemalwāda","country":"IN","lat":18.465,"lon":78.869,"pop":33706,"tz":"Asia/Kolkata"},{"id":3164617,"name":"Venaria Reale","local":"Venaria Reale","country":"IT","lat":45.126,"lon":7.631,"pop":33531,"tz":"Europe/Rome"},{"id":1253557,"name":"Vagholi","local":"Vagholi","country":"IN","lat":18.582,"lon":73.983,"pop":33479,"tz":"Asia/Kolkata"},{"id":688860,"name":"Voznesensk","local":"Вознесенск","country":"UA","lat":47.562,"lon":31.336,"pop":33442,"tz":"Europe/Kyiv"},{"id":1487394,"name":"Verkhniy Ufaley","local":"Верхний Уфалей","country":"RU","lat":56.055,"lon":60.226,"pop":33245,"tz":"Asia/Yekaterinburg"},{"id":3491948,"name":"Villa Bisono","local":"Villa Bisonó","country":"DO","lat":19.564,"lon":-70.876,"pop":33137,"tz":"America/Santo_Domingo"},{"id":2968748,"name":"Villefranche-sur-Saone","local":"Вильфранш-сюр-Сон","country":"FR","lat":45.99,"lon":4.72,"pop":32994,"tz":"Europe/Paris"},{"id":454310,"name":"Ventspils","local":"Вентспил","country":"LV","lat":57.395,"lon":21.561,"pop":32723,"tz":"Europe/Riga"},{"id":4016132,"name":"Victor Rosales","local":"Víctor Rosales","country":"MX","lat":22.949,"lon":-102.702,"pop":32721,"tz":"America/Mexico_City"},{"id":11463913,"name":"Vengola Kizhakkumbagam","local":"Vengola Kizhakkumbāgam","country":"IN","lat":10.064,"lon":76.476,"pop":32697,"tz":"Asia/Kolkata"},{"id":476062,"name":"Velikiy Ustyug","local":"Великий Устюг","country":"RU","lat":60.762,"lon":46.314,"pop":32642,"tz":"Europe/Moscow"},{"id":4927537,"name":"Valparaiso","local":"Вальпараисо","country":"US","lat":41.473,"lon":-87.061,"pop":32626,"tz":"America/Chicago"},{"id":2817324,"name":"Viernheim","local":"Фирнхайм","country":"DE","lat":49.54,"lon":8.578,"pop":32620,"tz":"Europe/Berlin"},{"id":1253482,"name":"Vallabh Vidyanagar","local":"Vallabh Vidyanagar","country":"IN","lat":22.533,"lon":72.9,"pop":32581,"tz":"Asia/Kolkata"},{"id":3650186,"name":"Vinces","local":"Vinces","country":"EC","lat":-1.556,"lon":-79.752,"pop":32497,"tz":"America/Guayaquil"},{"id":3868326,"name":"Victoria","local":"Виктория","country":"CL","lat":-38.233,"lon":-72.333,"pop":32448,"tz":"America/Santiago"},{"id":2969284,"name":"Vienne","local":"Вьенн","country":"FR","lat":45.526,"lon":4.875,"pop":32293,"tz":"Europe/Paris"},{"id":3427428,"name":"Villaguay","local":"Villaguay","country":"AR","lat":-31.868,"lon":-59.027,"pop":32027,"tz":"America/Argentina/Cordoba"},{"id":13580113,"name":"Vidradnyi","local":"Відрадний","country":"UA","lat":50.432,"lon":30.422,"pop":32000,"tz":"Europe/Kyiv"},{"id":2665452,"name":"Vallentuna","local":"Валентуна","country":"SE","lat":59.534,"lon":18.078,"pop":31937,"tz":"Europe/Stockholm"},{"id":2970797,"name":"Vandoeuvre-les-Nancy","local":"Вандёвр-ле-Нанси","country":"FR","lat":48.661,"lon":6.171,"pop":31785,"tz":"Europe/Paris"},{"id":13353552,"name":"Vilavoorkkal","local":"Vilavoorkkal","country":"IN","lat":8.481,"lon":77.022,"pop":31761,"tz":"Asia/Kolkata"},{"id":2610310,"name":"Viby","local":"Viby","country":"DK","lat":56.123,"lon":10.151,"pop":31756,"tz":"Europe/Copenhagen"},{"id":3665951,"name":"Villanueva","local":"Villanueva","country":"CO","lat":5.283,"lon":-71.967,"pop":31727,"tz":"America/Bogota"},{"id":3600327,"name":"Villanueva","local":"Villanueva","country":"HN","lat":15.315,"lon":-87.994,"pop":31571,"tz":"America/Tegucigalpa"},{"id":1253452,"name":"Vandavasi","local":"Vandavāsi","country":"IN","lat":12.504,"lon":79.606,"pop":31530,"tz":"Asia/Kolkata"},{"id":3832647,"name":"Villa Regina","local":"Villa Regina","country":"AR","lat":-39.096,"lon":-67.084,"pop":31209,"tz":"America/Argentina/Salta"},{"id":2509982,"name":"Valdepenas","local":"Вальдепеньясе","country":"ES","lat":38.762,"lon":-3.385,"pop":31147,"tz":"Europe/Madrid"},{"id":2967917,"name":"Viry-Chatillon","local":"Вири-Шатиллон","country":"FR","lat":48.672,"lon":2.393,"pop":31131,"tz":"Europe/Paris"},{"id":2745860,"name":"Valkenswaard","local":"Valkenswaard","country":"NL","lat":51.351,"lon":5.46,"pop":31071,"tz":"Europe/Amsterdam"},{"id":6457398,"name":"Verbania","local":"Вербания","country":"IT","lat":45.921,"lon":8.552,"pop":31070,"tz":"Europe/Rome"},{"id":6174068,"name":"Victoria-Fraserview","local":"Victoria-Fraserview","country":"CA","lat":49.217,"lon":-123.067,"pop":31065,"tz":"America/Vancouver"},{"id":11664517,"name":"Vilangudi","local":"Vilāngudi","country":"IN","lat":9.946,"lon":78.094,"pop":30884,"tz":"Asia/Kolkata"},{"id":2968529,"name":"Villeneuve-Saint-Georges","local":"Вильнёв-Сен-Жорж","country":"FR","lat":48.732,"lon":2.449,"pop":30881,"tz":"Europe/Paris"},{"id":3384983,"name":"Vitorino Freire","local":"Vitorino Freire","country":"BR","lat":-4.288,"lon":-45.246,"pop":30845,"tz":"America/Fortaleza"},{"id":3384986,"name":"Vitoria do Mearim","local":"Vitória do Mearim","country":"BR","lat":-3.462,"lon":-44.871,"pop":30805,"tz":"America/Fortaleza"},{"id":6324534,"name":"Vrilissia","local":"Vrilissia","country":"GR","lat":38.034,"lon":23.83,"pop":30741,"tz":"Europe/Athens"},{"id":13353550,"name":"Vadanappally","local":"Vadanappally","country":"IN","lat":10.469,"lon":76.081,"pop":30657,"tz":"Asia/Kolkata"},{"id":784097,"name":"Vushtrri","local":"Вучитрн","country":"XK","lat":42.823,"lon":20.968,"pop":30651,"tz":"Europe/Belgrade"},{"id":3445307,"name":"Vera Cruz","local":"Vera Cruz","country":"BR","lat":-12.633,"lon":-41.033,"pop":30556,"tz":"America/Bahia"},{"id":11549935,"name":"Valdezarza","local":"Valdezarza","country":"ES","lat":40.465,"lon":-3.717,"pop":30484,"tz":"Europe/Madrid"},{"id":12626134,"name":"Ville-Emard","local":"Ville-Émard","country":"CA","lat":45.45,"lon":-73.602,"pop":30440,"tz":"America/Toronto"},{"id":2968620,"name":"Villenave-d'Ornon","local":"Villenave-d'Ornon","country":"FR","lat":44.779,"lon":-0.567,"pop":30347,"tz":"Europe/Paris"},{"id":662476,"name":"Voluntari","local":"Волунтари","country":"RO","lat":44.49,"lon":26.173,"pop":30323,"tz":"Europe/Bucharest"},{"id":3901501,"name":"Villazon","local":"Вильясон","country":"BO","lat":-22.087,"lon":-65.594,"pop":30253,"tz":"America/La_Paz"},{"id":2968142,"name":"Villiers-sur-Marne","local":"Вилье-сюр-Марн","country":"FR","lat":48.831,"lon":2.548,"pop":30252,"tz":"Europe/Paris"},{"id":11962456,"name":"Vartiokylae","local":"Vartiokylä","country":"FI","lat":60.218,"lon":25.096,"pop":30244,"tz":"Europe/Helsinki"},{"id":2658154,"name":"Vernier","local":"Верние","country":"CH","lat":46.217,"lon":6.085,"pop":30086,"tz":"Europe/Zurich"},{"id":3188244,"name":"Velika Gorica","local":"Велика-Горица","country":"HR","lat":45.712,"lon":16.076,"pop":30036,"tz":"Europe/Zagreb"},{"id":471456,"name":"Vostryakovo","local":"Востряково","country":"RU","lat":55.667,"lon":37.45,"pop":30000,"tz":"Europe/Moscow"},{"id":472079,"name":"Vorob'yovo","local":"Воробьево","country":"RU","lat":55.717,"lon":37.533,"pop":30000,"tz":"Europe/Moscow"},{"id":7615192,"name":"Vila Galvao","local":"Vila Galvão","country":"BR","lat":-23.472,"lon":-46.579,"pop":29968,"tz":"America/Sao_Paulo"},{"id":2969257,"name":"Vierzon","local":"Вьерзон","country":"FR","lat":47.222,"lon":2.068,"pop":29876,"tz":"Europe/Paris"},{"id":2817812,"name":"Vechta","local":"Фехта","country":"DE","lat":52.726,"lon":8.286,"pop":29729,"tz":"Europe/Berlin"},{"id":3534363,"name":"Vertientes","local":"Vertientes","country":"CU","lat":21.258,"lon":-78.15,"pop":29704,"tz":"America/Havana"},{"id":421930,"name":"Vyanda","local":"Вянда","country":"BI","lat":-4.102,"lon":29.606,"pop":29685,"tz":"Africa/Bujumbura"},{"id":1253605,"name":"Vadakku Valliyur","local":"Vadakku Valliyūr","country":"IN","lat":8.383,"lon":77.612,"pop":29417,"tz":"Asia/Kolkata"},{"id":4568533,"name":"Vega Baja","local":"Вега Баха","country":"PR","lat":18.444,"lon":-66.388,"pop":29325,"tz":"America/Puerto_Rico"},{"id":13353548,"name":"Vijayapuram","local":"Vijayapuram","country":"IN","lat":9.591,"lon":76.561,"pop":29248,"tz":"Asia/Kolkata"},{"id":3164741,"name":"Vanchiglia","local":"Vanchiglia","country":"IT","lat":45.071,"lon":7.704,"pop":29230,"tz":"Europe/Rome"},{"id":2817927,"name":"Vaihingen an der Enz","local":"Файинген-ан-дер-Энц","country":"DE","lat":48.936,"lon":8.96,"pop":28867,"tz":"Europe/Berlin"},{"id":631707,"name":"Vihti","local":"Вихти","country":"FI","lat":60.417,"lon":24.32,"pop":28864,"tz":"Europe/Helsinki"},{"id":11664494,"name":"Vandiyur","local":"Vandiyūr","country":"IN","lat":9.909,"lon":78.161,"pop":28646,"tz":"Asia/Kolkata"},{"id":3491946,"name":"Villa Consuelo","local":"Villa Consuelo","country":"DO","lat":18.483,"lon":-69.9,"pop":28621,"tz":"America/Santo_Domingo"},{"id":3062339,"name":"Vsetin","local":"Всетин","country":"CZ","lat":49.339,"lon":17.996,"pop":28575,"tz":"Europe/Prague"},{"id":251780,"name":"Voula","local":"Вуле","country":"GR","lat":37.842,"lon":23.777,"pop":28364,"tz":"Europe/Athens"},{"id":3104584,"name":"Vinaros","local":"Винаросе","country":"ES","lat":40.47,"lon":0.476,"pop":28273,"tz":"Europe/Madrid"},{"id":2745783,"name":"Veendam","local":"Veendam","country":"NL","lat":53.107,"lon":6.879,"pop":28155,"tz":"Europe/Amsterdam"},{"id":3187719,"name":"Vinkovci","local":"Винковцы","country":"HR","lat":45.288,"lon":18.805,"pop":28111,"tz":"Europe/Zagreb"},{"id":5142296,"name":"Vestal","local":"Vestal","country":"US","lat":42.085,"lon":-76.054,"pop":28043,"tz":"America/New_York"},{"id":3832756,"name":"Villa Dolores","local":"Villa Dolores","country":"AR","lat":-31.945,"lon":-65.19,"pop":28009,"tz":"America/Argentina/Cordoba"},{"id":2968653,"name":"Villemomble","local":"Вилемомбл","country":"FR","lat":48.883,"lon":2.5,"pop":28001,"tz":"Europe/Paris"},{"id":1253577,"name":"Vadnagar","local":"Vadnagar","country":"IN","lat":23.786,"lon":72.639,"pop":27790,"tz":"Asia/Kolkata"},{"id":3868308,"name":"Vicuna","local":"Викунья","country":"CL","lat":-30.035,"lon":-70.713,"pop":27771,"tz":"America/Santiago"},{"id":2732649,"name":"Vila do Conde","local":"Вила-ду-Конде","country":"PT","lat":41.353,"lon":-8.745,"pop":27642,"tz":"Europe/Lisbon"},{"id":3104703,"name":"Villaviciosa de Odon","local":"Вильявисиоса-де-Одон","country":"ES","lat":40.358,"lon":-3.904,"pop":27596,"tz":"Europe/Madrid"},{"id":3063447,"name":"Valasske Mezirici","local":"Мезиржичи","country":"CZ","lat":49.472,"lon":17.971,"pop":27481,"tz":"Europe/Prague"},{"id":2970962,"name":"Vallauris","local":"Валлорис","country":"FR","lat":43.578,"lon":7.055,"pop":27286,"tz":"Europe/Paris"},{"id":11487471,"name":"Vettanad","local":"Vettanād","country":"IN","lat":8.606,"lon":76.942,"pop":27140,"tz":"Asia/Kolkata"},{"id":3534094,"name":"Vinales","local":"Виньялес","country":"CU","lat":22.619,"lon":-83.707,"pop":27129,"tz":"America/Havana"},{"id":3980174,"name":"Villagran","local":"Вильягран","country":"MX","lat":20.515,"lon":-100.997,"pop":27079,"tz":"America/Mexico_City"},{"id":2968176,"name":"Villiers-le-Bel","local":"Вилье-ле-Бель","country":"FR","lat":49.009,"lon":2.398,"pop":27028,"tz":"Europe/Paris"},{"id":2969392,"name":"Vichy","local":"Виши","country":"FR","lat":46.127,"lon":3.426,"pop":27019,"tz":"Europe/Paris"},{"id":1053778,"name":"Vohipaho","local":"Вохипахо","country":"MG","lat":-23.55,"lon":47.5,"pop":27000,"tz":"Indian/Antananarivo"},{"id":2817599,"name":"Verden","local":"Ферден","country":"DE","lat":52.923,"lon":9.235,"pop":26924,"tz":"Europe/Berlin"},{"id":1253242,"name":"Vepagunta","local":"Vepagunta","country":"IN","lat":17.778,"lon":83.216,"pop":26881,"tz":"Asia/Kolkata"},{"id":1253579,"name":"Vadipatti","local":"Вадипатти","country":"IN","lat":10.085,"lon":77.961,"pop":26830,"tz":"Asia/Kolkata"},{"id":13353541,"name":"Varappuzha","local":"Varappuzha","country":"IN","lat":10.076,"lon":76.272,"pop":26750,"tz":"Asia/Kolkata"},{"id":3446612,"name":"Vera Cruz","local":"Vera Cruz","country":"BR","lat":-29.717,"lon":-52.503,"pop":26710,"tz":"America/Sao_Paulo"},{"id":2969109,"name":"Vigneux-sur-Seine","local":"Винье-сюр-Сен","country":"FR","lat":48.703,"lon":2.414,"pop":26692,"tz":"Europe/Paris"},{"id":2509491,"name":"Villarrobledo","local":"Вильярробледо","country":"ES","lat":39.27,"lon":-2.601,"pop":26642,"tz":"Europe/Madrid"},{"id":620181,"name":"Vileyka","local":"Вилейка","country":"BY","lat":54.491,"lon":26.911,"pop":26625,"tz":"Europe/Minsk"},{"id":11549966,"name":"Valdeacederas","local":"Valdeacederas","country":"ES","lat":40.467,"lon":-3.704,"pop":26573,"tz":"Europe/Madrid"},{"id":944531,"name":"Ventersdorp","local":"Ventersdorp","country":"ZA","lat":-26.314,"lon":26.822,"pop":26446,"tz":"Africa/Johannesburg"},{"id":3385118,"name":"Vicencia","local":"Vicência","country":"BR","lat":-7.657,"lon":-35.327,"pop":26359,"tz":"America/Recife"},{"id":4914738,"name":"Vernon Hills","local":"Vernon Hills","country":"US","lat":42.219,"lon":-87.98,"pop":26314,"tz":"America/Chicago"},{"id":2970761,"name":"Vanves","local":"Ванв","country":"FR","lat":48.823,"lon":2.29,"pop":26068,"tz":"Europe/Paris"},{"id":2969766,"name":"Vernon","local":"Vernon","country":"FR","lat":49.093,"lon":1.463,"pop":26037,"tz":"Europe/Paris"},{"id":3187297,"name":"Vrbas","local":"Врбас","country":"RS","lat":45.571,"lon":19.641,"pop":25907,"tz":"Europe/Belgrade"},{"id":2968515,"name":"Villeneuve-sur-Lot","local":"Вильнев-сюр-Ло","country":"FR","lat":44.409,"lon":0.704,"pop":25869,"tz":"Europe/Paris"},{"id":6173570,"name":"Vaudreuil-Dorion","local":"Водрей-Доріон","country":"CA","lat":45.4,"lon":-74.033,"pop":25789,"tz":"America/Toronto"},{"id":2509553,"name":"Villanueva de la Serena","local":"Вильянуэва-де-ла-Серена","country":"ES","lat":38.977,"lon":-5.797,"pop":25759,"tz":"Europe/Madrid"},{"id":3761202,"name":"Valente Diaz","local":"Valente Diaz","country":"MX","lat":19.163,"lon":-96.216,"pop":25700,"tz":"America/Mexico_City"},{"id":13494713,"name":"Viswanatham","local":"Viswanatham","country":"IN","lat":9.43,"lon":77.8,"pop":25555,"tz":"Asia/Kolkata"},{"id":3980621,"name":"Valle de Bravo","local":"Валье-де-Браво","country":"MX","lat":19.195,"lon":-100.131,"pop":25554,"tz":"America/Mexico_City"},{"id":6173017,"name":"Val-d'Or","local":"Валь-д'Ор","country":"CA","lat":48.097,"lon":-77.797,"pop":25541,"tz":"America/Toronto"},{"id":11549794,"name":"Vilapicina i la Torre Llobeta","local":"Vilapicina i la Torre Llobeta","country":"ES","lat":41.429,"lon":2.174,"pop":25522,"tz":"Europe/Madrid"},{"id":2745726,"name":"Veghel","local":"Вегел","country":"NL","lat":51.617,"lon":5.549,"pop":25352,"tz":"Europe/Amsterdam"},{"id":688746,"name":"Vynohradiv","local":"Виноградов","country":"UA","lat":48.141,"lon":23.036,"pop":25317,"tz":"Europe/Kyiv"},{"id":1054035,"name":"Vohibinany","local":"Vohibinany","country":"MG","lat":-17.35,"lon":49.033,"pop":25311,"tz":"Indian/Antananarivo"},{"id":2817873,"name":"Varel","local":"Фарель","country":"DE","lat":53.397,"lon":8.136,"pop":25212,"tz":"Europe/Berlin"},{"id":2118647,"name":"Vilyuchinsk","local":"Вилючинск","country":"RU","lat":52.932,"lon":158.406,"pop":25204,"tz":"Asia/Kamchatka"},{"id":738167,"name":"Vezirkoeprue","local":"Везиркепрю","country":"TR","lat":41.144,"lon":35.455,"pop":25155,"tz":"Europe/Istanbul"},{"id":3832934,"name":"Victoria","local":"Виктория","country":"AR","lat":-32.618,"lon":-60.155,"pop":25139,"tz":"America/Argentina/Cordoba"},{"id":1253340,"name":"Vayalar","local":"Vayalār","country":"IN","lat":9.712,"lon":76.339,"pop":25094,"tz":"Asia/Kolkata"},{"id":3106492,"name":"Valls","local":"Вальс","country":"ES","lat":41.286,"lon":1.25,"pop":25092,"tz":"Europe/Madrid"},{"id":3164153,"name":"Villaricca","local":"Вилларикка","country":"IT","lat":40.92,"lon":14.193,"pop":25074,"tz":"Europe/Rome"},{"id":2745154,"name":"Vught","local":"Вюгт","country":"NL","lat":51.653,"lon":5.287,"pop":25043,"tz":"Europe/Amsterdam"},{"id":1253278,"name":"Velur","local":"Velur","country":"IN","lat":11.108,"lon":78.001,"pop":25012,"tz":"Asia/Kolkata"},{"id":1655087,"name":"Vang Vieng","local":"Ванг Вьенг","country":"LA","lat":18.924,"lon":102.448,"pop":25000,"tz":"Asia/Vientiane"},{"id":472433,"name":"Volokolamsk","local":"Волоколамск","country":"RU","lat":56.034,"lon":35.969,"pop":25000,"tz":"Europe/Moscow"},{"id":8441952,"name":"Vellalur","local":"Vellalūr","country":"IN","lat":10.977,"lon":77.026,"pop":24872,"tz":"Asia/Kolkata"},{"id":7176039,"name":"Vineyard","local":"Вайнярд","country":"US","lat":38.464,"lon":-121.347,"pop":24836,"tz":"America/Los_Angeles"},{"id":3164028,"name":"Vittorio Veneto","local":"Витторио-Венето","country":"IT","lat":45.98,"lon":12.301,"pop":24789,"tz":"Europe/Rome"},{"id":3833112,"name":"Veinticinco de Mayo","local":"Veinticinco de Mayo","country":"AR","lat":-35.432,"lon":-60.172,"pop":24668,"tz":"America/Argentina/Buenos_Aires"},{"id":4504618,"name":"Vincentown","local":"Vincentown","country":"US","lat":39.934,"lon":-74.748,"pop":24664,"tz":"America/New_York"},{"id":11592272,"name":"Vale of Leven","local":"Vale of Leven","country":"GB","lat":55.971,"lon":-4.579,"pop":24640,"tz":"Europe/London"},{"id":1562538,"name":"Vi Thanh","local":"Vị Thanh","country":"VN","lat":9.784,"lon":105.47,"pop":24477,"tz":"Asia/Ho_Chi_Minh"},{"id":1680018,"name":"Victoria","local":"Виктория","country":"PH","lat":14.228,"lon":121.329,"pop":24456,"tz":"Asia/Manila"},{"id":3385109,"name":"Vicosa","local":"Висоза","country":"BR","lat":-9.371,"lon":-36.241,"pop":24423,"tz":"America/Maceio"},{"id":3445594,"name":"Valente","local":"Valente","country":"BR","lat":-11.412,"lon":-39.462,"pop":24362,"tz":"America/Bahia"},{"id":3189075,"name":"Velenje","local":"Веленье","country":"SI","lat":46.357,"lon":15.113,"pop":24327,"tz":"Europe/Ljubljana"},{"id":3445575,"name":"Valparaiso","local":"Valparaíso","country":"BR","lat":-21.228,"lon":-50.868,"pop":24241,"tz":"America/Sao_Paulo"},{"id":11186050,"name":"Vilankurichi","local":"Vilankurichi","country":"IN","lat":11.071,"lon":77.017,"pop":24235,"tz":"Asia/Kolkata"},{"id":3164582,"name":"Ventimiglia","local":"Вентимилья","country":"IT","lat":43.79,"lon":7.609,"pop":24120,"tz":"Europe/Rome"},{"id":3445299,"name":"Veranopolis","local":"Veranópolis","country":"BR","lat":-28.936,"lon":-51.549,"pop":24021,"tz":"America/Sao_Paulo"},{"id":2817576,"name":"Verl","local":"Ферль","country":"DE","lat":51.883,"lon":8.517,"pop":24002,"tz":"Europe/Berlin"},{"id":2968496,"name":"Villeparisis","local":"Вильпаризи","country":"FR","lat":48.942,"lon":2.615,"pop":23931,"tz":"Europe/Paris"},{"id":11461632,"name":"Virakeralam","local":"Vīrakeralam","country":"IN","lat":11.008,"lon":76.913,"pop":23841,"tz":"Asia/Kolkata"},{"id":1253073,"name":"Vypin","local":"Vypīn","country":"IN","lat":9.967,"lon":76.25,"pop":23717,"tz":"Asia/Kolkata"},{"id":5142182,"name":"Van Nest","local":"Van Nest","country":"US","lat":40.848,"lon":-73.864,"pop":23700,"tz":"America/New_York"},{"id":2662689,"name":"Visby","local":"Висбю","country":"SE","lat":57.641,"lon":18.296,"pop":23402,"tz":"Europe/Stockholm"},{"id":1466089,"name":"Vengattur","local":"Vengattūr","country":"IN","lat":13.1,"lon":79.932,"pop":23292,"tz":"Asia/Kolkata"},{"id":3427431,"name":"Villa Gesell","local":"Вилья-Хесель","country":"AR","lat":-37.264,"lon":-56.973,"pop":23257,"tz":"America/Argentina/Buenos_Aires"},{"id":1253544,"name":"Vaikam","local":"Vaikam","country":"IN","lat":9.749,"lon":76.396,"pop":23234,"tz":"Asia/Kolkata"},{"id":4449620,"name":"Vicksburg","local":"Виксберг","country":"US","lat":32.353,"lon":-90.878,"pop":23131,"tz":"America/Chicago"},{"id":475938,"name":"Vel'sk","local":"Вельск","country":"RU","lat":61.069,"lon":42.099,"pop":23126,"tz":"Europe/Moscow"},{"id":2665171,"name":"Vaenersborg","local":"Венерсборг","country":"SE","lat":58.381,"lon":12.323,"pop":23119,"tz":"Europe/Stockholm"},{"id":3550209,"name":"Vibora","local":"Víbora","country":"CU","lat":23.094,"lon":-82.372,"pop":23118,"tz":"America/Havana"},{"id":7260233,"name":"Vero Beach South","local":"Виро-Бич-Саут","country":"US","lat":27.616,"lon":-80.413,"pop":23092,"tz":"America/New_York"},{"id":4134716,"name":"Van Buren","local":"Ван-Бьюрен","country":"US","lat":35.437,"lon":-94.348,"pop":23081,"tz":"America/Chicago"},{"id":2273312,"name":"Voinjama","local":"Voinjama","country":"LR","lat":8.422,"lon":-9.748,"pop":23051,"tz":"Africa/Monrovia"},{"id":11184312,"name":"Vadakkanandal","local":"Vadakkanandal","country":"IN","lat":11.782,"lon":78.835,"pop":23034,"tz":"Asia/Kolkata"},{"id":3534332,"name":"Vibora Park","local":"Víbora Park","country":"CU","lat":23.081,"lon":-82.354,"pop":23000,"tz":"America/Havana"},{"id":1253352,"name":"Vattalkundu","local":"Vattalkundu","country":"IN","lat":10.161,"lon":77.759,"pop":22928,"tz":"Asia/Kolkata"},{"id":2969612,"name":"Vertou","local":"Верту","country":"FR","lat":47.169,"lon":-1.473,"pop":22921,"tz":"Europe/Paris"},{"id":6534268,"name":"Volla","local":"Volla","country":"IT","lat":40.874,"lon":14.341,"pop":22911,"tz":"Europe/Rome"},{"id":241131,"name":"Victoria","local":"Виктория","country":"SC","lat":-4.62,"lon":55.455,"pop":22881,"tz":"Indian/Mahe"},{"id":2509650,"name":"Vicar","local":"Викар","country":"ES","lat":36.832,"lon":-2.643,"pop":22853,"tz":"Europe/Madrid"},{"id":5405326,"name":"Valinda","local":"Valinda","country":"US","lat":34.045,"lon":-117.944,"pop":22822,"tz":"America/Los_Angeles"},{"id":11487382,"name":"Vellur","local":"Vellūr","country":"IN","lat":8.626,"lon":76.831,"pop":22816,"tz":"Asia/Kolkata"},{"id":453754,"name":"Valmiera","local":"Валмиера","country":"LV","lat":57.541,"lon":25.428,"pop":22812,"tz":"Europe/Riga"},{"id":4311963,"name":"Valley Station","local":"Вали Стејшон","country":"US","lat":38.111,"lon":-85.87,"pop":22756,"tz":"America/Kentucky/Louisville"},{"id":3164083,"name":"Vimercate","local":"Вимеркате","country":"IT","lat":45.615,"lon":9.368,"pop":22727,"tz":"Europe/Rome"},{"id":6173614,"name":"Vedder Crossing","local":"Vedder Crossing","country":"CA","lat":49.1,"lon":-121.967,"pop":22620,"tz":"America/Vancouver"},{"id":3164954,"name":"Valdagno","local":"Valdagno","country":"IT","lat":45.645,"lon":11.299,"pop":22555,"tz":"Europe/Rome"},{"id":8449777,"name":"Visitacion Valley","local":"Visitacion Valley","country":"US","lat":37.717,"lon":-122.404,"pop":22534,"tz":"America/Los_Angeles"},{"id":3427387,"name":"Villa Ortuzar","local":"Villa Ortúzar","country":"AR","lat":-34.58,"lon":-58.468,"pop":22500,"tz":"America/Argentina/Buenos_Aires"},{"id":2013399,"name":"Vikhorevka","local":"Вихоревка","country":"RU","lat":56.121,"lon":101.178,"pop":22500,"tz":"Asia/Irkutsk"},{"id":3868210,"name":"Vilcun","local":"Vilcún","country":"CL","lat":-38.669,"lon":-72.226,"pop":22499,"tz":"America/Santiago"},{"id":2745301,"name":"Voorschoten","local":"Voorschoten","country":"NL","lat":52.127,"lon":4.449,"pop":22468,"tz":"Europe/Amsterdam"},{"id":475777,"name":"Vereshchagino","local":"Верещагино","country":"RU","lat":58.078,"lon":54.656,"pop":22451,"tz":"Asia/Yekaterinburg"},{"id":2815824,"name":"Vreden","local":"Фреден","country":"DE","lat":52.038,"lon":6.828,"pop":22412,"tz":"Europe/Berlin"},{"id":3164342,"name":"Vignola","local":"Vignola","country":"IT","lat":44.484,"lon":11.011,"pop":22397,"tz":"Europe/Rome"},{"id":2733263,"name":"Valadares","local":"Valadares","country":"PT","lat":41.093,"lon":-8.632,"pop":22322,"tz":"Europe/Lisbon"},{"id":3385592,"name":"Valenca do Piaui","local":"Valença do Piauí","country":"BR","lat":-6.407,"lon":-41.746,"pop":22279,"tz":"America/Fortaleza"},{"id":3187047,"name":"Vukovar","local":"Вуковар","country":"HR","lat":45.352,"lon":19.002,"pop":22255,"tz":"Europe/Zagreb"},{"id":4176380,"name":"Venice","local":"Венеция","country":"US","lat":27.1,"lon":-82.454,"pop":22211,"tz":"America/New_York"},{"id":2967758,"name":"Voiron","local":"Вуарон","country":"FR","lat":45.365,"lon":5.586,"pop":22114,"tz":"Europe/Paris"},{"id":688723,"name":"Vyshhorod","local":"Вышгород","country":"UA","lat":50.585,"lon":30.49,"pop":22080,"tz":"Europe/Kyiv"},{"id":689200,"name":"Vilnohirsk","local":"Вольногорск","country":"UA","lat":48.484,"lon":34.017,"pop":22079,"tz":"Europe/Kyiv"},{"id":2968555,"name":"Villeneuve-la-Garenne","local":"Вилнев ла Гаран","country":"FR","lat":48.939,"lon":2.315,"pop":22036,"tz":"Europe/Paris"},{"id":2745340,"name":"Volendam","local":"Волендам","country":"NL","lat":52.495,"lon":5.071,"pop":22000,"tz":"Europe/Amsterdam"},{"id":4914830,"name":"Villa Park","local":"Вила Парк","country":"US","lat":41.89,"lon":-87.989,"pop":21969,"tz":"America/Chicago"},{"id":3385131,"name":"Vertentes","local":"Vertentes","country":"BR","lat":-7.903,"lon":-35.988,"pop":21959,"tz":"America/Recife"},{"id":3385467,"name":"Varzea Alegre","local":"Várzea Alegre","country":"BR","lat":-5.35,"lon":-40.383,"pop":21841,"tz":"America/Fortaleza"},{"id":2969958,"name":"Verdun","local":"Верден","country":"FR","lat":49.16,"lon":5.383,"pop":21798,"tz":"Europe/Paris"},{"id":3359736,"name":"Vredendal","local":"Vredendal","country":"ZA","lat":-31.668,"lon":18.501,"pop":21769,"tz":"Africa/Johannesburg"},{"id":2970203,"name":"Velizy-Villacoublay","local":"Велизи Вилакубле","country":"FR","lat":48.782,"lon":2.194,"pop":21741,"tz":"Europe/Paris"},{"id":3832815,"name":"Villa Allende","local":"Villa Allende","country":"AR","lat":-31.294,"lon":-64.298,"pop":21683,"tz":"America/Argentina/Cordoba"},{"id":1465809,"name":"Virugambakkam","local":"Virugambakkam","country":"IN","lat":13.046,"lon":80.191,"pop":21376,"tz":"Asia/Kolkata"},{"id":1253357,"name":"Vasudevanallur","local":"Vāsudevanallūr","country":"IN","lat":9.242,"lon":77.412,"pop":21361,"tz":"Asia/Kolkata"},{"id":10062606,"name":"Vilkpede","local":"Vilkpėdė","country":"LT","lat":54.67,"lon":25.248,"pop":21346,"tz":"Europe/Vilnius"},{"id":2732978,"name":"Valongo","local":"Валонгу","country":"PT","lat":41.189,"lon":-8.499,"pop":21328,"tz":"Europe/Lisbon"},{"id":3043095,"name":"Varpalota","local":"Várpalota","country":"HU","lat":47.199,"lon":18.14,"pop":21299,"tz":"Europe/Budapest"},{"id":944380,"name":"Verena","local":"Verena","country":"ZA","lat":-25.483,"lon":29.028,"pop":21252,"tz":"Africa/Johannesburg"},{"id":2732513,"name":"Vilar","local":"Vilar","country":"PT","lat":40.627,"lon":-8.632,"pop":21227,"tz":"Europe/Lisbon"},{"id":942701,"name":"Vrede","local":"Vrede","country":"ZA","lat":-27.426,"lon":29.166,"pop":21193,"tz":"Africa/Johannesburg"},{"id":2664203,"name":"Vaestervik","local":"Вестервик","country":"SE","lat":57.758,"lon":16.637,"pop":21178,"tz":"Europe/Stockholm"},{"id":689198,"name":"Volnovakha","local":"Волноваха","country":"UA","lat":47.602,"lon":37.497,"pop":21166,"tz":"Europe/Kyiv"},{"id":2817818,"name":"Vaterstetten","local":"Фатерштеттен","country":"DE","lat":48.105,"lon":11.768,"pop":21007,"tz":"Europe/Berlin"},{"id":1225187,"name":"Vakarai","local":"Vakarai","country":"LK","lat":8.133,"lon":81.433,"pop":21000,"tz":"Asia/Colombo"},{"id":2817537,"name":"Versmold","local":"Ферсмольд","country":"DE","lat":52.04,"lon":8.153,"pop":20996,"tz":"Europe/Berlin"},{"id":6173508,"name":"Varennes","local":"Варен","country":"CA","lat":45.683,"lon":-73.432,"pop":20994,"tz":"America/Toronto"},{"id":11424018,"name":"Vinnamala","local":"Vinnamāla","country":"IN","lat":13.907,"lon":79.909,"pop":20924,"tz":"Asia/Kolkata"},{"id":3105803,"name":"Vila-seca","local":"Vila-seca","country":"ES","lat":41.111,"lon":1.148,"pop":20866,"tz":"Europe/Madrid"},{"id":632672,"name":"Valkeakoski","local":"Валкеакоски","country":"FI","lat":61.264,"lon":24.031,"pop":20859,"tz":"Europe/Helsinki"},{"id":11680724,"name":"Vadakarai Kil Pidagai","local":"Vadakarai Kīl Pidāgai","country":"IN","lat":9.04,"lon":77.274,"pop":20821,"tz":"Asia/Kolkata"},{"id":3690875,"name":"Viru","local":"Virú","country":"PE","lat":-8.416,"lon":-78.752,"pop":20774,"tz":"America/Lima"},{"id":3110516,"name":"Vilassar de Mar","local":"Vilassar de Mar","country":"ES","lat":41.505,"lon":2.392,"pop":20764,"tz":"Europe/Madrid"},{"id":943937,"name":"Villiers","local":"Villiers","country":"ZA","lat":-27.03,"lon":28.601,"pop":20745,"tz":"Africa/Johannesburg"},{"id":3056708,"name":"Vrakuna","local":"Vrakuňa","country":"SK","lat":48.138,"lon":17.209,"pop":20711,"tz":"Europe/Bratislava"},{"id":2970432,"name":"Vaureal","local":"Вореаль","country":"FR","lat":49.033,"lon":2.033,"pop":20699,"tz":"Europe/Paris"},{"id":3665895,"name":"Villeta","local":"Villeta","country":"CO","lat":5.009,"lon":-74.472,"pop":20689,"tz":"America/Bogota"},{"id":2816607,"name":"Volksdorf","local":"Фолксдорф","country":"DE","lat":53.65,"lon":10.184,"pop":20685,"tz":"Europe/Berlin"},{"id":1253599,"name":"Vadali","local":"Vadāli","country":"IN","lat":23.942,"lon":73.038,"pop":20646,"tz":"Asia/Kolkata"},{"id":3062283,"name":"Vyskov","local":"Вышков","country":"CZ","lat":49.277,"lon":16.999,"pop":20645,"tz":"Europe/Prague"},{"id":723195,"name":"Vranov nad Toplou","local":"Вранов-над-Топлёу","country":"SK","lat":48.888,"lon":21.685,"pop":20595,"tz":"Europe/Bratislava"},{"id":11463126,"name":"Vadakakarai","local":"Vadakakarai","country":"IN","lat":10.166,"lon":76.202,"pop":20571,"tz":"Asia/Kolkata"},{"id":2363490,"name":"Vogan","local":"Воган","country":"TG","lat":6.333,"lon":1.533,"pop":20569,"tz":"Africa/Lome"},{"id":1277745,"name":"Viratnagar","local":"Viratnagar","country":"IN","lat":27.435,"lon":76.183,"pop":20568,"tz":"Asia/Kolkata"},{"id":1253363,"name":"Vasind","local":"Vasind","country":"IN","lat":19.408,"lon":73.263,"pop":20561,"tz":"Asia/Kolkata"},{"id":3666519,"name":"Villa de San Diego de Ubate","local":"Villa de San Diego de Ubaté","country":"CO","lat":5.309,"lon":-73.816,"pop":20485,"tz":"America/Bogota"},{"id":725988,"name":"Velingrad","local":"Велинград","country":"BG","lat":42.028,"lon":23.992,"pop":20286,"tz":"Europe/Sofia"},{"id":2817105,"name":"Vlotho","local":"Флото","country":"DE","lat":52.165,"lon":8.86,"pop":20214,"tz":"Europe/Berlin"},{"id":3164440,"name":"Viadana","local":"Viadana","country":"IT","lat":44.936,"lon":10.519,"pop":20013,"tz":"Europe/Rome"},{"id":3534632,"name":"Varadero","local":"Варадеро","country":"CU","lat":23.157,"lon":-81.244,"pop":20000,"tz":"America/Havana"},{"id":857689,"name":"Vnukovo","local":"Внуково","country":"RU","lat":55.612,"lon":37.296,"pop":20000,"tz":"Europe/Moscow"},{"id":2013258,"name":"Vrangel'","local":"Врангель","country":"RU","lat":42.73,"lon":133.084,"pop":20000,"tz":"Asia/Vladivostok"},{"id":13494195,"name":"Vinhomes Royal City","local":"Vinhomes Royal City","country":"VN","lat":21.003,"lon":105.815,"pop":20000,"tz":"Asia/Ho_Chi_Minh"},{"id":3445418,"name":"Vazante","local":"Vazante","country":"BR","lat":-17.987,"lon":-46.908,"pop":19975,"tz":"America/Sao_Paulo"},{"id":1053507,"name":"Vondrozo","local":"Vondrozo","country":"MG","lat":-22.817,"lon":47.283,"pop":19949,"tz":"Indian/Antananarivo"},{"id":2745580,"name":"Vianen","local":"Vianen","country":"NL","lat":51.992,"lon":5.092,"pop":19931,"tz":"Europe/Amsterdam"},{"id":2969562,"name":"Vesoul","local":"Везуль","country":"FR","lat":47.626,"lon":6.143,"pop":19892,"tz":"Europe/Paris"},{"id":2658145,"name":"Vevey","local":"Веве","country":"CH","lat":46.463,"lon":6.843,"pop":19891,"tz":"Europe/Zurich"},{"id":11549970,"name":"Vallehermoso","local":"Vallehermoso","country":"ES","lat":40.443,"lon":-3.711,"pop":19853,"tz":"Europe/Madrid"},{"id":6318931,"name":"Vila Rica","local":"Vila Rica","country":"BR","lat":-10.012,"lon":-51.116,"pop":19827,"tz":"America/Cuiaba"},{"id":3833027,"name":"Vera","local":"Vera","country":"AR","lat":-29.46,"lon":-60.213,"pop":19797,"tz":"America/Argentina/Cordoba"},{"id":662432,"name":"Vulcan","local":"Vulcan","country":"RO","lat":45.383,"lon":23.267,"pop":19772,"tz":"Europe/Bucharest"},{"id":2968771,"name":"Villefontaine","local":"Вильфонтен","country":"FR","lat":45.613,"lon":5.151,"pop":19749,"tz":"Europe/Paris"},{"id":11655546,"name":"Verukulambu","local":"Verukulambu","country":"IN","lat":8.295,"lon":77.294,"pop":19730,"tz":"Asia/Kolkata"},{"id":945141,"name":"Vaalwater","local":"Vaalwater","country":"ZA","lat":-24.296,"lon":28.114,"pop":19723,"tz":"Africa/Johannesburg"},{"id":1253127,"name":"Vadakku Viravanallur","local":"Vadakku Viravanallur","country":"IN","lat":8.698,"lon":77.519,"pop":19689,"tz":"Asia/Kolkata"},{"id":632370,"name":"Varkaus","local":"Варкаус","country":"FI","lat":62.315,"lon":27.873,"pop":19603,"tz":"Europe/Helsinki"},{"id":3445534,"name":"Vargem Alta","local":"Vargem Alta","country":"BR","lat":-20.671,"lon":-41.007,"pop":19563,"tz":"America/Sao_Paulo"},{"id":12718836,"name":"Vaalbank","local":"Vaalbank","country":"ZA","lat":-25.152,"lon":28.856,"pop":19517,"tz":"Africa/Johannesburg"},{"id":1253105,"name":"Visavadar","local":"Vīsāvadar","country":"IN","lat":21.34,"lon":70.75,"pop":19515,"tz":"Asia/Kolkata"},{"id":3666232,"name":"Velez","local":"Vélez","country":"CO","lat":6.013,"lon":-73.674,"pop":19376,"tz":"America/Bogota"},{"id":3188225,"name":"Velika Kladusa","local":"Велика-Кладуша","country":"BA","lat":45.185,"lon":15.806,"pop":19330,"tz":"Europe/Sarajevo"},{"id":3043019,"name":"Vecses","local":"Vecsés","country":"HU","lat":47.407,"lon":19.286,"pop":19327,"tz":"Europe/Budapest"},{"id":11487287,"name":"Vakkam","local":"Vakkam","country":"IN","lat":8.684,"lon":76.768,"pop":19267,"tz":"Asia/Kolkata"},{"id":2522776,"name":"Vibo Valentia","local":"Вибо-Валентия","country":"IT","lat":38.676,"lon":16.101,"pop":19263,"tz":"Europe/Rome"},{"id":2970110,"name":"Vendome","local":"Вандом","country":"FR","lat":47.793,"lon":1.066,"pop":19226,"tz":"Europe/Paris"},{"id":3427388,"name":"Villa Ocampo","local":"Villa Ocampo","country":"AR","lat":-28.487,"lon":-59.354,"pop":19101,"tz":"America/Argentina/Cordoba"},{"id":3832653,"name":"Villa Paula de Sarmiento","local":"Villa Paula de Sarmiento","country":"AR","lat":-31.493,"lon":-68.538,"pop":19092,"tz":"America/Argentina/San_Juan"},{"id":2664855,"name":"Vaernamo","local":"Вернамо","country":"SE","lat":57.186,"lon":14.04,"pop":19061,"tz":"Europe/Stockholm"},{"id":689564,"name":"Vynnyky","local":"Винники","country":"UA","lat":49.817,"lon":24.144,"pop":19037,"tz":"Europe/Kyiv"},{"id":2522767,"name":"Villabate","local":"Villabate","country":"IT","lat":38.078,"lon":13.443,"pop":19031,"tz":"Europe/Rome"},{"id":1486913,"name":"Vorgashor","local":"Воргашор","country":"RU","lat":67.584,"lon":63.794,"pop":18946,"tz":"Europe/Moscow"},{"id":2732475,"name":"Vilar de Andorinho","local":"Vilar de Andorinho","country":"PT","lat":41.106,"lon":-8.586,"pop":18944,"tz":"Europe/Lisbon"},{"id":3650301,"name":"Valencia","local":"Valencia","country":"EC","lat":-0.953,"lon":-79.355,"pop":18841,"tz":"America/Guayaquil"},{"id":3445442,"name":"Varzelandia","local":"Varzelândia","country":"BR","lat":-15.701,"lon":-44.028,"pop":18840,"tz":"America/Sao_Paulo"},{"id":3770955,"name":"Villa Rica","local":"Villa Rica","country":"CO","lat":2.514,"lon":-76.849,"pop":18761,"tz":"America/Bogota"},{"id":13526999,"name":"Vura","local":"Vura","country":"SB","lat":-9.442,"lon":159.989,"pop":18753,"tz":"Pacific/Guadalcanal"},{"id":470338,"name":"Vyselki","local":"Выселки","country":"RU","lat":45.581,"lon":39.657,"pop":18746,"tz":"Europe/Moscow"},{"id":418444,"name":"Varnamkhvast","local":"Varnāmkhvāst","country":"IR","lat":32.356,"lon":51.379,"pop":18700,"tz":"Asia/Tehran"},{"id":3665934,"name":"Villanueva","local":"Villanueva","country":"CO","lat":10.608,"lon":-72.979,"pop":18699,"tz":"America/Bogota"},{"id":298088,"name":"Varto","local":"Varto","country":"TR","lat":39.174,"lon":41.454,"pop":18691,"tz":"Europe/Istanbul"},{"id":2970148,"name":"Vence","local":"Ванс","country":"FR","lat":43.723,"lon":7.112,"pop":18668,"tz":"Europe/Paris"},{"id":1253512,"name":"Valabhipur","local":"Valabhīpur","country":"IN","lat":21.889,"lon":71.879,"pop":18663,"tz":"Asia/Kolkata"},{"id":3207197,"name":"Vellmar","local":"Фельмар","country":"DE","lat":51.358,"lon":9.48,"pop":18623,"tz":"Europe/Berlin"},{"id":2119932,"name":"Vanino","local":"Ванино","country":"RU","lat":49.098,"lon":140.252,"pop":18618,"tz":"Asia/Vladivostok"},{"id":477301,"name":"Valday","local":"Валдай","country":"RU","lat":57.977,"lon":33.252,"pop":18549,"tz":"Europe/Moscow"},{"id":689159,"name":"Volochysk","local":"Волочиск","country":"UA","lat":49.536,"lon":26.207,"pop":18474,"tz":"Europe/Kyiv"},{"id":11463882,"name":"Vazhakulam","local":"Vāzhakulam","country":"IN","lat":10.094,"lon":76.42,"pop":18358,"tz":"Asia/Kolkata"},{"id":2261639,"name":"Vila Franca de Xira","local":"Vila Franca de Xira","country":"PT","lat":38.955,"lon":-8.99,"pop":18355,"tz":"Europe/Lisbon"},{"id":13561926,"name":"Vanchiglietta","local":"Vanchiglietta","country":"IT","lat":45.074,"lon":7.718,"pop":18300,"tz":"Europe/Rome"},{"id":11439700,"name":"Vengikkal","local":"Vengikkal","country":"IN","lat":12.264,"lon":79.067,"pop":18244,"tz":"Asia/Kolkata"},{"id":8858111,"name":"Villa del Prado 2da Seccion","local":"Villa del Prado 2da Sección","country":"MX","lat":32.424,"lon":-116.972,"pop":18226,"tz":"America/Tijuana"},{"id":784424,"name":"Vinica","local":"Виница","country":"MK","lat":41.881,"lon":22.511,"pop":18218,"tz":"Europe/Skopje"},{"id":3901504,"name":"Villa Yapacani","local":"Villa Yapacaní","country":"BO","lat":-17.4,"lon":-63.833,"pop":18187,"tz":"America/La_Paz"},{"id":1253219,"name":"Vettaikkaranpudur","local":"Vettaikkaranpudur","country":"IN","lat":10.562,"lon":76.913,"pop":18128,"tz":"Asia/Kolkata"},{"id":3042968,"name":"Veresegyhaz","local":"Veresegyház","country":"HU","lat":47.646,"lon":19.295,"pop":18122,"tz":"Europe/Budapest"},{"id":1680040,"name":"Veruela","local":"Veruela","country":"PH","lat":8.073,"lon":125.956,"pop":18114,"tz":"Asia/Manila"},{"id":3385504,"name":"Varjota","local":"Varjota","country":"BR","lat":-4.194,"lon":-40.477,"pop":18105,"tz":"America/Fortaleza"},{"id":593063,"name":"Visaginas","local":"Висагинас","country":"LT","lat":55.597,"lon":26.44,"pop":18024,"tz":"Europe/Vilnius"},{"id":1253595,"name":"Vadamadurai","local":"Вадамадураи","country":"IN","lat":10.441,"lon":78.098,"pop":18015,"tz":"Asia/Kolkata"},{"id":4266307,"name":"Vincennes","local":"Винсенс","country":"US","lat":38.677,"lon":-87.529,"pop":18012,"tz":"America/Chicago"},{"id":690254,"name":"Velyka Kokhnivka","local":"Velikaya Kokhnovka","country":"UA","lat":49.117,"lon":33.48,"pop":17966,"tz":"Europe/Kyiv"},{"id":3187609,"name":"Visoko","local":"Високо","country":"BA","lat":43.989,"lon":18.178,"pop":17890,"tz":"Europe/Sarajevo"},{"id":1253578,"name":"Vadlapudi","local":"Vadlapūdi","country":"IN","lat":14.311,"lon":79.804,"pop":17881,"tz":"Asia/Kolkata"},{"id":2610020,"name":"Vordingborg","local":"Вордингборг","country":"DK","lat":55.008,"lon":11.911,"pop":17868,"tz":"Europe/Copenhagen"},{"id":8948694,"name":"V.S.K.Valasai (Dindigul-Dist.)","local":"В.С.К.Валасаи","country":"IN","lat":10.315,"lon":78.151,"pop":17865,"tz":"Asia/Kolkata"},{"id":1512423,"name":"Vobkent Shahri","local":"Vobkent Shahri","country":"UZ","lat":40.0,"lon":64.502,"pop":17800,"tz":"Asia/Samarkand"},{"id":12688212,"name":"Vrouo","local":"Vrouo","country":"CI","lat":7.696,"lon":-6.554,"pop":17716,"tz":"Africa/Abidjan"},{"id":472750,"name":"Volgorechensk","local":"Волгореченск","country":"RU","lat":57.444,"lon":41.163,"pop":17700,"tz":"Europe/Moscow"},{"id":2745677,"name":"Velp","local":"Velp","country":"NL","lat":51.995,"lon":5.974,"pop":17669,"tz":"Europe/Amsterdam"},{"id":1253087,"name":"Vittal","local":"Vittal","country":"IN","lat":12.763,"lon":75.099,"pop":17618,"tz":"Asia/Kolkata"},{"id":2968546,"name":"Villeneuve-le-Roi","local":"Вильнев-ле-Руа","country":"FR","lat":48.737,"lon":2.401,"pop":17575,"tz":"Europe/Paris"},{"id":12519184,"name":"Vazhapadi","local":"Vazhapadi","country":"IN","lat":11.655,"lon":78.401,"pop":17559,"tz":"Asia/Kolkata"},{"id":942683,"name":"Vredefort","local":"Vredefort","country":"ZA","lat":-27.008,"lon":27.365,"pop":17515,"tz":"Africa/Johannesburg"},{"id":12156873,"name":"Victoria Village","local":"Victoria Village","country":"CA","lat":43.728,"lon":-79.315,"pop":17510,"tz":"America/Toronto"},{"id":11148100,"name":"Villa Sarmiento","local":"Villa Sarmiento","country":"AR","lat":-34.634,"lon":-58.57,"pop":17481,"tz":"America/Argentina/Buenos_Aires"},{"id":3114183,"name":"Valdebernardo","local":"Valdebernardo","country":"ES","lat":40.401,"lon":-3.621,"pop":17471,"tz":"Europe/Madrid"},{"id":3062257,"name":"Vysocany","local":"Vysočany","country":"CZ","lat":50.109,"lon":14.517,"pop":17465,"tz":"Europe/Prague"},{"id":689304,"name":"Vovchansk","local":"Волчанск","country":"UA","lat":50.291,"lon":36.941,"pop":17459,"tz":"Europe/Kyiv"},{"id":12070764,"name":"Valley East","local":"Valley East","country":"CA","lat":46.645,"lon":-80.997,"pop":17451,"tz":"America/Toronto"},{"id":3444997,"name":"Viradouro","local":"Viradouro","country":"BR","lat":-20.873,"lon":-48.297,"pop":17414,"tz":"America/Sao_Paulo"},{"id":587577,"name":"Viljandi","local":"Вильянди","country":"EE","lat":58.363,"lon":25.592,"pop":17407,"tz":"Europe/Tallinn"},{"id":3457426,"name":"Vila Bela da Santissima Trindade","local":"Vila Bela da Santíssima Trindade","country":"BR","lat":-15.008,"lon":-59.951,"pop":17384,"tz":"America/Cuiaba"},{"id":3105805,"name":"Vilaseca","local":"Вила-сека","country":"ES","lat":42.062,"lon":2.255,"pop":17305,"tz":"Europe/Madrid"},{"id":3164920,"name":"Valenza","local":"Валенса","country":"IT","lat":45.012,"lon":8.644,"pop":17305,"tz":"Europe/Rome"},{"id":2967879,"name":"Vitre","local":"Витрэ","country":"FR","lat":48.123,"lon":-1.21,"pop":17266,"tz":"Europe/Paris"},{"id":3385230,"name":"Venturosa","local":"Venturosa","country":"BR","lat":-8.575,"lon":-36.874,"pop":17251,"tz":"America/Recife"},{"id":2967856,"name":"Vitry-le-Francois","local":"Витри-ле-Франсуа","country":"FR","lat":48.725,"lon":4.584,"pop":17250,"tz":"Europe/Paris"},{"id":1253132,"name":"Virajpet","local":"Virajpet","country":"IN","lat":12.196,"lon":75.805,"pop":17246,"tz":"Asia/Kolkata"},{"id":3700164,"name":"Veracruz","local":"Veracruz","country":"PA","lat":8.893,"lon":-79.623,"pop":17144,"tz":"America/Panama"},{"id":3164080,"name":"Vimodrone","local":"Vimodrone","country":"IT","lat":45.515,"lon":9.288,"pop":17072,"tz":"Europe/Rome"},{"id":2784548,"name":"Vise","local":"Visé","country":"BE","lat":50.738,"lon":5.699,"pop":17054,"tz":"Europe/Brussels"},{"id":3105148,"name":"Villaquilambre","local":"Вильякиламбре","country":"ES","lat":42.647,"lon":-5.558,"pop":17013,"tz":"Europe/Madrid"},{"id":13353507,"name":"Varam","local":"Varam","country":"IN","lat":11.9,"lon":75.413,"pop":17008,"tz":"Asia/Kolkata"},{"id":2732438,"name":"Vila Real","local":"Вила-Реал","country":"PT","lat":41.3,"lon":-7.743,"pop":17001,"tz":"Europe/Lisbon"},{"id":6173404,"name":"Vanier","local":"Ванье","country":"CA","lat":45.44,"lon":-75.665,"pop":17000,"tz":"America/Toronto"},{"id":11655531,"name":"Valvachatottam","local":"Valvachatottam","country":"IN","lat":8.28,"lon":77.256,"pop":16965,"tz":"Asia/Kolkata"},{"id":11550012,"name":"Vinateros","local":"Vinateros","country":"ES","lat":40.405,"lon":-3.642,"pop":16885,"tz":"Europe/Madrid"},{"id":1253454,"name":"Vandalur","local":"Vandalūr","country":"IN","lat":12.892,"lon":80.081,"pop":16852,"tz":"Asia/Kolkata"},{"id":3832662,"name":"Villa Nueva","local":"Villa Nueva","country":"AR","lat":-32.433,"lon":-63.248,"pop":16841,"tz":"America/Argentina/Cordoba"},{"id":3105247,"name":"Villanueva de la Canada","local":"Villanueva de la Cañada","country":"ES","lat":40.447,"lon":-4.004,"pop":16804,"tz":"Europe/Madrid"},{"id":611182,"name":"Vasil'yevo","local":"Васильево","country":"RU","lat":55.83,"lon":48.717,"pop":16800,"tz":"Europe/Moscow"},{"id":2969796,"name":"Verneuil-sur-Seine","local":"Верней-сюр-Сен","country":"FR","lat":48.974,"lon":1.965,"pop":16790,"tz":"Europe/Paris"},{"id":2969692,"name":"Verrieres-le-Buisson","local":"Веррьер-ле-Бюиссон","country":"FR","lat":48.746,"lon":2.268,"pop":16789,"tz":"Europe/Paris"},{"id":13494689,"name":"Vathirairuppu","local":"Vathirairuppu","country":"IN","lat":9.635,"lon":77.639,"pop":16784,"tz":"Asia/Kolkata"},{"id":1054257,"name":"Vatomandry","local":"Vatomandry","country":"MG","lat":-19.33,"lon":48.978,"pop":16771,"tz":"Indian/Antananarivo"},{"id":1253481,"name":"Vallam","local":"Vallam","country":"IN","lat":10.72,"lon":79.06,"pop":16758,"tz":"Asia/Kolkata"},{"id":1253610,"name":"Vada","local":"Vāda","country":"IN","lat":19.653,"lon":73.148,"pop":16750,"tz":"Asia/Kolkata"},{"id":1253490,"name":"Valavanur","local":"Валаванур","country":"IN","lat":11.921,"lon":79.582,"pop":16745,"tz":"Asia/Kolkata"},{"id":2817202,"name":"Vilshofen","local":"Vilshofen","country":"DE","lat":48.627,"lon":13.192,"pop":16695,"tz":"Europe/Berlin"},{"id":11556470,"name":"Virnur","local":"Vīrnūr","country":"IN","lat":11.844,"lon":77.847,"pop":16665,"tz":"Asia/Kolkata"},{"id":632542,"name":"Vammala","local":"Ваммала","country":"FI","lat":61.333,"lon":22.9,"pop":16635,"tz":"Europe/Helsinki"},{"id":1253559,"name":"Vaghodia","local":"Vāghodia","country":"IN","lat":22.305,"lon":73.4,"pop":16604,"tz":"Asia/Kolkata"},{"id":3534432,"name":"Venezuela","local":"Venezuela","country":"CU","lat":21.737,"lon":-78.793,"pop":16601,"tz":"America/Havana"},{"id":4791160,"name":"Vienna","local":"Вијена","country":"US","lat":38.901,"lon":-77.265,"pop":16522,"tz":"America/New_York"},{"id":2610789,"name":"Vallensbaek","local":"Vallensbæk","country":"DK","lat":55.622,"lon":12.385,"pop":16515,"tz":"Europe/Copenhagen"},{"id":471457,"name":"Vostryakovo","local":"Востряково","country":"RU","lat":55.399,"lon":37.808,"pop":16509,"tz":"Europe/Moscow"},{"id":4176409,"name":"Vero Beach","local":"Виро Бич","country":"US","lat":27.639,"lon":-80.397,"pop":16358,"tz":"America/New_York"},{"id":3104475,"name":"Viveiro","local":"Viveiro","country":"ES","lat":43.662,"lon":-7.593,"pop":16238,"tz":"Europe/Madrid"},{"id":2817813,"name":"Vechelde","local":"Фехельде","country":"DE","lat":52.26,"lon":10.365,"pop":16219,"tz":"Europe/Berlin"},{"id":2967934,"name":"Viroflay","local":"Вирофле","country":"FR","lat":48.801,"lon":2.162,"pop":16137,"tz":"Europe/Paris"},{"id":3164919,"name":"Valenzano","local":"Valenzano","country":"IT","lat":41.044,"lon":16.885,"pop":16101,"tz":"Europe/Rome"},{"id":2261697,"name":"Vialonga","local":"Vialonga","country":"PT","lat":38.872,"lon":-9.078,"pop":16088,"tz":"Europe/Lisbon"},{"id":8443029,"name":"Vaniyamkulam","local":"Vāniyamkulam","country":"IN","lat":10.783,"lon":76.334,"pop":16085,"tz":"Asia/Kolkata"},{"id":663100,"name":"Vatra Dornei","local":"Ватра-Дорней","country":"RO","lat":47.35,"lon":25.367,"pop":16054,"tz":"Europe/Bucharest"},{"id":11592296,"name":"Viewpark","local":"В'юпарк","country":"GB","lat":55.827,"lon":-4.057,"pop":16020,"tz":"Europe/London"},{"id":1943235,"name":"Venilale","local":"Venilale","country":"TL","lat":-8.643,"lon":126.378,"pop":16000,"tz":"Asia/Dili"},{"id":11461741,"name":"Vellakkinar","local":"Vellakkinar","country":"IN","lat":11.074,"lon":76.957,"pop":15998,"tz":"Asia/Kolkata"},{"id":4005857,"name":"Vicente Guerrero","local":"Vicente Guerrero","country":"MX","lat":23.733,"lon":-103.982,"pop":15982,"tz":"America/Monterrey"},{"id":1253374,"name":"Vaso","local":"Vaso","country":"IN","lat":22.661,"lon":72.755,"pop":15934,"tz":"Asia/Kolkata"},{"id":2664050,"name":"Vaestra Froelunda","local":"Västra Frölunda","country":"SE","lat":57.647,"lon":11.929,"pop":15924,"tz":"Europe/Stockholm"},{"id":5406421,"name":"Vincent","local":"Vincent","country":"US","lat":34.501,"lon":-118.116,"pop":15922,"tz":"America/Los_Angeles"},{"id":7262464,"name":"Vincent","local":"Винсент","country":"US","lat":34.098,"lon":-117.924,"pop":15922,"tz":"America/Los_Angeles"},{"id":2968368,"name":"Villers-les-Nancy","local":"Виллер-ле-Нанси","country":"FR","lat":48.673,"lon":6.153,"pop":15899,"tz":"Europe/Paris"},{"id":3164241,"name":"Villafranca di Verona","local":"Villafranca di Verona","country":"IT","lat":45.354,"lon":10.845,"pop":15895,"tz":"Europe/Rome"},{"id":10490140,"name":"Vijayapuri North","local":"Vijayapuri North","country":"IN","lat":16.585,"lon":79.32,"pop":15887,"tz":"Asia/Kolkata"},{"id":252270,"name":"Vari","local":"Vári","country":"GR","lat":37.833,"lon":23.803,"pop":15855,"tz":"Europe/Athens"},{"id":11462894,"name":"Vadakkekkad","local":"Vadakkēkkād","country":"IN","lat":10.664,"lon":76.003,"pop":15811,"tz":"Asia/Kolkata"},{"id":2732785,"name":"Vermoim","local":"Vermoim","country":"PT","lat":41.243,"lon":-8.607,"pop":15764,"tz":"Europe/Lisbon"},{"id":475881,"name":"Venev","local":"Венёв","country":"RU","lat":54.351,"lon":38.263,"pop":15700,"tz":"Europe/Moscow"},{"id":1253606,"name":"Vadakancheri","local":"Vadakāncheri","country":"IN","lat":10.66,"lon":76.247,"pop":15674,"tz":"Asia/Kolkata"},{"id":13494611,"name":"Vidyavihar","local":"Vidyavihar","country":"IN","lat":28.368,"lon":75.584,"pop":15644,"tz":"Asia/Kolkata"},{"id":1053765,"name":"Vohipeno","local":"Vohipeno","country":"MG","lat":-22.35,"lon":47.833,"pop":15622,"tz":"Indian/Antananarivo"},{"id":6318953,"name":"Vitoria do Xingu","local":"Vitória do Xingu","country":"BR","lat":-2.88,"lon":-52.01,"pop":15607,"tz":"America/Santarem"},{"id":6690791,"name":"Vallcarca","local":"Vallcarca","country":"ES","lat":41.412,"lon":2.144,"pop":15571,"tz":"Europe/Madrid"},{"id":8858122,"name":"Venceremos","local":"Venceremos","country":"MX","lat":20.551,"lon":-100.398,"pop":15538,"tz":"America/Mexico_City"},{"id":1253217,"name":"Vettavalam","local":"Vettavalam","country":"IN","lat":12.108,"lon":79.245,"pop":15506,"tz":"Asia/Kolkata"},{"id":7911309,"name":"Vaestaboland","local":"Väståboland","country":"FI","lat":60.3,"lon":22.3,"pop":15498,"tz":"Europe/Helsinki"},{"id":3514785,"name":"Venustiano Carranza","local":"Venustiano Carranza","country":"MX","lat":16.339,"lon":-92.563,"pop":15496,"tz":"America/Mexico_City"},{"id":689916,"name":"Verkhnodniprovsk","local":"Верхнеднепровск","country":"UA","lat":48.656,"lon":34.326,"pop":15477,"tz":"Europe/Kyiv"},{"id":7118109,"name":"Velserbroek","local":"Velserbroek","country":"NL","lat":52.433,"lon":4.662,"pop":15420,"tz":"Europe/Amsterdam"},{"id":662699,"name":"Viseu de Sus","local":"Vişeu de Sus","country":"RO","lat":47.708,"lon":24.43,"pop":15349,"tz":"Europe/Bucharest"},{"id":11186049,"name":"Villukuri","local":"Villukuri","country":"IN","lat":8.223,"lon":77.373,"pop":15304,"tz":"Asia/Kolkata"},{"id":3526785,"name":"Villa Independencia","local":"Villa Independencia","country":"MX","lat":20.055,"lon":-97.052,"pop":15297,"tz":"America/Mexico_City"},