[{"id":1253573,"name":"Vadodara","names":{"en":"Vadodara","de":"Vadodara","fr":"Vadodara","mr":"वडोदरा","nl":"Vadodara","pt":"Vadodara","ro":"Vadodara","sv":"Vadodara","ja":"ヴァドダラ","ka":"ვადოდარა","ar":"فادودارا","ta":"வடோதரா","uk":"Вадодара","fa":"وادودارا","ko":"바도다라","hi":"वड़ोदरा","te":"వడోదర","bn":"বড়োদরা","ru":"Вадодара","zh":"巴罗达","hy":"Վադոդարա","ky":"Вaдодaрa","ps":"ودودره","ur":"وادودارا","tt":"Вадодара","id":"Vadodara","uz":"Vadodara","ms":"Vadodara","el":"Βαντόνταρα","it":"Vadodara","es":"Vadodara","vi":"Vadodara","sw":"Vadodara","cs":"Vadódara","tg":"Вадодара","th":"วโฑทรา","tl":"Vadodara","pl":"Vadodara","tr":"Vadodara"},"country":"IN","lat":22.29941,"lon":73.20812,"pop":1822221,"search_terms":["βαντόνταρα","বড়োদরা","ودودره","вадодара","वडोदरा","ヴァドーダラー","바도다라","فادودارا","वड़ोदरा","وادودارا","வடோதரா","վադոդարա","вaдодaрa","vadódara","巴罗达","วโฑทรา","vadodara","ვადოდარა","వడోదర","ヴァドダラ"]},{"id":2761369,"name":"Vienna","names":{"en":"Vienna","de":"Wien","cs":"Vídeň","fr":"Vienne","es":"Viena","it":"Vienna","el":"Βιέννη","pt":"Viena","sv":"Wien","ru":"Вена","pl":"Wiedeń","th":"เวียนนา","am":"ቪየና","ko":"빈","tr":"Viyana","nl":"Wenen","uk":"Відень","ro":"Viena","ar":"فيينا","zh":"維也納","az":"Vyana","fa":"وین","hi":"वियना","hy":"Վիեննա","ja":"ウィーン","ka":"ვენა","kk":"Вена","ku":"Viyana","tt":"Вена","vi":"Viên"},"country":"AT","lat":48.20849,"lon":16.37208,"pop":1691468,"search_terms":["وین","вена","維也納","viyana","비엔나","vienna","vídeň","wenen","վիեննա","vienne","viên","वियना","빈","فيينا","vyana","เวียนนา","ቪየና","відень","ウィーン","βιέννη","viena","wiedeń","wien","ვენა"]},{"id":3625549,"name":"Valencia","names":{"en":"Valencia","de":"Valencia","es":"Valencia","fr":"Valencia","ja":"バレンシア","nl":"Valencia","pl":"Valencia","pt":"Valência","ru":"Валенсия","ar":"بلنسية","fa":"والنسیا، ونزوئلا","hy":"Վալենսիա","ka":"ვალენსია","ko":"발렌시아","ky":"Валенсия","uk":"Валенсія","ur":"والیںسیا، کارابوبو","uz":"Valensiya","zh":"巴伦西亚"},"country":"VE","lat":10.16153,"lon":-68.00044,"pop":1619470,"search_terms":["վալենսիա","ვალენსია","발렌시아","valensiya","バレンシア","valência","والنسیا، ونزوئلا","بلنسية","валенсія","巴伦西亚","valencia","والیںسیا، کارابوبو","валенсия"]},{"id":1253133,"name":"Virar","names":{"en":"Virar"},"country":"IN","lat":19.45591,"lon":72.81136,"pop":1222390,"search_terms":["virar"]},{"id":1253405,"name":"Varanasi","names":{"en":"Varanasi","de":"Varanasi","es":"Benarés","fr":"Vârânasî","hi":"वाराणसी","id":"Varanasi","it":"Varanasi","ja":"ワーラーナシー","ko":"바라나시","nl":"Benares","pl":"Waranasi","pt":"Varanasi","ro":"Varanasi","ru":"Варанаси","sv":"Varanasi","ta":"வாரணாசி","th":"พาราณสี","fa":"وارانسی","ar":"وارانسي","ur":"وارانسی"},"country":"IN","lat":25.31668,"lon":83.01041,"pop":1164404,"search_terms":["พาราณสี","варанаси","काशी","benarés","واراناسی","바라나시","وارانسی","வாரணாசி","فاراناسي","waranasi","kashi","वाराणसी","benares","وارانسي","بنارس","ワーラーナシー","varanasi","vârânasî"]},{"id":1253184,"name":"Vijayawada","names":{"en":"Vijayawada","pl":"Widźajawada","de":"Vijayawada","ja":"ヴィジャヤワーダ","nl":"Vijayawada","pt":"Vijayawada","ro":"Vijayawada","ta":"விஜயவாடா","ru":"Виджаявада","te":"బెజవాడ","hi":"विजयवाडा","bn":"বিজযবাডা","ar":"فجاياوادا","cs":"Vidžajavada","fa":"وجیاوادا","ka":"ვიჯაიავადა","ko":"비자야와다","mr":"विजयवाडा","ps":"ويجیواډا","uk":"Віджаявада","ur":"وجئے واڑہ","zh":"维杰亚瓦达","fr":"Vijayawada"},"country":"IN","lat":16.50745,"lon":80.6466,"pop":1143232,"search_terms":["ヴィジャヤワーダ","وجئے واڑہ","ویجیاوادا","బెజవాడ","vidžajavada","vijayawada","فجاياوادا","віджаявада","விசயவாடா","виджаявада","விஜயவாடா","ვიჯაიავადა","विजयवाडा","widźajawada","বিজযবাডা","विजयवाड़ा","비자야와다","وجیاوادا","ويجیواډا","维杰亚瓦达","فيجاياوادا"]},{"id":1253102,"name":"Visakhapatnam","names":{"en":"Visakhapatnam","es":"Visakhapatnam","de":"Visakhapatnam","ja":"ヴィシャーカパトナム","nl":"Vishakhapatnam","pt":"Vishakhapatnam","ro":"Vishakhapatnam","sv":"Visakhapatnam","ta":"விசாகப்பட்டினம்","te":"విశాఖపట్నం","ru":"Вишакхапатнам","ar":"فشاكاباتنم","fa":"وشاکاپاتنم","hi":"विशाखापत्तनम","ka":"ვიშაქაპატნამი","ko":"비샤카파트남","mr":"विशाखापट्टणम","uk":"Вішакхапатнам","ur":"وشاکھاپٹنم","zh":"维沙卡帕特南","fr":"Visakhapatnam","ky":"Вишакхапатнaм","ps":"ويساکاپټنام","th":"วิศาขาปัตตนัม"},"country":"IN","lat":17.68009,"lon":83.20161,"pop":1063178,"search_terms":["ヴィシャーカパトナム","비샤카파트남","вішакхапатнам","وشاکاپاتنم","vishakhapatnam","вишакхапатнaм","وشاکھاپٹنم","فيشاخاباتنام","вишакхапатнам","و شاکھا پٹنم","فشاكاباتنم","ვიშაქაპატნამი","فيساخاباتنام","วิศาขาปัตตนัม","ويساکاپټنام","விசாகப்பட்டினம்","visakhapatnam","విశాఖపట్నం","ویساکاپاتنام","维沙卡帕特南","विशाखापट्टणम","وشاکھ پٹنم","विशाखापत्तनम"]},{"id":472045,"name":"Voronezh","names":{"en":"Voronezh","de":"Woronesch","cs":"Voroněž","fr":"Voronej","ko":"보로네시","nl":"Voronezj","pl":"Woroneż","ru":"Воронеж","it":"Voronezh","ja":"ヴォロネジ","pt":"Voronezh"},"country":"RU","lat":51.66833,"lon":39.19204,"pop":1047549,"search_terms":["voronezj","보로네시","woronesch","woroneż","voronezh","воронежская область","воронеж","ヴォロネジ","voronež","voronej","voroněž"]},{"id":472757,"name":"Volgograd","names":{"en":"Volgograd","es":"Volgogrado","ru":"Волгоград","de":"Wolgograd","nl":"Wolgograd","ka":"ვოლგოგრადი","tt":"Волгоград","az":"Volqoqrad","ta":"வோல்கோகிராட்","th":"วอลโกกราด","ar":"فولغوغراد","tg":"Волгоград","mr":"वोल्गोग्राद","ko":"볼고그라드","el":"Βόλγκογκραντ","kk":"Волгоград","ur":"وولگو گراد","uk":"Волгоград","fa":"ولگوگراد","ja":"ヴォルゴグラード","pl":"Wołgograd","pt":"Volgogrado","hy":"Վոլգոգրադ","zh":"伏尔加格勒","hi":"वोल्गोग्राद","fr":"Volgograd","ky":"Волгоград"},"country":"RU","lat":48.71378,"lon":44.4976,"pop":1013533,"search_terms":["volgogrado","வோல்கோகிராட்","ვოლგოგრადი","볼고그라드","ولگوگراد","volqoqrad","վոլգոգրադ","فولغوغراد","伏尔加格勒","وولگو گراد","волгоград","wolgograd","wołgograd","ヴォルゴグラード","βόλγκογκραντ","वोल्गोग्राद","volgograd","วอลโกกราด"]},{"id":1931681,"name":"Victoria","names":{"en":"Victoria"},"country":"HK","lat":22.2875,"lon":114.14417,"pop":956800,"search_terms":["victoria"]},{"id":1651944,"name":"Vientiane","names":{"en":"Vientiane","de":"Vientiane","es":"Vientiane","fr":"Vientiane","id":"Vientiane","it":"Vientiane","ja":"ヴィエンチャン市","ko":"비엔티안","nl":"Vientiane","pl":"Wientian","pt":"Vienciana","ru":"Вьентьян","sv":"Vientiane","th":"เวียงจันทน์","zh":"永珍","fa":"وینتیان","el":"Βιεντιάν","tg":"Вентян","am":"ቭየንትዬን","sw":"Vientiane","ur":"وینتیان","uk":"Вєнтьян","kk":"Вьентьян","ka":"ვიენტიანი","az":"Vyentyan","hy":"Վիենտյան","ta":"வியஞ்சான்","mr":"व्हिआंतियान","bn":"ভিয়েনতিয়েন","ar":"فيينتيان","ky":"Вьентьян","uz":"Ventyan"},"country":"LA","lat":17.96667,"lon":102.6,"pop":840940,"search_terms":["ventyan","vientiane","vyentyan","비엔티안","ቭየንትዬን","wientian","վիենտյան","فيينتيان","เวียงจันทน์","вьентьян","வியஞ்சான்","βιεντιάν","vienciana","вєнтьян","永珍","وینتیان","व्हिआंतियान","вентян","ვიენტიანი","vientián","ヴィエンチャン","ヴィエンチャン市","ভিয়েনতিয়েন"]},{"id":2509954,"name":"Valencia","names":{"en":"Valencia","it":"Valencia","es":"Valencia","fr":"Valence","de":"Valencia","pl":"Walencja","ar":"بلنسية","cs":"Valencie","id":"Valencia","ja":"バレンシア","ka":"ვალენსია","nl":"Valencia","pt":"Valência","ro":"Valencia","ru":"Валенсия","sv":"Valencia","tl":"València","tr":"Valensiya","vi":"Valencia","th":"บาเลนเซีย","uk":"Валенсія","hy":"Վալենսիա","mr":"वालेन्सिया","kk":"Валенсия","az":"Valensiya","ta":"வாலேன்சியா","ko":"발렌시아","el":"Βαλένθια","fa":"والنسیا","zh":"巴倫西亞","uz":"Valensiya","ky":"Валенсия","ur":"ویلنسیا"},"country":"ES","lat":39.47391,"lon":-0.37966,"pop":824340,"search_terms":["ویلنسیا","valence","валенсия","valència","walencja","والنسیا","발렌시아","வாலேன்சியா","バレンシア","валенсія","valencie","ვალენსია","บาเลนเซีย","վալենսիա","valensiya","वालेन्सिया","valência","بلنسية","valencia","valenza","巴倫西亞","βαλένθια"]},{"id":1562798,"name":"Vinh","names":{"en":"Vinh","ar":"فينه","ja":"ヴィン","ko":"빈","uk":"Вінь","ru":"Винь","zh":"荣市","fa":"وین، ویتنام","th":"วิญ","ur":"وینہ","sv":"Vinh","es":"Vinh","pt":"Vinh","it":"Vinh"},"country":"VN","lat":18.67337,"lon":105.69232,"pop":790000,"search_terms":["빈","ヴィン","وین، ویتنام","فينه","вінь","vinh","วิญ","وینہ","винь","荣市"]},{"id":1680102,"name":"Valenzuela","names":{"en":"Valenzuela"},"country":"PH","lat":14.7,"lon":120.9667,"pop":725173,"search_terms":["valenzuela"]},{"id":6173331,"name":"Vancouver","names":{"en":"Vancouver","de":"Vancouver","es":"Vancouver","cs":"Vancouver","el":"Βανκούβερ","fa":"ونکوور، بریتیش کلمبیا","fr":"Vancouver","id":"Vancouver","it":"Vancouver","ja":"バンクーバー","ko":"밴쿠버","nl":"Vancouver","pl":"Vancouver","pt":"Vancôver","ru":"Ванкувер","sv":"Vancouver","tr":"Vancouver","vi":"Vancouver","ro":"Vancouver","ku":"Venkûver","ka":"ვანკუვერი","hy":"Վանկուվեր","uk":"Ванкувер","th":"แวนคูเวอร์","bn":"ভ্যানকুভার","az":"Vankuver","ar":"فانكوفر","ta":"வான்கூவர்","mr":"व्हँकूव्हर","tt":"Ванкувер","hi":"वैंकूवर","zh":"溫哥華","uz":"Vankuver","am":"ቫንኩቨር","kk":"Ванкувер","ky":"Ванкувер","ur":"وینکوور"},"country":"CA","lat":49.24966,"lon":-123.11934,"pop":662248,"search_terms":["バンクーバー市","βανκούβερ","فانكوفر","vancôver","ვანკუვერი","ভ্যানকুভার","ቫንኩቨር","밴쿠버","वैंकूवर","ванкувер","வான்கூவர்","ونکوور","व्हँकूव्हर","վանկուվեր","vankuver","venkûver","溫哥華","vancouver","وینکوور","バンクーバー","ونکوور، بریتیش کلمبیا","แวนคูเวอร์"]},{"id":3587902,"name":"Villa Nueva","names":{"en":"Villa Nueva","ru":"Вилья-Нуэва","ur":"ویا نویوا، گواتیمالا","zh":"比亞努埃瓦"},"country":"GT","lat":14.52512,"lon":-90.58544,"pop":618397,"search_terms":["вилья-нуэва","比亞努埃瓦","villa nueva","ویا نویوا، گواتیمالا"]},{"id":2013348,"name":"Vladivostok","names":{"en":"Vladivostok","de":"Wladiwostok","es":"Vladivostok","cs":"Vladivostok","el":"Βλαδιβοστόκ","fa":"ولادی‌وستوک","fr":"Vladivostok","it":"Vladivostok","ja":"ウラジオストク","ko":"블라디보스토크","ms":"Vladivostok","nl":"Vladivostok","pl":"Władywostok","pt":"Vladivostok","ro":"Vladivostok","ru":"Владивосток","sv":"Vladivostok","uk":"Владивосток","uz":"Vladivostok","zh":"海参崴","id":"Vladivostok","tr":"Vladivostok","vi":"Vladivostok","ur":"ولادیوستوک","hi":"व्लादिवोस्तोक","mr":"व्लादिवोस्तॉक","ar":"فلاديفوستوك","ka":"ვლადივოსტოკი","hy":"Վլադիվոստոկ","ky":"Владивосток","ta":"விலாடிவொஸ்டொக்","th":"วลาดีวอสตอค","tt":"Владивосток"},"country":"RU","lat":43.10562,"lon":131.87353,"pop":604901,"search_terms":["władywostok","海参崴","วลาดีวอสตอค","vladivostok","व्लादिवोस्तॉक","ولادی‌وستوک","விலாடிவொஸ்டொக்","владивосток","海參崴","블라디보스토크","վլադիվոստոկ","فلاديفوستوك","βλαδιβοστόκ","ვლადივოსტოკი","wladiwostok","व्लादिवोस्तोक","ولادیوستوک","ウラジオストク","владик"]},{"id":593116,"name":"Vilnius","names":{"en":"Vilnius","de":"Vilnius","fr":"Vilnius","es":"Vilna","pl":"Wilno","am":"ቪልኒውስ","ar":"فيلنيوس","cs":"Vilnius","el":"Βίλνιους","fa":"ویلنیوس","hy":"Վիլնյուս","id":"Vilnius","it":"Vilnius","ja":"ヴィリニュス","ka":"ვილნიუსი","ko":"빌뉴스","ku":"Vilnius","ro":"Вильнюс","nl":"Vilnius","pt":"Vilnius","ru":"Вильнюс","sv":"Vilnius","sw":"Vilnius","th":"วิลนีอุส","tr":"Vilnüs","uk":"Вільнюс","zh":"维尔纽斯","ky":"Вильнюс","tg":"Вилнюс","ta":"வில்னியஸ்","az":"Vilnüs","ur":"ولنیس","kk":"Вильнюс","mr":"व्हिल्नियस","bn":"ভিলনিউস"},"country":"LT","lat":54.68916,"lon":25.2798,"pop":542366,"search_terms":["ቪልኒውስ","ویلنیوس","ولنیس","vilnüs","فيلنيوس","วิลนีอุส","вільнюс","wilno","ヴィリニュス","βιλνιους","վիլնյուս","βίλνα","вилнюс","வில்னியஸ்","βίλνιους","вильнюс","ভিলনিউস","vilnius","व्हिल्नियस","빌뉴스","ვილნიუსი","维尔纽斯","vilna"]},{"id":298117,"name":"Van","names":{"en":"Van","ku":"Wan","tr":"Van","ru":"Ван","th":"วาน","ka":"ვანი","ja":"ヴァン","uk":"Ван","hy":"Վան","ar":"وان","ta":"வான்","ko":"반","kk":"Ван","fa":"وان","zh":"凡城","de":"Van","fr":"Van","el":"Βαν","ur":"وان، ترکی"},"country":"TR","lat":38.49457,"lon":43.38323,"pop":525016,"search_terms":["ван","wan","վան","வான்","ヴァン","وان","반","วาน","van","وان، ترکی","ვანი","βαν","凡城"]},{"id":4011743,"name":"Victoria de Durango","names":{"en":"Victoria de Durango","fr":"Durango","es":"Victoria de Durango","pl":"Durango","de":"Victoria de Durango","it":"Durango","ko":"두랑고","nl":"Durango","pt":"Durango","sv":"Durango","ru":"Дуранго","fa":"دورانگو، دورانگو","ja":"ドゥランゴ","ka":"დურანგო","ur":"دورانگو سٹی","zh":"杜兰戈"},"country":"MX","lat":24.02032,"lon":-104.65756,"pop":518709,"search_terms":["виктория-де-дуранго","杜兰戈","дуранго","두랑고","durango","ドゥランゴ","دورانگو سٹی","victoria de durango","დურანგო","دورانگو، دورانگو"]},{"id":3666304,"name":"Valledupar","names":{"en":"Valledupar","de":"Valledupar","es":"Valledupar","sv":"Valledupar","pl":"Valledupar","fr":"Valledupar","ar":"توربو","it":"Valledupar","pt":"Valledupar","ko":"예두파르","ja":"バジェドゥパル","ru":"Вальедупар","zh":"巴耶杜帕尔","ka":"ვალიედუპარი"},"country":"CO","lat":10.46538,"lon":-73.2531,"pop":490075,"search_terms":["valledupar","ვალიედუპარი","バジェドゥパル","вальедупар","توربو","예두파르","巴耶杜帕尔"]},{"id":1253286,"name":"Vellore","names":{"en":"Vellore","pl":"Vellore","de":"Velur","ja":"ヴェールール","sv":"Vellore","ta":"வேலூர்","ru":"Веллор","ko":"벨로르","hi":"वेल्लोर","mr":"वेल्लूर","zh":"韦洛尔","ur":"ویلور"},"country":"IN","lat":12.9184,"lon":79.13255,"pop":484690,"search_terms":["ヴェールール","vellore","velur","वेल्लोर","வேலூர்","веллуру","韦洛尔","ویلور","веллор","वेल्लूर","벨로르"]},{"id":944385,"name":"Vereeniging","names":{"en":"Vereeniging","ru":"Феринихинг","ja":"フェリーニヒング","ko":"페레이니힝","uk":"Ферінігінг","zh":"弗里尼欣","fa":"ورینیگینگ","ar":"فيرينخن"},"country":"ZA","lat":-26.67313,"lon":27.92615,"pop":474681,"search_terms":["페레이니힝","弗里尼欣","フェリーニヒング","vereeniging","феринихинг","ورینیگینگ","فيرينخن","ферінігінг","فيرينجنغ"]},{"id":1562414,"name":"Vung Tau","names":{"en":"Vung Tau","fr":"Cap-Saint-Jacques","es":"Vung Tau","pl":"Vung Tau","de":"Vung Tau","it":"Vung Tau","pt":"Vũng Tàu","sv":"Vung Tau","vi":"Vũng Tàu","ja":"ブンタウ","ru":"Вунгтау","ko":"붕따우"},"country":"VN","lat":10.34599,"lon":107.08426,"pop":464860,"search_terms":["ブンタウ","vũng tàu","붕따우","cap-saint-jacques","vung tau","вунгтау"]},{"id":4791259,"name":"Virginia Beach","names":{"en":"Virginia Beach","de":"Virginia Beach","ko":"버지니아비치","nl":"Virginia Beach","pt":"Virginia Beach","sv":"Virginia Beach","es":"Virginia Beach","pl":"Virginia Beach","fr":"Virginia Beach","id":"Virginia Beach","ja":"バージニアビーチ","ru":"Вирджиния-Бич","fa":"ویرجینیا بیچ، ویرجینیا","ar":"فرجينيا بيتش","mr":"व्हर्जिनिया बीच","uk":"Вірджинія-Біч","el":"Βιρτζίνια Μπιτς","hy":"Վիրջինիա Բիչ","ka":"ვირჯინია-ბიჩი","zh":"維珍尼亞海灘","az":"Virciniya Biç","th":"เวอร์จิเนียบีช","bn":"ভার্জিনিয়া বিচ","ky":"Виргиния-Бич","ur":"ورجینیا بیچ"},"country":"US","lat":36.85293,"lon":-75.97799,"pop":454808,"search_terms":["ورجینیا بیچ","ভার্জিনিয়া বিচ","вірджинія-біч","व्हर्जिनिया बीच","верджиния-бич","վիրջինիա բիչ","버지니아비치","virginian bch","เวอร์จิเนียบีช","virginia beach","فرجينيا بيتش","виргиния-бич","バージニアビーチ","вирджиния-бич","βιρτζίνια μπιτς","維珍尼亞海灘","virciniya biç","ვირჯინია-ბიჩი","ویرجینیا بیچ، ویرجینیا"]},{"id":3827407,"name":"Venustiano Carranza","names":{"en":"Venustiano Carranza"},"country":"MX","lat":19.44361,"lon":-99.10499,"pop":430978,"search_terms":["venustiano carranza"]},{"id":3514783,"name":"Veracruz","names":{"en":"Veracruz","de":"Veracruz","es":"Veracruz","fr":"Veracruz","nl":"Veracruz Llave","pl":"Veracruz","pt":"Veracruz","sv":"Veracruz","ru":"Веракрус","uk":"Веракрус","fa":"وراکروس","ka":"ვერაკრუსი","mr":"बेराक्रुथ","th":"เวรากรุซ","ko":"베라크루스","ja":"ベラクルス","ta":"வேராகுரூசு","zh":"韦拉克鲁斯"},"country":"MX","lat":19.18095,"lon":-96.1429,"pop":428323,"search_terms":["베라크루스","veracruz","ベラクルス","ვერაკრუსი","வேராகுரூசு","韦拉克鲁斯","veracruz llave","เวรากรุซ","веракрус","وراکروس","बेराक्रुथ"]},{"id":1562820,"name":"Viet Tri","names":{"en":"Viet Tri"},"country":"VN","lat":21.32274,"lon":105.40198,"pop":415280,"search_terms":["viet tri"]},{"id":3445026,"name":"Vila Velha","names":{"en":"Vila Velha","pl":"Vila Velha","es":"Vila Velha","de":"Vila Velha","pt":"Vila Velha","ro":"Vila Velha","sv":"Vila Velha","ru":"Вила-Велья","ja":"ヴィラ・ヴェーリャ","kk":"Вила-Велья","ko":"빌라벨랴","zh":"韦利亚镇"},"country":"BR","lat":-20.32972,"lon":-40.2925,"pop":394930,"search_terms":["ヴィラ・ヴェーリャ","韦利亚镇","вила-велья","빌라벨랴","vila velha"]},{"id":689558,"name":"Vinnytsya","names":{"en":"Vinnytsya","ru":"Винница","uk":"Вінниця","fr":"Vinnytsia","pl":"Winnica","zh":"文尼察","ja":"ヴィーンヌィツャ","ko":"빈니차","fa":"وینیتسا","el":"Βίνιτσα","ar":"فينيتسا","de":"Winnyzja","it":"Vinnycja"},"country":"UA","lat":49.2322,"lon":28.46871,"pop":369839,"search_terms":["وینیتسا","文尼察","винница","vinnytsya","vinnytsia","βίνιτσα","winnica","빈니차","вінниця","vinnycja","فينيتسا","ヴィーンヌィツャ","winnyzja","vinniza"]},{"id":620127,"name":"Vitebsk","names":{"en":"Vitebsk","de":"Wizebsk","ja":"ヴィーツェプスク","ko":"비쳅스크","nl":"Vitebsk","pl":"Witebsk","ru":"Витебск","sv":"Vitsebsk","es":"Vítebsk","fr":"Vitebsk","it":"Vicebsk","pt":"Vitebsk","uk":"Вітебськ","hy":"Վիտեբսկ","th":"วีเต็บสค์","ar":"فيتيبسك","el":"Βιτσέμπσκ","zh":"维捷布斯克","ka":"ვიტებსკი"},"country":"BY","lat":55.1904,"lon":30.2049,"pop":358395,"search_terms":["ヴィーツェプスク","վիտեբսկ","vítebsk","vitebsk","wizebsk","فيتيبسك","vicebsk","维捷布斯克","vitsyebsk","vitsebsk","วีเต็บสค์","비쳅스크","витебск","ვიტებსკი","witebsk","вітебськ","βιτσέμπσκ"]},{"id":473247,"name":"Vladimir","names":{"en":"Vladimir","de":"Wladimir","fr":"Vladimir","ko":"블라디미르","nl":"Vladimir","pl":"Władymir","uk":"Володимир","es":"Vladímir","el":"Βλαντίμιρ","ru":"Владимир","ja":"ウラジーミル","fa":"ولادیمیر","ar":"فلاديمير","ku":"Vladîmîr","ka":"ვლადიმირი","zh":"弗拉基米尔","ky":"Владимир шаары","ur":"ولادیمیر"},"country":"RU","lat":56.13854,"lon":40.39976,"pop":357024,"search_terms":["ولادیمیر","владимир шаары","владимир","vladímir","vladîmîr","володимир","βλαντίμιρ","wladimir","弗拉基米尔","블라디미르","włodzimierz","ウラジーミル","فلاديمير","władymir","vladimir","ვლადიმირი"]},{"id":3514670,"name":"Villahermosa","names":{"en":"Villahermosa","fr":"Villahermosa","id":"Villahermosa","nl":"Villahermosa","pl":"Villahermosa","pt":"Villahermosa","es":"Villahermosa","sv":"Villahermosa","de":"Villahermosa","ru":"Вильяэрмоса","fa":"ویلاهرمسا، تاباسکو","ja":"ビヤエルモサ","ka":"ვილიაერმოსა","ko":"비야에르모사","ar":"فيلاهيرموسا","zh":"比亚埃尔莫萨","ur":"بیائرموسا"},"country":"MX","lat":17.98625,"lon":-92.93928,"pop":353577,"search_terms":["ビヤエルモサ","ვილიაერმოსა","вильяэрмоса","비야에르모사","villa hermosa","بیائرموسا","ویلاهرمسا، تاباسکو","比亚埃尔莫萨","villahermosa","فيلاهيرموسا"]},{"id":3868121,"name":"Vina del Mar","names":{"en":"Vina del Mar","pl":"Viña del Mar","de":"Viña del Mar","es":"Viña del Mar","fr":"Viña del Mar","it":"Viña del Mar","ja":"ビニャ・デル・マール","pt":"Viña del Mar","sv":"Viña del Mar","ru":"Винья-дель-Мар","ko":"비냐델마르","zh":"比尼亚德尔马","ar":"فينيا ديل مار","uk":"Віня-дель-Мар","az":"Vina del Mar","fa":"وینیا دل مار","hy":"Վինյա դել Մար"},"country":"CL","lat":-33.02457,"lon":-71.55183,"pop":334248,"search_terms":["وینیا دل مار","винья-дель-мар","віня-дель-мар","viña del mar","比尼亚德尔马","vina del mar","فينيا ديل مار","비냐델마르","վինյա դել մար","ビニャ・デル・マール"]},{"id":1275701,"name":"Vijayapura","names":{"en":"Vijayapura","fr":"Bîjâpur","pl":"Bidźapur","sv":"Vijapura","ru":"Биджапур","ta":"பிஜாப்பூர்","hi":"बीजापुर","fa":"بیجاپور","ur":"بیجاپور","zh":"比贾布尔","id":"Vijayapura","ja":"ビジャープル","ko":"비자푸르","mr":"विजापूर"},"country":"IN","lat":16.82442,"lon":75.71537,"pop":327427,"search_terms":["bidźapur","vijayapura","bîjâpur","विजापूर","பிஜாப்பூர்","vijapura","bijapur","बीजापुर","비자푸르","ビジャープル","بیجاپور","比贾布尔","биджапур"]},{"id":472231,"name":"Volzhsky","names":{"en":"Volzhsky","ru":"Волжский","de":"Wolschski"},"country":"RU","lat":48.78583,"lon":44.77973,"pop":323293,"search_terms":["волжский","volzhsky","wolschski"]},{"id":6173577,"name":"Vaughan","names":{"en":"Vaughan","ar":"فاوجان","uk":"Вон","ur":"وان، انٹاریو","ja":"ヴォーン","ru":"Вон","zh":"旺市","ko":"본","fa":"وان"},"country":"CA","lat":43.8361,"lon":-79.49827,"pop":323103,"search_terms":["ヴォーン","вон","وان","旺市","فاوجان","본","وان، انٹاریو","vaughan"]},{"id":3665900,"name":"Villavicencio","names":{"en":"Villavicencio","de":"Villavicencio","es":"Villavicencio","fr":"Villavicencio","sv":"Villavicencio","pl":"Villavicencio","uk":"Віявісенсіо","ja":"ビリャビセンシオ","ko":"비야비센시오","pt":"Villavicêncio","ru":"Вильявисенсио","zh":"比亚维森西奥","ka":"ვილიავისენსიო"},"country":"CO","lat":4.13238,"lon":-73.62564,"pop":321717,"search_terms":["villavicêncio","비야비센시오","villavicencio","ვილიავისენსიო","віявісенсіо","вильявисенсио","比亚维森西奥","ビリャビセンシオ"]},{"id":726050,"name":"Varna","names":{"en":"Varna","de":"Warna","es":"Varna","ar":"فارنا","cs":"Varna","el":"Βάρνα","fr":"Varna","ja":"ヴァルナ","nl":"Varna","pl":"Warna","ro":"Varna","ru":"Варна","sv":"Varna","tr":"Varna","zh":"瓦爾納","id":"Varna","it":"Varna","ka":"ვარნა","pt":"Varna","hy":"Վառնա","uk":"Варна","fa":"وارنا","ko":"바르나","mr":"व्हर्ना","th":"วาร์นา","kk":"Варна","ur":"وارنا","ky":"Варна"},"country":"BG","lat":43.21912,"lon":27.91024,"pop":318737,"search_terms":["варна","바르나","व्हर्ना","varna","վառնա","วาร์นา","فارنا","وارنا","ვარნა","βάρνα","ヴァルナ","warna","瓦爾納"]},{"id":3445451,"name":"Varzea Grande","names":{"en":"Varzea Grande","pt":"Várzea Grande","sv":"Várzea Grande"},"country":"BR","lat":-15.64667,"lon":-56.1325,"pop":314627,"search_terms":["varzea grande","várzea grande"]},{"id":3444924,"name":"Vitoria","names":{"en":"Vitoria","fr":"Vitória","es":"Vitória","de":"Vitória","pl":"Vitória","id":"Vitória","it":"Vitória","ja":"ビトリア","pt":"Vitória","ru":"Витория","sv":"Vitória","tg":"Витория","tr":"Vitória"},"country":"BR","lat":-20.31944,"lon":-40.33778,"pop":312656,"search_terms":["vitoria","ビトリア","vitória","витория"]},{"id":472459,"name":"Vologda","names":{"en":"Vologda","de":"Wologda","ko":"볼로그다","pl":"Wołogda","nl":"Vologda","id":"Vologda","ja":"ヴォログダ","ru":"Вологда","es":"Vólogda","fa":"وولوگدا","ar":"فولوغدا","hy":"Վոլոգդա","zh":"沃洛格达","ka":"ვოლოგდა","th":"โวลอกดา","ky":"Bологда","ur":"ولوگدا"},"country":"RU","lat":59.2239,"lon":39.88398,"pop":312420,"search_terms":["ولوگدا","ヴォログダ","вологда","bологда","wologda","볼로그다","ვოლოგდა","wołogda","vologda","فولوغدا","وولوگدا","โวลอกดา","վոլոգդա","vólogda","沃洛格达"]},{"id":473249,"name":"Vladikavkaz","names":{"en":"Vladikavkaz","de":"Wladikawkas","es":"Vladicáucaso","el":"Βλαντικαβκάζ","fr":"Vladikavkaz","ja":"ウラジカフカス","ka":"ვლადიკავკაზი","ko":"블라디캅카스","pl":"Władykaukaz","pt":"Vladikavkaz","ru":"Владикавказ","sv":"Vladikavkaz","nl":"Vladikavkaz","zh":"弗拉季高加索","ar":"فلاديقوقاز","uk":"Владикавказ","fa":"ولادی‌قفقاز","hy":"Վլադիկավկազ","tg":"Владикавказ","az":"Vladiqafqaz","ky":"Владикавказ","ur":"ولادیقفقاز"},"country":"RU","lat":43.04101,"lon":44.66986,"pop":306258,"search_terms":["владикавказ","vladiqafqaz","орджоникидзе","블라디캅카스","władykaukaz","فلاديقوقاز","ウラジカフカス","弗拉季高加索","վլադիկավկազ","ولادیقفقاز","wladikawkas","vladicáucaso","ვლადიკავკაზი","βλαντικαβκάζ","vladikavkaz","ولادی‌قفقاز"]},{"id":3106672,"name":"Valladolid","names":{"en":"Valladolid","de":"Valladolid","es":"Valladolid","ar":"بلد الوليد","cs":"Valladolid","fr":"Valladolid","id":"Valladolid","it":"Valladolid","ja":"バリャドリッド","nl":"Valladolid","pl":"Valladolid","pt":"Valladolid","sv":"Valladolid","ru":"Вальядолид","uk":"Вальядолід","tl":"Lungsod ng Valladolid","th":"บายาโดลิด","mr":"वायादोलिद","el":"Βαγιαδολίδ","ka":"ვალიადოლიდი","ko":"바야돌리드","kk":"Вальядолид","fa":"وایادولید","zh":"巴利亚多利德","uz":"Valyadolid"},"country":"ES","lat":41.65541,"lon":-4.72353,"pop":300618,"search_terms":["pincia","वायादोलिद","وایادولید","вальядолид","valladolid","巴利亚多利德","pucela","بلد الوليد","바야돌리드","バリャドリッド","ვალიადოლიდი","βαγιαδολίδ","valyadolid","lungsod ng valladolid","вальядолід","บายาโดลิด"]},{"id":3105976,"name":"Vigo","names":{"en":"Vigo","de":"Vigo","es":"Vigo","fa":"بیگو","fr":"Vigo","it":"Vigo","ja":"ビーゴ","nl":"Vigo","pl":"Vigo","pt":"Vigo","ro":"Vigo","sv":"Vigo","ar":"فيغو","cs":"Vigo","tr":"Vigo","ru":"Виго","el":"Βίγο","hy":"Վիգո","ka":"ვიგო","kk":"Виго","ko":"비고","ky":"Виго шаары","th":"บีโก","uk":"Віго","ur":"ویگو","zh":"維戈"},"country":"ES","lat":42.23282,"lon":-8.72264,"pop":293642,"search_terms":["فيغو","بیگو","ვიგო","виго шаары","ویگو","비고","vigo","維戈","บีโก","βίγο","виго","віго","վիգո","ビーゴ"]},{"id":6174041,"name":"Victoria","names":{"en":"Victoria","de":"Victoria","fr":"Victoria","ja":"ヴィクトリア","nl":"Victoria","pl":"Victoria","pt":"Victoria","sv":"Victoria","cs":"Victoria","id":"Victoria","ro":"Victoria","ru":"Виктория","vi":"Victoria","es":"Victoria","ka":"ვიქტორია","th":"วิกตอเรีย","ar":"فكتوريا","ta":"விக்டோரியா","mr":"व्हिक्टोरिया","ur":"وکٹوریا، برٹش کولمبیا","uk":"Вікторія","fa":"ویکتوریا، بریتیش کلمبیا","ko":"빅토리아","el":"Βικτώρια Βρετανικής Κολομβίας","zh":"維多利亞","az":"Viktoriya","hy":"Վիկտորիա"},"country":"CA","lat":48.4359,"lon":-123.35155,"pop":289625,"search_terms":["व्हिक्टोरिया","ვიქტორია","вікторія","վիկտորիա","виктория","فكتوريا","ビクトリア","ویکتوریا، بریتیش کلمبیا","وکٹوریا، برٹش کولمبیا","ヴィクトリア","빅토리아","維多利亞","விக்டோரியா","วิกตอเรีย","victoria","βικτώρια βρετανικής κολομβίας","viktoriya"]},{"id":3445156,"name":"Viamao","names":{"en":"Viamao","es":"Viamão","fr":"Viamão","pt":"Viamão","kk":"Виаман","ru":"Виаман","zh":"维亚芒"},"country":"BR","lat":-30.08111,"lon":-51.02333,"pop":285269,"search_terms":["维亚芒","viamão","viamao","виаман"]},{"id":3868626,"name":"Valparaiso","names":{"en":"Valparaiso","pl":"Valparaíso","es":"Valparaíso","fr":"Valparaiso","de":"Valparaíso","it":"Valparaíso","ja":"バルパライソ","nl":"Valparaíso","pt":"Valparaíso","ru":"Вальпараисо","sv":"Valparaíso","tr":"Valparaiso","fa":"والپارایزو","ko":"발파라이소","ka":"ვალპარაისო","az":"Valparaiso","tl":"Valparaiso","sw":"Valparaiso","el":"Βαλπαραΐσο","th":"บัลปาราอีโซ","mr":"बाल्परेझो","ar":"فالبارايسو","uk":"Вальпараїсо","zh":"瓦尔帕莱索","am":"ቫልፓራይሶ","bn":"ভালপারাইসো","hi":"वालपाराईसो","hy":"Վալպարաիսո","ms":"Balparaiso","ta":"வல்பெய்ரசோவ்","te":"వల్పరైజో","tt":"Вальпараисо","ur":"بآلپارایسو","ky":"Вальпараисо"},"country":"CL","lat":-33.036,"lon":-71.62963,"pop":282448,"search_terms":["వల్పరైజో","valparaiso","والپارایزو","вальпараисо","발파라이소","فالبارايسو","վալպարաիսո","βαλπαραΐσο","बाल्परेझो","வல்பெய்ரசோவ்","瓦尔帕莱索","valparaíso","вальпараїсо","ভালপারাইসো","บัลปาราอีโซ","ვალპარაისო","वालपाराईसो","バルパライソ","بآلپارایسو","balparaiso","ቫልፓራይሶ"]},{"id":3444876,"name":"Volta Redonda","names":{"en":"Volta Redonda","pt":"Volta Redonda","kk":"Волта-Редонда","ru":"Волта-Редонда","zh":"沃尔塔雷东达"},"country":"BR","lat":-22.52306,"lon":-44.10417,"pop":279898,"search_terms":["волта-редонда","volta redonda","v redonda","沃尔塔雷东达"]},{"id":3164527,"name":"Verona","names":{"en":"Verona","de":"Verona","es":"Verona","ar":"فيرونا","cs":"Verona","fr":"Vérone","id":"Verona","it":"Verona","ja":"ヴェローナ","nl":"Verona","pl":"Werona","pt":"Verona","ro":"Verona","ru":"Верона","sv":"Verona","fa":"ورونا","hi":"वेरोना","tr":"Verona","ko":"베로나"},"country":"IT","lat":45.43854,"lon":10.9938,"pop":258031,"search_terms":["فيرونا","ヴェローナ","werona","ورونا","베로나","verona","vérone","वेरोना","верона"]},{"id":3444914,"name":"Vitoria da Conquista","names":{"en":"Vitoria da Conquista","es":"Vitória da Conquista","pt":"Vitória da Conquista","ro":"Vitória da Conquista","ru":"Витория-да-Конкиста","ja":"ヴィトリア・ダ・コンキスタ","ka":"ვიტორია-და-კონკისტა","kk":"Витория-да-Конкиста","zh":"维多利亚-达孔基斯塔"},"country":"BR","lat":-14.86611,"lon":-40.83944,"pop":253137,"search_terms":["ვიტორია-და-კონკისტა","维多利亚-达孔基斯塔","витория-да-конкиста","vitoria da conquista","ヴィトリア・ダ・コンキスタ","vitória da conquista"]},{"id":632453,"name":"Vantaa","names":{"en":"Vantaa","ru":"Вантаа","sv":"Vanda","ja":"ヴァンター","ko":"반타","uk":"Вантаа","ka":"ვანტაა","el":"Βάνταα","mr":"व्हंटा","ar":"فانتا","zh":"万塔","fa":"وانتا"},"country":"FI","lat":60.29414,"lon":25.04099,"pop":252724,"search_terms":["βάνταα","فانتا","وانتا","व्हंटा","вантаа","vantaa","vanda","ვანტაა","ヴァンター","반타","万塔"]},{"id":944986,"name":"Vanderbijlpark","names":{"en":"Vanderbijlpark","ar":"فاندربيجلبارك","fa":"وندربیجلپرک","mr":"फांडरबीलपार्क","ru":"Фандербейлпарк","zh":"范德拜爾帕克"},"country":"ZA","lat":-26.71171,"lon":27.83795,"pop":246754,"search_terms":["وندربیجلپرک","फांडरबीलपार्क","фандербейлпарк","范德拜爾帕克","vanderbijlpark","فاندربيجلبارك"]},{"id":3625542,"name":"Valera","names":{"en":"Valera","es":"Valera","pl":"Valera","ru":"Валера","ka":"ვალერა","zh":"巴莱拉"},"country":"VE","lat":9.31778,"lon":-70.60361,"pop":244708,"search_terms":["巴莱拉","ვალერა","валера","valera"]},{"id":688758,"name":"Vyhurivshchyna-Troyeshchyna","names":{"en":"Vyhurivshchyna-Troyeshchyna","uk":"Вигурівщина-Троєщина","ru":"Троещина"},"country":"UA","lat":50.51137,"lon":30.60251,"pop":240000,"search_terms":["троєщина","troieshchyna","виґурівщина-троєщина","vyhurivshchyna-troieshchyna","вигурівщина-троєщина","vygurivshchyna-troieshchyna","vyhurivshchyna-troyeshchyna","vygurivshchyna-troyeshchyna","вигуровщина-троещина","троещина"]},{"id":1253084,"name":"Vizianagaram","names":{"en":"Vizianagaram","pt":"Vizianagaram","sv":"Vizianagaram","ta":"விஜயநகரம்","ko":"비지아나가람","ar":"فيزينجارم","te":"విజయనగరం","ru":"Визианагарам","zh":"维济亚讷格勒姆","hi":"विजयनगरम","ja":"ヴィジャヤナガラム","mr":"विजयनगरम","ur":"وجایانگرم"},"country":"IN","lat":18.11692,"lon":83.41148,"pop":228720,"search_terms":["وجایانگرم","فيزينجارم","విజయనగరం","vizianagaram","ヴィジャヤナガラム","维济亚讷格勒姆","визианагарам","비지아나가람","விஜயநகரம்","विजयनगरम"]},{"id":519336,"name":"Velikiy Novgorod","names":{"en":"Velikiy Novgorod","de":"Weliki Nowgorod","es":"Veliki Nóvgorod","el":"Νόβγκοροντ","fr":"Novgorod","it":"Novgorod","ja":"ノヴゴロド","ko":"벨리키노브고로드","nl":"Veliki Novgorod","pl":"Nowogród Wielki","ru":"Великий Новгород","sv":"Novgorod","tr":"Veliki Novgorod","uk":"Великий Новгород","ka":"დიდი ნოვგოროდი","ro":"Veliki Novgorod","cs":"Novgorod","vi":"Veliky Novgorod"},"country":"RU","lat":58.52131,"lon":31.27104,"pop":222868,"search_terms":["weliki nowgorod","νόβγκοροντ","nowogród wielki","veliki novgorod","დიდი ნოვგოროდი","великий новгород","ノヴゴロド","velikiy novgorod","novgorod","벨리키노브고로드","veliky novgorod","velikij novgorod","veliki nóvgorod"]},{"id":470451,"name":"Vykhino-Zhulebino","names":{"en":"Vykhino-Zhulebino","ru":"Выхино-Жулебино"},"country":"RU","lat":55.70196,"lon":37.81178,"pop":216000,"search_terms":["выхино-жулебино","vykhino-zhulebino"]},{"id":1562818,"name":"Viet Yen","names":{"en":"Viet Yen","it":"Distretto di Viet Yen","ur":"ویت ین ضلع","ru":"Вьетйен"},"country":"VN","lat":21.26667,"lon":106.13333,"pop":205900,"search_terms":["viet yen","distretto di viet yen","вьетйен","ویت ین ضلع","việt yên district"]},{"id":8504949,"name":"Vasyl'evsky Ostrov","names":{"en":"Vasyl'evsky Ostrov","ru":"Васильевский остров"},"country":"RU","lat":59.94091,"lon":30.25377,"pop":203058,"search_terms":["vasyl'evsky ostrov","васильевский остров","василеостровский"]},{"id":6318856,"name":"Valparaiso de Goias","names":{"en":"Valparaiso de Goias"},"country":"BR","lat":-16.06583,"lon":-47.97861,"pop":198861,"search_terms":["valparaiso de goias"]},{"id":5814616,"name":"Vancouver","names":{"en":"Vancouver","de":"Vancouver","es":"Vancouver","nl":"Vancouver","pt":"Vancouver","pl":"Vancouver","cs":"Vancouver","id":"Vancouver","fr":"Vancouver","ru":"Ванкувер","el":"Βανκούβερ","ja":"バンクーバー","fa":"ونکوور، واشینگتن","uk":"Ванкувер","th":"แวนคูเวอร์","ko":"밴쿠버","zh":"溫哥華","ar":"فانكوفر","ur":"وینکوور، واشنگٹن"},"country":"US","lat":45.63873,"lon":-122.66149,"pop":196442,"search_terms":["βανκούβερ","ванкувер","溫哥華","فانكوفر","vancouver","バンクーバー","وینکوور، واشنگٹن","밴쿠버","ونکوور، واشینگتن","แวนคูเวอร์"]},{"id":13607660,"name":"Verhunskyi","names":{"en":"Verhunskyi","uk":"Вергунський район"},"country":"UA","lat":48.58573,"lon":39.37158,"pop":185593,"search_terms":["вергунський район","вергунський","verhunskyi rayon","verhunskyi"]},{"id":1562773,"name":"Vinh Chau","names":{"en":"Vinh Chau","vi":"Vĩnh Châu"},"country":"VN","lat":9.32439,"lon":105.98006,"pop":183918,"search_terms":["vinh chau","vĩnh châu"]},{"id":112214,"name":"Varamin","names":{"en":"Varamin","ru":"Варамин","fa":"ورامين"},"country":"IR","lat":35.3242,"lon":51.6457,"pop":179603,"search_terms":["ورامين","varamin","варамин"]},{"id":1253237,"name":"Veraval","names":{"en":"Veraval"},"country":"IN","lat":20.9077,"lon":70.36786,"pop":171121,"search_terms":["veraval"]},{"id":11962431,"name":"Vila Andrade","names":{"en":"Vila Andrade"},"country":"BR","lat":-23.62623,"lon":-46.72828,"pop":168669,"search_terms":["vila andrade"]},{"id":472761,"name":"Volgodonsk","names":{"en":"Volgodonsk","de":"Wolgodonsk","pl":"Wołgodońsk","ru":"Волгодонск","nl":"Volgodonsk","ko":"볼고돈스크","ar":"فولغودونسك","az":"Volqodonsk","uk":"Волгодонськ","ja":"ヴォルゴドンスク","fa":"ولگودونسک","zh":"伏尔加顿斯克","tt":"Волгодонск"},"country":"RU","lat":47.51141,"lon":42.15269,"pop":167731,"search_terms":["volgodonsk","볼고돈스크","ヴォルゴドンスク","伏尔加顿斯克","volqodonsk","волгодонськ","wołgodońsk","فولغودونسك","ولگودونسک","wolgodonsk","волгодонск"]},{"id":7279741,"name":"Vapi","names":{"en":"Vapi","fa":"وپی","hi":"वापी","mr":"वापी","ta":"வாப்பி","ur":"واپی"},"country":"IN","lat":20.37175,"lon":72.90493,"pop":163630,"search_terms":["वापी","واپی","vapi","وپی","வாப்பி"]},{"id":1253200,"name":"Vidisha","names":{"en":"Vidisha","sv":"Vidisha","bn":"বিদিশা","cs":"Vidiša","hi":"विदिशा","ja":"ヴィディシャー","mr":"विदिशा","ur":"ودیشا","pl":"Vidisa","ru":"Видиша","zh":"毗底沙","de":"Vidisha","pt":"Vidisha","uk":"Відіша","ms":"Vidisha","el":"Βιντίσα","it":"Vidisha","es":"Vidisha","ar":"فيديشا","vi":"Vidisha","fa":"ودیشا","nl":"Vidisha","fr":"Vidisha","ko":"비디샤","ta":"விதிஷா","te":"విదిశ"},"country":"IN","lat":23.52604,"lon":77.81092,"pop":155951,"search_terms":["vidisha","ودیشا","vidiša","видиша","விதிஷா","ヴィディシャー","비디샤","విదిశ","vidisa","বিদিশা","βιντίσα","毗底沙","विदिशा","فيديشا","відіша"]},{"id":3587923,"name":"Villa Canales","names":{"en":"Villa Canales"},"country":"GT","lat":14.48285,"lon":-90.53425,"pop":155423,"search_terms":["villa canales"]},{"id":298033,"name":"Viransehir","names":{"en":"Viransehir","de":"Viranşehir","pl":"Viranşehir","ru":"Вираншехире"},"country":"TR","lat":37.22349,"lon":39.75519,"pop":154163,"search_terms":["viranşehir","viransehir","вираншехире"]},{"id":3625515,"name":"Valle de La Pascua","names":{"en":"Valle de La Pascua","ru":"Валье-де-Ла-Паскуа"},"country":"VE","lat":9.21554,"lon":-66.00734,"pop":153136,"search_terms":["valle de la pascua","валье-де-ла-паскуа"]},{"id":942470,"name":"Vryheid","names":{"en":"Vryheid"},"country":"ZA","lat":-27.76952,"lon":30.79165,"pop":150012,"search_terms":["vryheid"]},{"id":5405288,"name":"Valencia","names":{"en":"Valencia"},"country":"US","lat":34.44361,"lon":-118.60953,"pop":148456,"search_terms":["valencia"]},{"id":13546324,"name":"Villeray-Saint-Michel-Parc-Extension","names":{"en":"Villeray-Saint-Michel-Parc-Extension"},"country":"CA","lat":45.55869,"lon":-73.60535,"pop":144814,"search_terms":["villeray-saint-michel-parc-extension"]},{"id":11962432,"name":"Vila Curuca","names":{"en":"Vila Curuca"},"country":"BR","lat":-23.51,"lon":-46.41566,"pop":140673,"search_terms":["vila curuca"]},{"id":1253468,"name":"Valsad","names":{"en":"Valsad"},"country":"IN","lat":20.61013,"lon":72.93428,"pop":139764,"search_terms":["valsad"]},{"id":1562693,"name":"Vinh Long","names":{"en":"Vinh Long"},"country":"VN","lat":10.25369,"lon":105.9722,"pop":137870,"search_terms":["vinh long","vĩnh long"]},{"id":3445487,"name":"Varginha","names":{"en":"Varginha","kk":"Варжинья","ru":"Варжинья","zh":"瓦尔任阿"},"country":"BR","lat":-21.55139,"lon":-45.43028,"pop":136467,"search_terms":["瓦尔任阿","варжинья","varginha"]},{"id":5405693,"name":"Van Nuys","names":{"en":"Van Nuys","ar":"فان نويس","fa":"ون نایز، لس‌آنجلس","ko":"밴나이즈","ru":"Ван-Найс"},"country":"US","lat":34.18667,"lon":-118.44897,"pop":136443,"search_terms":["van nuys","ван-найс","ون نایز، لس‌آنجلس","밴나이즈","فان نويس"]},{"id":11962412,"name":"Vila Jacui","names":{"en":"Vila Jacui"},"country":"BR","lat":-23.50262,"lon":-46.46156,"pop":134189,"search_terms":["vila jacui"]},{"id":3384987,"name":"Vitoria de Santo Antao","names":{"en":"Vitoria de Santo Antao","ru":"Витория-де-Санту-Антан"},"country":"BR","lat":-8.11806,"lon":-35.29139,"pop":134084,"search_terms":["vitoria de santo antao","витория-де-санту-антан"]},{"id":3868707,"name":"Valdivia","names":{"en":"Valdivia","es":"Valdivia","pl":"Valdivia","de":"Valdivia","fr":"Valdivia","it":"Valdivia","nl":"Valdivia","pt":"Valdivia","sv":"Valdivia","tr":"Valdivia","ru":"Вальдивия","uk":"Вальдівія","ja":"バルディビア","th":"บัลดีเบีย","el":"Βαλδίβια","ka":"ვალდივია","zh":"瓦尔迪维亚","ko":"발디비아","fa":"بالدیبیا"},"country":"CL","lat":-39.81422,"lon":-73.24589,"pop":133419,"search_terms":["вальдивия","بالدیبیا","瓦尔迪维亚","バルディビア","발디비아","valdivia","βαλδίβια","บัลดีเบีย","ვალდივია","вальдівія"]},{"id":11947989,"name":"Villa Mercedes","names":{"en":"Villa Mercedes","es":"Villa Mercedes"},"country":"CL","lat":-37.40421,"lon":-71.97949,"pop":131936,"search_terms":["villa mercedes"]},{"id":2968254,"name":"Villeurbanne","names":{"en":"Villeurbanne","fr":"Villeurbanne","pl":"Villeurbanne","de":"Villeurbanne","it":"Villeurbanne","nl":"Villeurbanne","pt":"Villeurbanne","ru":"Вийёрбан","sv":"Villeurbanne","ar":"فيلوربان","fa":"ویوربن","uk":"Віллербанн","ka":"ვილერბანი","ja":"ヴィルールバンヌ","zh":"维勒班","ko":"빌뢰르반","ur":"ویوربن"},"country":"FR","lat":45.76601,"lon":4.8795,"pop":131445,"search_terms":["ვილერბანი","빌뢰르반","вийёрбан","ویوربن","维勒班","віллербанн","فيلوربان","ヴィルールバンヌ","villeurbanne"]},{"id":5406567,"name":"Visalia","names":{"en":"Visalia","de":"Visalia","fr":"Visalia","fa":"ویسالیا، کالیفرنیا","ja":"バイセイリア","ar":"فيساليا","ru":"Висейлия","zh":"維塞利亞","uk":"Вісейлія"},"country":"US","lat":36.33023,"lon":-119.29206,"pop":130104,"search_terms":["ویسالیا، کالیفرنیا","維塞利亞","فيساليا","バイセイリア","висейлия","visalia","вісейлія"]},{"id":3445162,"name":"Vespasiano","names":{"en":"Vespasiano"},"country":"BR","lat":-19.69194,"lon":-43.92333,"pop":129246,"search_terms":["vespasiano"]},{"id":3444866,"name":"Votorantim","names":{"en":"Votorantim"},"country":"BR","lat":-23.54667,"lon":-47.43778,"pop":127923,"search_terms":["votorantim"]},{"id":2664454,"name":"Vaesteras","names":{"en":"Vaesteras","de":"Västerås","fr":"Västerås","nl":"Västerås","pl":"Västerås","sv":"Västerås","th":"เวสเตโรส","ar":"فيستيروس","fa":"وستروس","uk":"Вестерос","ja":"ヴェステロース","ko":"베스테로스","ka":"ვესტეროსი","kk":"Вестерос","el":"Βεστερός","ru":"Вестерос","zh":"韦斯特罗斯","ur":"ویستیروس"},"country":"SE","lat":59.61617,"lon":16.55276,"pop":127799,"search_terms":["βεστερός","เวสเตโรส","vaesteras","вестерос","ვესტეროსი","västerås","وستروس","韦斯特罗斯","فيستيروس","베스테로스","ヴェステロース","ویستیروس"]},{"id":3445061,"name":"Vila Mariana","names":{"en":"Vila Mariana"},"country":"BR","lat":-23.58833,"lon":-46.63464,"pop":127286,"search_terms":["vila mariana"]},{"id":3104748,"name":"Villaverde","names":{"en":"Villaverde"},"country":"ES","lat":40.35,"lon":-3.7,"pop":126802,"search_terms":["villaverde"]},{"id":3445578,"name":"Valinhos","names":{"en":"Valinhos","kk":"Валиньюс","uk":"Валіньюс","ru":"Валиньюс","zh":"瓦利尼乌斯"},"country":"BR","lat":-22.97056,"lon":-46.99583,"pop":126373,"search_terms":["валиньюс","valinhos","瓦利尼乌斯","валіньюс"]},{"id":13607661,"name":"Vilkhivskyi","names":{"en":"Vilkhivskyi","uk":"Вільхівський район"},"country":"UA","lat":48.54327,"lon":39.28201,"pop":126340,"search_terms":["вільхівський","vilkhivskyi rayon","вільхівський район","vilkhivskyi"]},{"id":943882,"name":"Virginia","names":{"en":"Virginia","ru":"Вирджиния"},"country":"ZA","lat":-28.10391,"lon":26.86593,"pop":122502,"search_terms":["virginia","вирджиния"]},{"id":5406222,"name":"Victorville","names":{"en":"Victorville","de":"Victorville","fr":"Victorville","ar":"فيكتورفيل","fa":"ویکتور ویل، کالیفرنیا","ko":"빅터빌","ja":"ヴィクターヴィル","zh":"维克多维尔","ru":"Викторвилл","tt":"Викторвил","hi":"विक्टोरविले","pt":"Victorville","uk":"Вікторвіль","id":"Victorville","ur":"وکٹرویل، کیلیفورنیا","uz":"Victorville","mr":"व्हिक्टोरविले","ms":"Victorville","el":"Βίκτορβιλ","it":"Victorville","es":"Victorville","vi":"Victorville","ro":"Victorville","nl":"Victorville","bn":"ভিক্টোভিল","sv":"Victorville","sw":"Victorville","ta":"விக்டோர்வில்லீ","te":"విక్టోరివిల్లే","th":"วิกเตอร์วิลล์","tl":"Victorville","pl":"Victorville","tr":"Victorville"},"country":"US","lat":34.53611,"lon":-117.29116,"pop":122225,"search_terms":["فيكتورفيل","व्हिक्टोरविले","victorville","وکٹرویل، کیلیفورنیا","วิกเตอร์วิลล์","ヴィクターヴィル","βίκτορβιλ","викторвил","விக்டோர்வில்லீ","ویکتور ویل، کالیفرنیا","विक्टोरविले","విక్టోరివిల్లే","викторвилл","빅터빌","вікторвіль","ভিক্টোভিল","维克多维尔"]},{"id":473972,"name":"Veshnyaki","names":{"en":"Veshnyaki","ru":"Вешняки"},"country":"RU","lat":55.72393,"lon":37.81952,"pop":122000,"search_terms":["вешняки","veshnyaki"]},{"id":5405380,"name":"Vallejo","names":{"en":"Vallejo","de":"Vallejo","nl":"Vallejo","pl":"Vallejo","fr":"Vallejo","ja":"ヴァレーホ","ko":"발레이오","fa":"والهو، کالیفرنیا","ar":"فاليجو","ru":"Вальехо","zh":"瓦列霍","uk":"Вальйо"},"country":"US","lat":38.10409,"lon":-122.25664,"pop":121692,"search_terms":["فاليجو","والهو، کالیفرنیا","вальйо","vallejo","ヴァレーホ","瓦列霍","вальехо","발레이오"]},{"id":1253315,"name":"Vejalpur","names":{"en":"Vejalpur","pt":"Vejalpur"},"country":"IN","lat":22.69021,"lon":73.56299,"pop":121610,"search_terms":["vejalpur"]},{"id":1562548,"name":"Vinh Yen","names":{"en":"Vinh Yen"},"country":"VN","lat":21.30891,"lon":105.60489,"pop":119128,"search_terms":["vinh yen"]},{"id":3445446,"name":"Varzea Paulista","names":{"en":"Varzea Paulista"},"country":"BR","lat":-23.21139,"lon":-46.82833,"pop":115771,"search_terms":["varzea paulista"]},{"id":933945,"name":"Vacoas","names":{"en":"Vacoas"},"country":"MU","lat":-20.29806,"lon":57.47833,"pop":115289,"search_terms":["vacoas"]},{"id":3183719,"name":"Vlore","names":{"en":"Vlore","el":"Avlonya","de":"Vlora","fr":"Vlora","it":"Valona","nl":"Vlorë","pl":"Wlora","pt":"Vlorë","sv":"Vlorë","cs":"Vlorë","ru":"Влёра","ur":"ولورہ","hy":"Վլորա","fa":"ولوره","uk":"Вльора","ko":"블로러","ar":"فلوره","ja":"ヴロラ","th":"วโลเรอ","az":"Vlyora","zh":"发罗拉"},"country":"AL","lat":40.4696,"lon":19.48379,"pop":115261,"search_terms":["αυλώνας","vlyora","avlon","ヴロラ","влёра","发罗拉","블로러","فلوره","vlore","vlorë","вльора","ولوره","avlona","valona","vlora","ولورہ","վլորա","wlora","วโลเรอ","avlonya"]},{"id":11962414,"name":"Vila Medeiros","names":{"en":"Vila Medeiros"},"country":"BR","lat":-23.48874,"lon":-46.57762,"pop":114839,"search_terms":["vila medeiros"]},{"id":3427408,"name":"Villa Lugano","names":{"en":"Villa Lugano","ja":"ビジャ・ルガーノ"},"country":"AR","lat":-34.67907,"lon":-58.47263,"pop":114000,"search_terms":["villa lugano","ビジャ・ルガーノ"]},{"id":1162813,"name":"Vihari","names":{"en":"Vihari"},"country":"PK","lat":30.0445,"lon":72.3556,"pop":112840,"search_terms":["vihari","vehari"]},{"id":3164419,"name":"Vicenza","names":{"en":"Vicenza","de":"Vicenza","es":"Vicenza","cs":"Vicenza","fr":"Vicence","id":"Vicenza","it":"Vicenza","ja":"ヴィチェンツァ","nl":"Vicenza","pl":"Vicenza","pt":"Vicenza","ro":"Vicenza","ru":"Виченца","sv":"Vicenza"},"country":"IT","lat":45.54672,"lon":11.5475,"pop":111980,"search_terms":["виченца","vicenza","vicence","ヴィチェンツァ"]},{"id":3445062,"name":"Vila Maria","names":{"en":"Vila Maria"},"country":"BR","lat":-23.51408,"lon":-46.58625,"pop":108543,"search_terms":["vila maria"]},{"id":3534599,"name":"Vedado","names":{"en":"Vedado"},"country":"CU","lat":23.13767,"lon":-82.39339,"pop":108369,"search_terms":["vedado"]},{"id":11962403,"name":"Vila Prudente","names":{"en":"Vila Prudente"},"country":"BR","lat":-23.59255,"lon":-46.57278,"pop":105590,"search_terms":["vila prudente"]},{"id":13546317,"name":"Ville-Marie","names":{"en":"Ville-Marie"},"country":"CA","lat":45.49899,"lon":-73.57046,"pop":104944,"search_terms":["ville-marie"]},{"id":11962413,"name":"Vila Matilde","names":{"en":"Vila Matilde"},"country":"BR","lat":-23.53936,"lon":-46.51788,"pop":103558,"search_terms":["vila matilde"]},{"id":2732265,"name":"Viseu","names":{"en":"Viseu","ru":"Визеу"},"country":"PT","lat":40.66165,"lon":-7.90905,"pop":103502,"search_terms":["визеу","viseu"]},{"id":476077,"name":"Velikiye Luki","names":{"en":"Velikiye Luki","de":"Welikije Luki","ko":"벨리키예루키","pl":"Wielkie Łuki","ru":"Великие Луки","nl":"Velikije Loeki"},"country":"RU","lat":56.34063,"lon":30.54377,"pop":103149,"search_terms":["벨리키예루키","великие луки","velikije loeki","velikiye luki","welikije luki","wielkie łuki"]},{"id":2745641,"name":"Venlo","names":{"en":"Venlo","de":"Venlo","fr":"Venlo","id":"Venlo","it":"Venlo","nl":"Venlo","pt":"Venlo","ro":"Venlo","sv":"Venlo","pl":"Venlo","ru":"Венло","el":"Φένλο","ja":"フェンロー","fa":"فنلو","zh":"芬洛"},"country":"NL","lat":51.37,"lon":6.16806,"pop":101988,"search_terms":["venlo","φένλο","فنلو","フェンロー","芬洛","венло"]},{"id":5406602,"name":"Vista","names":{"en":"Vista","de":"Vista","fr":"Vista","ar":"فيستا","fa":"ویستا، کالیفرنیا","ko":"비스타","zh":"维斯塔","tt":"Виста","hi":"विस्टा","pt":"Vista","uk":"Віста","id":"Vista","ur":"وسٹا، کیلیفورنیا","uz":"Vista","mr":"व्हिस्टा","ms":"Vista","el":"Βίστα","it":"Vista","es":"Vista","vi":"Vista","ja":"ビスタ","nl":"Vista","ru":"Виста","bn":"ভিস্তা","sv":"Vista","sw":"Vista","ta":"விஸ்டா","te":"విస్టా","th":"วิสตา","tl":"Vista","pl":"Vista","tr":"Vista"},"country":"US","lat":33.20004,"lon":-117.24254,"pop":100890,"search_terms":["βίστα","vista","ویستا، کالیفرنیا","فيستا","ビスタ","виста","วิสตา","віста","व्हिस्टा","विस्टा","وسٹا، کیلیفورنیا","ভিস্তা","விஸ்டா","维斯塔","비스타","విస్టా"]},{"id":1253367,"name":"Vasco da Gama","names":{"en":"Vasco da Gama","ru":"Васко-да-Гама"},"country":"IN","lat":15.39585,"lon":73.81568,"pop":100485,"search_terms":["васко-да-гама","vasco","vasco da gama"]},{"id":3625341,"name":"Villa de Cura","names":{"en":"Villa de Cura","es":"Villa de Cura"},"country":"VE","lat":10.03863,"lon":-67.48938,"pop":99669,"search_terms":["villa de cura"]},{"id":471430,"name":"Votkinsk","names":{"en":"Votkinsk","ko":"봇킨스크","ru":"Воткинск","es":"Vótkinsk","pl":"Wotkińsk","de":"Wotkinsk","fr":"Votkinsk","nl":"Votkinsk","ar":"فوتكينسك","fa":"وتکینسک","ja":"ヴォトキンスク","tg":"Воткинск","tt":"Воткинск","uk":"Воткінськ","zh":"沃特金斯克"},"country":"RU","lat":57.04867,"lon":53.9872,"pop":98633,"search_terms":["воткінськ","沃特金斯克","воткинск","فوتكينسك","وتکینسک","wotkińsk","wotkinsk","ヴォトキンスク","воткинс","vótkinsk","votkinsk","봇킨스크"]},{"id":9533392,"name":"Vinh Thanh","names":{"en":"Vinh Thanh","vi":"Vĩnh Thạnh"},"country":"VN","lat":10.22263,"lon":105.39841,"pop":98399,"search_terms":["vinh thanh","vĩnh thạnh"]},{"id":1253166,"name":"Villupuram","names":{"en":"Villupuram","ta":"விழுப்புரம்"},"country":"IN","lat":11.93975,"lon":79.49244,"pop":97380,"search_terms":["villupuram","விழுப்புரம்"]},{"id":3868192,"name":"Villa Alemana","names":{"en":"Villa Alemana","de":"Villa Alemana","es":"Villa Alemana","pt":"Villa Alemana","sv":"Villa Alemana","uk":"Вілья-Алемана","ru":"Вилья-Алемана","zh":"阿萊馬納鎮","ja":"ビジャ・アレマーナ","fa":"ویا آلمانا","ko":"비야알레마나"},"country":"CL","lat":-33.04823,"lon":-71.3729,"pop":97320,"search_terms":["villa alemana","вілья-алемана","вилья-алемана","ビジャ・アレマーナ","비야알레마나","ویا آلمانا","阿萊馬納鎮"]},{"id":10226875,"name":"Vicente Pires","names":{"en":"Vicente Pires"},"country":"BR","lat":-15.81009,"lon":-48.03077,"pop":96871,"search_terms":["vicente pires"]},{"id":5405228,"name":"Vacaville","names":{"en":"Vacaville","de":"Vacaville","fr":"Vacaville","ar":"فاكافيلي","fa":"واکاویل، کالیفرنیا","el":"Βάκαβιλ","zh":"瓦卡维尔"},"country":"US","lat":38.35658,"lon":-121.98774,"pop":96803,"search_terms":["瓦卡维尔","vacaville","واکاویل، کالیفرنیا","فاكافيلي","βάκαβιλ"]},{"id":7116866,"name":"Villa Mercedes","names":{"en":"Villa Mercedes","fa":"وییا مرسدس","ja":"ビジャ・メルセデス","zh":"梅塞德斯鎮","ar":"فيلا مرسيدس، سان لويس","ka":"ვილია-მერსედესი","ko":"비야메르세데스"},"country":"AR","lat":-33.67571,"lon":-65.45783,"pop":96781,"search_terms":["비야메르세데스","فيلا مرسيدس، سان لويس","وییا مرسدس","villa mercedes","ビジャ・メルセデス","梅塞德斯鎮","ვილია-მერსედესი"]},{"id":5405878,"name":"Ventura","names":{"en":"Ventura","fa":"ونتورا، کالیفرنیا","ko":"벤투라","ja":"ベンチュラ","ar":"فينتورا","uk":"Вентура","ru":"Вентура","zh":"文图拉"},"country":"US","lat":34.27834,"lon":-119.29317,"pop":96769,"search_terms":["ventura","вентура","ベンチュラ","ونتورا، کالیفرنیا","فينتورا","文图拉","벤투라"]},{"id":3924679,"name":"Vilhena","names":{"en":"Vilhena","pt":"Vilhena","ru":"Вилена"},"country":"BR","lat":-12.74056,"lon":-60.14583,"pop":95832,"search_terms":["vilhena","вилена"]},{"id":1253437,"name":"Vaniyambadi","names":{"en":"Vaniyambadi","ar":"فانيمبدي","fa":"ونیمبدی","ta":"வாணியம்பாடி","ur":"وانییامبادی","zh":"瓦尼耶姆巴迪"},"country":"IN","lat":12.68162,"lon":78.62014,"pop":95061,"search_terms":["vaniyambadi","வாணியம்பாடி","ونیمبدی","فانيمبدي","瓦尼耶姆巴迪","وانییامبادی"]},{"id":8505053,"name":"Vostochnoe Degunino","names":{"en":"Vostochnoe Degunino","ru":"Восточное Дегунино"},"country":"RU","lat":55.8801,"lon":37.55758,"pop":95000,"search_terms":["vostochnoe degunino","восточное дегунино"]},{"id":3832694,"name":"Villa Maria","names":{"en":"Villa Maria","de":"Villa María","es":"Villa María","fa":"وییا ماریا","zh":"瑪麗亞鎮","ar":"فيلا ماريا","ka":"ვილია-მარია"},"country":"AR","lat":-32.40751,"lon":-63.24016,"pop":92453,"search_terms":["瑪麗亞鎮","فيلا ماريا","وییا ماریا","villa maria","ვილია-მარია","villa maría"]},{"id":11962410,"name":"Vila Formosa","names":{"en":"Vila Formosa"},"country":"BR","lat":-23.56786,"lon":-46.54599,"pop":92186,"search_terms":["vila formosa"]},{"id":1253472,"name":"Valparai","names":{"en":"Valparai","pt":"Valparai"},"country":"IN","lat":10.32691,"lon":76.95116,"pop":90353,"search_terms":["valparai"]},{"id":1733331,"name":"Val Dor","names":{"en":"Val Dor","ms":"Val Dor","zh":"华都"},"country":"MY","lat":5.25198,"lon":100.49046,"pop":88600,"search_terms":["val dor","华都"]},{"id":2817724,"name":"Velbert","names":{"en":"Velbert","de":"Velbert","nl":"Velbert","kk":"Фельберт","fa":"فلبرت","ru":"Фельберт","zh":"費爾貝特","ar":"فلبرت","uk":"Фельберт","fr":"Velbert"},"country":"DE","lat":51.33537,"lon":7.04348,"pop":87669,"search_terms":["فلبرت","velbert","фельберт","費爾貝特"]},{"id":11520178,"name":"Velampalaiyam","names":{"en":"Velampalaiyam"},"country":"IN","lat":11.13764,"lon":77.31064,"pop":87427,"search_terms":["velampalaiyam"]},{"id":2280045,"name":"Vavoua","names":{"en":"Vavoua","ru":"Вавуа"},"country":"CI","lat":7.38194,"lon":-6.47778,"pop":86977,"search_terms":["вавуа","vavoua"]},{"id":1562570,"name":"Vinh Tuy","names":{"en":"Vinh Tuy"},"country":"VN","lat":21.0,"lon":105.88333,"pop":86618,"search_terms":["vinh tuy"]},{"id":1680007,"name":"Victorias","names":{"en":"Victorias","nl":"Victorias City"},"country":"PH","lat":10.90154,"lon":123.0705,"pop":86510,"search_terms":["victorias city","victorias"]},{"id":3901742,"name":"Viacha","names":{"en":"Viacha","ja":"ビアチャ","ka":"ვიაჩა","ko":"비아차","zh":"比亞查"},"country":"BO","lat":-16.65,"lon":-68.3,"pop":86218,"search_terms":["비아차","ビアチャ","ვიაჩა","比亞查","viacha"]},{"id":251833,"name":"Volos","names":{"en":"Volos","de":"Volos","el":"Βόλος","fr":"Volos","it":"Volos","nl":"Volos","pt":"Vólos","ro":"Volos","es":"Volos","pl":"Wolos","id":"Volos","sv":"Volos","tr":"Volos"},"country":"GR","lat":39.36923,"lon":22.94769,"pop":86048,"search_terms":["βόλος","wolos","vólos","volos"]},{"id":3445597,"name":"Valenca","names":{"en":"Valenca","pt":"Valença","fr":"Valença"},"country":"BR","lat":-13.37028,"lon":-39.07306,"pop":85655,"search_terms":["valença","valenca"]},{"id":2969679,"name":"Versailles","names":{"en":"Versailles","de":"Versailles","es":"Versalles","cs":"Versailles","el":"Βερσαλλίες","fr":"Versailles","it":"Versailles","ja":"ヴェルサイユ","ko":"베르사유","nl":"Versailles","pl":"Wersal","pt":"Versalhes","ro":"Versailles","sv":"Versailles","ru":"Версаль","vi":"Versailles"},"country":"FR","lat":48.80359,"lon":2.13424,"pop":85416,"search_terms":["βερσαλλίες","versailles","wersal","베르사유","versalhes","ヴェルサイユ","версаль","versalles"]},{"id":697302,"name":"Voznesenskyi","names":{"en":"Voznesenskyi","uk":"Вознесенський район"},"country":"UA","lat":47.93161,"lon":37.62971,"pop":85399,"search_terms":["voznesenskyi rayon","voznesenskyi","вознесенський район","вознесенський"]},{"id":148942,"name":"Vwawa","names":{"en":"Vwawa"},"country":"TZ","lat":-9.10806,"lon":32.93472,"pop":85000,"search_terms":["vwawa"]},{"id":11522311,"name":"Virappanchathiram","names":{"en":"Virappanchathiram"},"country":"IN","lat":11.35314,"lon":77.71253,"pop":84453,"search_terms":["virappanchathiram"]},{"id":13580098,"name":"Voskresenka","names":{"en":"Voskresenka","uk":"Воскресенка","de":"Woskresenka"},"country":"UA","lat":50.48481,"lon":30.6032,"pop":84200,"search_terms":["woskresenka","voskresenka","воскресенка"]},{"id":2817220,"name":"Villingen-Schwenningen","names":{"en":"Villingen-Schwenningen","de":"Villingen-Schwenningen","es":"Villingen-Schwenningen","it":"Villingen-Schwenningen","nl":"Villingen-Schwenningen","pl":"Villingen-Schwenningen","pt":"Villingen-Schwenningen","fr":"Villingen-Schwenningen","ru":"Виллинген-Швеннинген","tr":"Villingen Schwenningen","kk":"Филлинген-Швеннинген","fa":"فیلینگن-اشونینگن","zh":"菲林根-施文宁根","ar":"فيلينغن-شفنينغن","uk":"Філлінген-Швеннінген"},"country":"DE","lat":48.06226,"lon":8.49358,"pop":81770,"search_terms":["فيلينغن-شفنينغن","菲林根-施文宁根","виллинген-швеннинген","villingen schwenningen","فیلینگن-اشونینگن","филлинген-швеннинген","філлінген-швеннінген","villingen-schwenningen"]},{"id":13157141,"name":"Vijalpor","names":{"en":"Vijalpor"},"country":"IN","lat":20.92212,"lon":72.90945,"pop":81245,"search_terms":["vijalpor"]},{"id":2967849,"name":"Vitry-sur-Seine","names":{"en":"Vitry-sur-Seine","pl":"Vitry-sur-Seine","de":"Vitry-sur-Seine","cs":"Vitry-sur-Seine","fr":"Vitry-sur-Seine","it":"Vitry-sur-Seine","nl":"Vitry-sur-Seine","sv":"Vitry-sur-Seine","ru":"Витри-сюр-Сен","kk":"Витри-сюр-Сен","fa":"ویتری-سور-سن","ar":"فيتري سور سين","ja":"ヴィトリー＝シュル＝セーヌ","uk":"Вітрі-сюр-Сен","zh":"塞纳河畔维提","ko":"비트리쉬르센"},"country":"FR","lat":48.78716,"lon":2.40332,"pop":81001,"search_terms":["вітрі-сюр-сен","塞纳河畔维提","فيتري سور سين","витри-сюр-сен","vitry-sur-seine","ヴィトリー＝シュル＝セーヌ","ویتری-سور-سن","비트리쉬르센"]},{"id":3164699,"name":"Varese","names":{"en":"Varese","pl":"Varese","es":"Varese","de":"Varese","cs":"Varese","fr":"Varèse","it":"Varese","ja":"ヴァレーゼ","nl":"Varese","pt":"Varese","ro":"Varese","ru":"Варезе","sv":"Varese","zh":"瓦雷澤"},"country":"IT","lat":45.82058,"lon":8.82511,"pop":80588,"search_terms":["varèse","варезе","ヴァレーゼ","varese","瓦雷澤"]},{"id":3445014,"name":"Vinhedo","names":{"en":"Vinhedo"},"country":"BR","lat":-23.02972,"lon":-46.97528,"pop":80111,"search_terms":["vinhedo"]},{"id":1486910,"name":"Vorkuta","names":{"en":"Vorkuta","de":"Workuta","es":"Vorkutá","cs":"Vorkuta","fr":"Vorkouta","ko":"보르쿠타","nl":"Vorkoeta","pl":"Workuta","ru":"Воркута","ja":"ヴォルクタ","ro":"Vorkuta","el":"Βορκουτά","ar":"فوركوتا","tt":"Воркута","fa":"وورکوتا","uk":"Воркута","zh":"沃尔库塔","hy":"Վորկուտա"},"country":"RU","lat":67.50867,"lon":64.0667,"pop":80039,"search_terms":["βορκουτά","vorkouta","ヴォルクタ","فوركوتا","vorkutá","воркута","workuta","vorkuta","وورکوتا","vorkoeta","沃尔库塔","վորկուտա","보르쿠타"]},{"id":470546,"name":"Vyborg","names":{"en":"Vyborg","pl":"Wyborg","de":"Wyborg","es":"Víborg","fr":"Vyborg","it":"Vyborg","ko":"비보르크","nl":"Vyborg","ru":"Выборг","sv":"Viborg","pt":"Vyborg","el":"Βίμποργκ","ar":"فيبورغ","ja":"ヴィボルグ","fa":"ویبورگ","ro":"Vîborg","uk":"Виборг","tg":"Виборг","ka":"ვიბორგი","zh":"维堡","tt":"Выборг","ur":"ویبورگ"},"country":"RU","lat":60.70763,"lon":28.75283,"pop":78633,"search_terms":["vîborg","viborg","виипури","βίμποργκ","维堡","виборг","ヴィボルグ","비보르크","ویبورگ","víborg","wyborg","فيبورغ","ვიბორგი","выборг","vyborg","выборге"]},{"id":1225142,"name":"Valvedditturai","names":{"en":"Valvedditturai","ta":"வல்வெட்டித்துறை","sv":"Valvettithurai","fr":"Valvettithurai","es":"Valvettithurai","zh":"瓦爾維提圖萊","ar":"فالفتيثوري","ja":"ヴェリヴチットフライ","fa":"والوه‌تیتورای","pl":"Valvettithurai","ur":"والویٹیتھورائی","nl":"Valvettithurai","tr":"Valvettithurai"},"country":"LK","lat":9.81667,"lon":80.16667,"pop":78205,"search_terms":["والویٹیتھورائی","فالفتيثوري","valvettithurai","valvedditturai","瓦爾維提圖萊","ヴェリヴチットフライ","வல்வெட்டித்துறை","والوه‌تیتورای"]},{"id":616530,"name":"Vanadzor","names":{"en":"Vanadzor","pl":"Wanadzor","de":"Wanadsor","fa":"وانادزور","hy":"Վանաձոր","pt":"Vanadzor","ru":"Ванадзор","sv":"Vanadzor","nl":"Vanadzor","az":"Böyük Qarakilsə","ja":"ヴァナゾル","ka":"ვანაძორი","ko":"바나조르","uk":"Ванадзор","zh":"瓦纳佐尔","es":"Vanadzor","fr":"Vanadzor","el":"Βαναντζόρ","it":"Vanadzor","ro":"Vanadzor","tr":"Vanadzor","cs":"Vanadzor","ar":"وانادزور","id":"Vanadzor","ms":"Vanadzor","uz":"Vanadzor","vi":"Vanadzor"},"country":"AM","lat":40.8074,"lon":44.49704,"pop":78100,"search_terms":["wanadzor","վանաձոր","ヴァナゾル","vanadzor","wanadsor","瓦纳佐尔","바나조르","ვანაძორი","βαναντζόρ","وانادزور","böyük qarakilsə","ванадзор"]},{"id":471656,"name":"Voskresensk","names":{"en":"Voskresensk","de":"Woskressensk","ru":"Воскресенск","fr":"Voskressensk","tg":"Воскресенск","ja":"ヴォスクレセンスク","ko":"보스크레센스크","ar":"فوسكريسينسك","fa":"ووسکرسنسک","pl":"Woskriesiensk","zh":"沃斯克列先斯克","uk":"Воскресенськ","tt":"Воскресенск"},"country":"RU","lat":55.313,"lon":38.691,"pop":77086,"search_terms":["воскресенськ","voskresensk","ووسکرسنسک","沃斯克列先斯克","ヴォスクレセンスク","보스크레센스크","woskressensk","воскресенск","فوسكريسينسك","voskressensk","woskriesiensk"]},{"id":1253095,"name":"Visnagar","names":{"en":"Visnagar","pt":"Visnagar"},"country":"IN","lat":23.69855,"lon":72.5521,"pop":76753,"search_terms":["visnagar"]},{"id":3445133,"name":"Vicosa","names":{"en":"Vicosa","ja":"ヴィソーザ","kk":"Висоза","uk":"Вісоза","ru":"Висоза","hy":"Վիսոզա","ko":"비소자","zh":"維索薩"},"country":"BR","lat":-20.75389,"lon":-42.88194,"pop":76430,"search_terms":["vicosa","ヴィソーザ","висоза","վիսոզա","вісоза","비소자","維索薩"]},{"id":2817311,"name":"Viersen","names":{"en":"Viersen","de":"Viersen","nl":"Viersen","uk":"Фірзен","kk":"Фирзен","fa":"فیرزن","ru":"Фирзен","zh":"菲爾森","ar":"فيرزن"},"country":"DE","lat":51.25435,"lon":6.39441,"pop":76153,"search_terms":["فیرزن","فيرزن","菲爾森","фирзен","viersen","фірзен"]},{"id":1679802,"name":"Virac","names":{"en":"Virac","ur":"ویراک، کاتاندوانیس","ru":"Вирак"},"country":"PH","lat":13.5848,"lon":124.2374,"pop":75135,"search_terms":["virac","вирак","ویراک، کاتاندوانیس"]},{"id":3106868,"name":"Valdemoro","names":{"en":"Valdemoro","ru":"Вальдеморо","uk":"Вальдеморо","zh":"巴尔德莫罗","ar":"فلاديمورو"},"country":"ES","lat":40.19081,"lon":-3.67887,"pop":74745,"search_terms":["巴尔德莫罗","вальдеморо","valdemoro","فلاديمورو"]},{"id":3534597,"name":"Vedado del Cotorro","names":{"en":"Vedado del Cotorro"},"country":"CU","lat":23.05,"lon":-82.25,"pop":74650,"search_terms":["vedado del cotorro"]},{"id":2509769,"name":"Velez-Malaga","names":{"en":"Velez-Malaga","es":"Vélez-Málaga","de":"Vélez-Málaga","fr":"Vélez-Málaga","it":"Vélez-Málaga","nl":"Vélez-Málaga","pt":"Vélez-Málaga","ru":"Велес-Малага","ar":"فيليث-مالقة","kk":"Вeлес-Мaлага","ja":"ベレス＝マラガ","uk":"Велес-Малага","zh":"贝莱斯-马拉加","el":"Μπέλεθ-Μάλαγα","hy":"Վելես Մալագա"},"country":"ES","lat":36.78107,"lon":-4.10266,"pop":74190,"search_terms":["ベレス＝マラガ","velez-malaga","вeлес-мaлага","μπέλεθ-μάλαγα","велес-малага","贝莱斯-马拉加","վելես մալագա","فيليث-مالقة","vélez-málaga"]},{"id":2745467,"name":"Vlaardingen","names":{"en":"Vlaardingen","de":"Vlaardingen","id":"Vlaardingen","it":"Vlaardingen","nl":"Vlaardingen","sv":"Vlaardingen","fr":"Vlaardingen"},"country":"NL","lat":51.9125,"lon":4.34167,"pop":73798,"search_terms":["vlaardingen"]},{"id":8223970,"name":"Virudhachalam","names":{"en":"Virudhachalam","mr":"विरुधाचलम","ta":"விருத்தாச்சலம்","ur":"ویردھوچالم","zh":"维鲁达恰拉姆"},"country":"IN","lat":11.51497,"lon":79.32824,"pop":73585,"search_terms":["virudhachalam","விருத்தாச்சலம்","ویردھوچالم","विरुधाचलम","维鲁达恰拉姆"]},{"id":3445153,"name":"Viana","names":{"en":"Viana","ru":"Виана"},"country":"BR","lat":-20.39028,"lon":-40.49611,"pop":73423,"search_terms":["виана","viana"]},{"id":1253113,"name":"Virudunagar","names":{"en":"Virudunagar"},"country":"IN","lat":9.58509,"lon":77.95787,"pop":73273,"search_terms":["virudunagar"]},{"id":3833062,"name":"Venado Tuerto","names":{"en":"Venado Tuerto","es":"Venado Tuerto","de":"Venado Tuerto","ru":"Неукен","fa":"وانادو تورتو","zh":"貝納多圖埃托","ar":"فينادو تيورتو","el":"Βενάδο Τουέρτο","ka":"ვენადო-ტუერტო"},"country":"AR","lat":-33.74585,"lon":-61.96711,"pop":72340,"search_terms":["неукен","venado tuerto","貝納多圖埃托","فينادو تيورتو","βενάδο τουέρτο","ვენადო-ტუერტო","وانادو تورتو"]},{"id":3445596,"name":"Valenca","names":{"en":"Valenca","ru":"Валенса","hy":"Վալենսա","kk":"Валенса","ko":"발렌사","zh":"瓦倫薩"},"country":"BR","lat":-22.24556,"lon":-43.70028,"pop":71462,"search_terms":["valenca","발렌사","վալենսա","валенса","瓦倫薩"]},{"id":2663536,"name":"Vaexjoe","names":{"en":"Vaxjo","de":"Växjö","pl":"Växjö","sv":"Växjö","fr":"Växjö","nl":"Växjö","fa":"وکفو","ka":"ვექშე","th":"เวกเชอ","uk":"Векше","ja":"ベクショー","ko":"벡셰","kk":"Векшё","ru":"Векшё","zh":"韦克舍","ar":"فاكسيو","ur":"ویکوہ"},"country":"SE","lat":56.87767,"lon":14.80906,"pop":71282,"search_terms":["벡셰","векше","فاكسيو","ویکوہ","เวกเชอ","векшё","ვექშე","växjö","vaexjoe","vaxjo","ベクショー","韦克舍","وکفو"]},{"id":2732544,"name":"Vila Nova de Gaia","names":{"en":"Vila Nova de Gaia","es":"Vila Nova de Gaia","de":"Vila Nova de Gaia","pl":"Vila Nova de Gaia","el":"Βίλα Νόβα ντε Γκάια","fr":"Vila Nova de Gaia","it":"Vila Nova de Gaia","nl":"Vila Nova de Gaia","pt":"Vila Nova de Gaia","ro":"Vila Nova de Gaia","ru":"Вила-Нова-де-Гайя","tr":"Vila Nova de Gaia"},"country":"PT","lat":41.12401,"lon":-8.61241,"pop":70811,"search_terms":["βίλα νόβα ντε γκάια","вила-нова-де-гайя","vila nova de gaia"]},{"id":472278,"name":"Vol'sk","names":{"en":"Vol'sk","ru":"Вольск"},"country":"RU","lat":52.04172,"lon":47.38267,"pop":70500,"search_terms":["вольск","vol'sk"]},{"id":148987,"name":"Vikindu","names":{"en":"Vikindu"},"country":"TZ","lat":-7.00667,"lon":39.29849,"pop":70000,"search_terms":["vikindu"]},{"id":3444864,"name":"Votuporanga","names":{"en":"Votuporanga"},"country":"BR","lat":-20.42278,"lon":-49.97278,"pop":69863,"search_terms":["votuporanga"]},{"id":632978,"name":"Vaasa","names":{"en":"Vaasa","de":"Vaasa","es":"Vaasa","fr":"Vaasa","nl":"Vaasa","pl":"Vaasa","ro":"Vaasa","sv":"Vasa","ku":"Vaasa","ja":"ヴァーサ","ar":"فآسا","el":"Βάασα","uk":"Вааса","ko":"바사","ru":"Вааса","zh":"瓦萨","th":"วาซา"},"country":"FI","lat":63.096,"lon":21.61577,"pop":69819,"search_terms":["فآسا","vasa","瓦萨","ヴァーサ","vaasa","바사","วาซา","βάασα","вааса"]},{"id":3832791,"name":"Villa Carlos Paz","names":{"en":"Villa Carlos Paz","de":"Villa Carlos Paz","es":"Villa Carlos Paz","fr":"Villa Carlos Paz","ru":"Карлос-Паз","fa":"وییا کارلوس پاس","zh":"卡洛斯帕斯鎮","ar":"فيلا كارلوس باز","hy":"Վիլյա Կառլոս Պաս","ka":"ვილია-კარლოს-პასი"},"country":"AR","lat":-31.4183,"lon":-64.49008,"pop":69451,"search_terms":["villa carlos paz","وییا کارلوس پاس","فيلا كارلوس باز","վիլյա կառլոս պաս","ვილია-კარლოს-პასი","карлос-паз","вилья-карлос-пас","卡洛斯帕斯鎮"]},{"id":6173767,"name":"Verdun","names":{"en":"Verdun","es":"Verdún","fa":"وردن، کبک"},"country":"CA","lat":45.46005,"lon":-73.57058,"pop":69229,"search_terms":["verdun","وردن، کبک","verdún"]},{"id":11550025,"name":"Valdefuentes","names":{"en":"Valdefuentes"},"country":"ES","lat":40.49367,"lon":-3.6359,"pop":69176,"search_terms":["valdefuentes"]},{"id":3445350,"name":"Venancio Aires","names":{"en":"Venancio Aires"},"country":"BR","lat":-29.60639,"lon":-52.19194,"pop":68763,"search_terms":["venancio aires"]},{"id":3980605,"name":"Valle de Santiago","names":{"en":"Valle de Santiago","ru":"Валье-де-Сантьяго"},"country":"MX","lat":20.3914,"lon":-101.19222,"pop":68058,"search_terms":["valle de santiago","валье-де-сантьяго"]},{"id":2745673,"name":"Velsen-Zuid","names":{"en":"Velsen-Zuid","pl":"Velsen","de":"Velsen","fr":"Velsen","id":"Velsen","it":"Velsen","nl":"Velsen","pt":"Velsen","sv":"Velsen"},"country":"NL","lat":52.46,"lon":4.65,"pop":67758,"search_terms":["velsen-zuid","velsen"]},{"id":4739157,"name":"Victoria","names":{"en":"Victoria","pt":"Victoria","ru":"Виктория","ko":"빅토리아","ar":"فيكتوريا","fa":"ویکتوریا، تگزاس","zh":"維多利亞","ja":"ビクトリア","ur":"وکٹوریہ، ٹیکساس"},"country":"US","lat":28.80527,"lon":-97.0036,"pop":67574,"search_terms":["فيكتوريا","ویکتوریا، تگزاس","виктория","ビクトリア","빅토리아","維多利亞","وکٹوریہ، ٹیکساس","victoria"]},{"id":3106054,"name":"Vicalvaro","names":{"en":"Vicalvaro","ja":"ビカルバロ","ru":"Викальваро"},"country":"ES","lat":40.4,"lon":-3.6,"pop":66439,"search_terms":["ビカルバロ","викальваро","vicalvaro"]},{"id":3105935,"name":"Viladecans","names":{"en":"Viladecans","ru":"Виладеканс","ar":"فيلاديكانس","kk":"Виладеканс","uk":"Біладаканс","zh":"比拉德坎斯"},"country":"ES","lat":41.31405,"lon":2.01427,"pop":66168,"search_terms":["فيلاديكانس","виладеканс","比拉德坎斯","viladecans","біладаканс"]},{"id":3105184,"name":"Vilanova i la Geltru","names":{"en":"Vilanova i la Geltru","it":"Vilanova i la Geltrú","nl":"Vilanova i la Geltrú","pt":"Vilanova i la Geltrú","es":"Vilanova i la Geltrú","de":"Vilanova i la Geltrú"},"country":"ES","lat":41.22392,"lon":1.72511,"pop":65890,"search_terms":["vilanova i la geltrú","vilanova i la geltru"]},{"id":8285535,"name":"Villa de Vallecas","names":{"en":"Villa de Vallecas","ja":"ビリャ・デ・バリェカス"},"country":"ES","lat":40.36695,"lon":-3.60146,"pop":65162,"search_terms":["ビリャ・デ・バリェカス","villa de vallecas"]},{"id":1679845,"name":"Villasis","names":{"en":"Villasis"},"country":"PH","lat":15.90167,"lon":120.58833,"pop":65086,"search_terms":["villasis"]},{"id":13580103,"name":"Vynohradar","names":{"en":"Vynohradar","uk":"Виноградар"},"country":"UA","lat":50.51429,"lon":30.42452,"pop":65000,"search_terms":["виноградар","vynohradar"]},{"id":3665913,"name":"Villa del Rosario","names":{"en":"Villa del Rosario","ru":"Вилья-дель-Росарио"},"country":"CO","lat":7.83389,"lon":-72.47417,"pop":64951,"search_terms":["вилья-дель-росарио","villa del rosario"]},{"id":11549984,"name":"Valverde","names":{"en":"Valverde"},"country":"ES","lat":40.50024,"lon":-3.67877,"pop":64757,"search_terms":["valverde"]},{"id":1466021,"name":"Viraraghavapuram","names":{"en":"Viraraghavapuram"},"country":"IN","lat":13.07306,"lon":80.10778,"pop":64698,"search_terms":["viraraghavapuram"]},{"id":3445630,"name":"Vacaria","names":{"en":"Vacaria","ru":"Вакария"},"country":"BR","lat":-28.51222,"lon":-50.93389,"pop":64197,"search_terms":["вакария","vacaria"]},{"id":3436728,"name":"Villa Elisa","names":{"en":"Villa Elisa"},"country":"PY","lat":-25.3676,"lon":-57.59274,"pop":64099,"search_terms":["villa elisa"]},{"id":2971053,"name":"Valence","names":{"en":"Valence","pl":"Valence","de":"Valence","cs":"Valence","fr":"Valence","it":"Valence","ja":"ヴァランス","nl":"Valence","sv":"Valence","es":"Valence","hi":"वलांस","ro":"Valence"},"country":"FR","lat":44.9256,"lon":4.90956,"pop":63864,"search_terms":["ヴァランス","valencia","वलांस","valence"]},{"id":663118,"name":"Vaslui","names":{"en":"Vaslui","de":"Vaslui","cs":"Vaslui","fr":"Vaslui","nl":"Vaslui","ro":"Vaslui","pl":"Vaslui","ru":"Васлуй","ar":"فاسلوي","el":"Βασλούι","fa":"وزلو","ja":"ヴァスルイ","ko":"바슬루이","tg":"Васлуй","uk":"Васлуй","zh":"瓦斯盧伊","tt":"Васлуй","ur":"واسلوی"},"country":"RO","lat":46.63333,"lon":27.73333,"pop":63035,"search_terms":["وزلو","васлуй","vaslui","바슬루이","فاسلوي","واسلوی","βασλούι","ヴァスルイ","瓦斯盧伊"]},{"id":1253150,"name":"Vinukonda","names":{"en":"Vinukonda"},"country":"IN","lat":16.0531,"lon":79.73964,"pop":62550,"search_terms":["vinukonda"]},{"id":6543862,"name":"Villeneuve-d'Ascq","names":{"en":"Villeneuve-d'Ascq","de":"Villeneuve-d’Ascq","fa":"وینو دسک","uk":"Вільнев-д'Аск","ja":"ヴィルヌーヴ＝ダスク","ro":"Villeneuve d'Ascq","kk":"Вильнев-д'Аск","az":"Villenyev d'Ask","tl":"Villeneuve-d’Ascq","ar":"فيلينوف داسك","ru":"Вильнёв-д’Аск","zh":"阿斯克新城"},"country":"FR","lat":50.61669,"lon":3.16664,"pop":62400,"search_terms":["вільнев-д'аск","villenyev d'ask","villeneuve-d’ascq","villeneuve d'ascq","فيلينوف داسك","вильнев-д'аск","вильнёв-д’аск","villeneuve-d'ascq","ヴィルヌーヴ＝ダスク","وینو دسک","阿斯克新城"]},{"id":3164433,"name":"Viareggio","names":{"en":"Viareggio","pl":"Viareggio","de":"Viareggio","cs":"Viareggio","fr":"Viareggio","it":"Viareggio","nl":"Viareggio","pt":"Viareggio","ro":"Viareggio","es":"Viareggio","sv":"Viareggio","ja":"ヴィアレッジョ","ru":"Виареджио"},"country":"IT","lat":43.86693,"lon":10.2502,"pop":62169,"search_terms":["виареджио","viareggio","ヴィアレッジョ"]},{"id":470444,"name":"Vyksa","names":{"en":"Vyksa","ru":"Выкса","de":"Wyksa","ar":"فيكسا","az":"Vıksa","fa":"ویکسا","ko":"빅사","ro":"Vîksa","tg":"Викса","tt":"Выкса","zh":"維克薩","es":"Viksa","pl":"Wyksa"},"country":"RU","lat":55.32058,"lon":42.17402,"pop":61664,"search_terms":["فيكسا","維克薩","viksa","ویکسا","wyksa","vıksa","vîksa","vyksa","викса","빅사","выкса"]},{"id":1253080,"name":"Vriddhachalam","names":{"en":"Vriddhachalam"},"country":"IN","lat":11.5183,"lon":79.32411,"pop":61498,"search_terms":["vriddhachalam"]},{"id":251948,"name":"Vyronas","names":{"en":"Vyronas","el":"Βύρωνας"},"country":"GR","lat":37.96105,"lon":23.753,"pop":61308,"search_terms":["vyronas","βύρων","βύρωνας"]},{"id":2745774,"name":"Veenendaal","names":{"en":"Veenendaal","de":"Veenendaal","id":"Veenendaal","it":"Veenendaal","nl":"Veenendaal","sv":"Veenendaal","fr":"Veenendaal"},"country":"NL","lat":52.02863,"lon":5.55891,"pop":61271,"search_terms":["veenendaal"]},{"id":3188402,"name":"Valjevo","names":{"en":"Valjevo","de":"Valjevo","pl":"Valjevo","fr":"Valjevo","it":"Valjevo","sv":"Valjevo","ru":"Валево","ja":"ヴァリェヴォ","ar":"فاليفو","ko":"발레보","fa":"والیفو","zh":"瓦列沃","el":"Βάλιεβο","tt":"Валево","uk":"Валево","ur":"وایئوو"},"country":"RS","lat":44.27513,"lon":19.89821,"pop":61035,"search_terms":["والیفو","valjevo","βάλιεβο","وایئوو","فاليفو","валево","발레보","ヴァリェヴォ","瓦列沃"]},{"id":3937547,"name":"Villa Poeta Jose Galvez Barrenechea","names":{"en":"Villa Poeta Jose Galvez Barrenechea","es":"José Gálvez Barrenechea"},"country":"PE","lat":-12.21312,"lon":-76.90522,"pop":61000,"search_terms":["josé gálvez","josé gálvez barrenechea","villa poeta jose galvez barrenechea"]},{"id":4504621,"name":"Vineland","names":{"en":"Vineland","kk":"Вайнланд","fa":"واینلند، نیوجرسی","ja":"バインランド","ur":"وائنلینڈ، نیو جرسی"},"country":"US","lat":39.48623,"lon":-75.02573,"pop":60818,"search_terms":["вайнланд","vineland","واینلند، نیوجرسی","バインランド","وائنلینڈ، نیو جرسی"]},{"id":2610613,"name":"Vejle","names":{"en":"Vejle","de":"Vejle","nl":"Vejle","pt":"Vejle","ro":"Vejle","pl":"Vejle","it":"Vejle","sv":"Vejle","ru":"Вайле","ja":"ヴァイレ","fa":"وایله","ko":"바일레","th":"ไวเล","ka":"ვაილე","zh":"瓦埃勒"},"country":"DK","lat":55.70927,"lon":9.5357,"pop":60231,"search_terms":["바일레","وایله","vejle","瓦埃勒","ไวเล","вайле","ვაილე","ヴァイレ"]},{"id":1253079,"name":"Vrindavan","names":{"en":"Vrindavan","ru":"Вриндаван"},"country":"IN","lat":27.58105,"lon":77.69662,"pop":60195,"search_terms":["vrindavan","вриндаван"]},{"id":1225018,"name":"Vavuniya","names":{"en":"Vavuniya","ru":"Вавуния","ja":"バブニヤ","ta":"வவுனியா","fa":"واوونیا","ur":"واوونییا"},"country":"LK","lat":8.7514,"lon":80.4971,"pop":60176,"search_terms":["واوونیا","vavuniya","вавуния","واوونییا","バブニヤ","வவுனியா"]},{"id":3815453,"name":"Villa Vicente Guerrero","names":{"en":"Villa Vicente Guerrero"},"country":"MX","lat":19.12123,"lon":-98.16572,"pop":60001,"search_terms":["villa vicente guerrero"]},{"id":11838960,"name":"Valley Glen","names":{"en":"Valley Glen"},"country":"US","lat":34.18568,"lon":-118.42032,"pop":60000,"search_terms":["valley glen"]},{"id":13494190,"name":"Vinhomes Ocean Park","names":{"en":"Vinhomes Ocean Park"},"country":"VN","lat":20.9948,"lon":105.9465,"pop":60000,"search_terms":["vinhomes ocean park"]},{"id":3385106,"name":"Vicosa do Ceara","names":{"en":"Vicosa do Ceara"},"country":"BR","lat":-3.56222,"lon":-41.09222,"pop":59712,"search_terms":["vicosa do ceara"]},{"id":725993,"name":"Veliko Turnovo","names":{"en":"Veliko Turnovo","de":"Weliko Tarnowo","es":"Veliko Tarnovo","fr":"Veliko Tarnovo","it":"Veliko Tărnovo","ja":"ヴェリコ・タルノヴォ","pl":"Wielkie Tyrnowo","sv":"Veliko Tărnovo","ro":"Veliko Tărnovo"},"country":"BG","lat":43.08124,"lon":25.62904,"pop":59166,"search_terms":["weliko tarnowo","veliko tarnovo","wielkie tyrnowo","veliko tărnovo","ヴェリコ・タルノヴォ","veliko turnovo"]},{"id":1487281,"name":"Verkhnyaya Pyshma","names":{"en":"Verkhnyaya Pyshma","ru":"Верхняя Пышма","de":"Werchnjaja Pyschma","fr":"Verkhniaïa Pychma","it":"Verchnjaja Pyšma","nl":"Verchnjaja Pysjma","ar":"فيرخنيايا بيشما","az":"Verxnyaya Pışma","el":"Βέρχνιαγια Πησμά","fa":"ورخنیایا پیشما","ko":"베르흐냐야피시마","pl":"Wierchniaja Pyszma","zh":"上佩什馬","tt":"Югары Пышма","uk":"Верхня Пишма","sv":"Verchnjaja Pysjma"},"country":"RU","lat":56.97047,"lon":60.58219,"pop":59061,"search_terms":["pyshma","베르흐냐야피시마","verkhnyaya pyshma","فيرخنيايا بيشما","verchnjaja pysjma","上佩什馬","werchnjaja pyschma","верхня пишма","верхняя пышма","verchnjaja pyšma","βέρχνιαγια πησμά","югары пышма","пышма","ورخنیایا پیشما","wierchniaja pyszma","verkhniaïa pychma","verxnyaya pışma"]},{"id":2762372,"name":"Villach","names":{"en":"Villach","pl":"Villach","es":"Villach","fr":"Villach","it":"Villaco","ja":"フィラッハ","nl":"Villach","ro":"Villach","ru":"Филлах","th":"ฟิลลาค","ka":"ფილახი","el":"Φίλλαχ","fa":"فیلاخ","ko":"필라흐","uk":"Філлах","zh":"菲拉赫"},"country":"AT","lat":46.61028,"lon":13.85583,"pop":58882,"search_terms":["villach","フィラッハ","villaco","φίλλαχ","필라흐","филлах","菲拉赫","ฟิลลาค","філлах","ფილახი","فیلاخ"]},{"id":3901435,"name":"Vinto","names":{"en":"Vinto","zh":"賓托","de":"Vinto","hi":"वींतो","ru":"Винто","pt":"Vinto","fr":"Vinto","bn":"ভিন্তু","uk":"Вінто","id":"Vinto","ur":"وینٹو","sv":"Vinto","ko":"빈토","mr":"विनटो","ms":"Vinto","el":"Βίντο","it":"Vinto","ta":"விண்டோ","es":"Vinto","ar":"فينتو، بوليفيا","te":"వింటో","vi":"Vinto","th":"วินตัน","ja":"ビント","fa":"وینتو","pl":"Vinto","nl":"Vinto","tr":"Vinto"},"country":"BO","lat":-17.39141,"lon":-66.31681,"pop":58739,"search_terms":["วินตัน","ビント","賓托","빈토","винто","वींतो","వింటో","विनटो","ভিন্তু","وینتو","فينتو، بوليفيا","βίντο","விண்டோ","vinto","وینٹو","вінто"]},{"id":3385022,"name":"Viseu","names":{"en":"Viseu"},"country":"BR","lat":-1.19667,"lon":-46.14,"pop":58692,"search_terms":["viseu"]},{"id":2664740,"name":"Vasastaden","names":{"en":"Vasastaden","sv":"Vasastan"},"country":"SE","lat":59.35,"lon":18.03333,"pop":58458,"search_terms":["vasastan","vasastaden"]},{"id":472234,"name":"Volzhsk","names":{"en":"Volzhsk","ru":"Волжск"},"country":"RU","lat":55.86661,"lon":48.35931,"pop":58000,"search_terms":["volzhsk","лопатино","волжск"]},{"id":3164376,"name":"Vigevano","names":{"en":"Vigevano","pl":"Vigevano","de":"Vigevano","cs":"Vigevano","fr":"Vigevano","it":"Vigevano","ja":"ヴィジェーヴァノ","nl":"Vigevano","pt":"Vigevano","ru":"Виджевано"},"country":"IT","lat":45.31407,"lon":8.85437,"pop":57970,"search_terms":["ヴィジェーヴァノ","vigevano","виджевано"]},{"id":785058,"name":"Veles","names":{"en":"Veles","de":"Veles","nl":"Veles","pl":"Wełes","es":"Veles","fr":"Vélès","el":"Βελεσά","uk":"Велес","ar":"فيليس","ja":"ヴェレス","ko":"벨레스","ru":"Велес","zh":"韋萊斯","ka":"ველესი","fa":"ولس","hy":"Վելես"},"country":"MK","lat":41.71719,"lon":21.77196,"pop":57873,"search_terms":["벨레스","韋萊斯","veles","vélès","wełes","βελεσά","ველესი","فيليس","վելես","велес","ولس","ヴェレス"]},{"id":2970072,"name":"Venissieux","names":{"en":"Venissieux","fr":"Vénissieux","pl":"Vénissieux","de":"Vénissieux","it":"Vénissieux","nl":"Vénissieux","pt":"Vénissieux","sv":"Vénissieux","ru":"Венисье","uk":"Венісьє","fa":"ونیسیو","ja":"ヴェニシュー","zh":"維尼西厄","ko":"베니시외"},"country":"FR","lat":45.69706,"lon":4.88593,"pop":57584,"search_terms":["венисьё","베니시외","vénissieux","維尼西厄","ونیسیو","венісьє","венисье","ヴェニシュー","venissieux"]},{"id":3436725,"name":"Villa Hayes","names":{"en":"Villa Hayes"},"country":"PY","lat":-25.093,"lon":-57.52725,"pop":57217,"search_terms":["villa hayes"]},{"id":3042929,"name":"Veszprem","names":{"en":"Veszprem","de":"Wesprim","cs":"Veszprém","pl":"Veszprém","pt":"Veszprém","sv":"Veszprém","ro":"Veszprém","fr":"Veszprém","it":"Veszprém","nl":"Veszprém","ru":"Веспрем","id":"Veszprém","tr":"Veszprém","ko":"베스프렘","ja":"ヴェスプレーム","uk":"Веспрем","fa":"وسپریم","zh":"維斯普雷姆","ka":"ვესპრემი"},"country":"HU","lat":47.09327,"lon":17.91149,"pop":56927,"search_terms":["veszprim","wesprim","ვესპრემი","comitatul veszprém","veszprém","維斯普雷姆","وسپریم","veszprem","베스프렘","ヴェスプレーム","веспрем"]},{"id":784227,"name":"Vranje","names":{"en":"Vranje","pl":"Vranje","de":"Vranje","fr":"Vranje","sv":"Vranje","ja":"ヴラニェ","el":"Βράνιε","ko":"브라네","ar":"فرانيي","fa":"ورانیه","ru":"Вране","zh":"弗拉涅","tt":"Вране","ur":"وارنیے"},"country":"RS","lat":42.55139,"lon":21.90028,"pop":56199,"search_terms":["vranje","вране","فرانيي","弗拉涅","وارنیے","ヴラニェ","ورانیه","브라네","βράνιε"]},{"id":942511,"name":"Vryburg","names":{"en":"Vryburg","ru":"Фрейбурга","zh":"弗雷堡"},"country":"ZA","lat":-26.95659,"lon":24.7284,"pop":55879,"search_terms":["фрейбурга","vryburg","фрейбург","弗雷堡"]},{"id":1253143,"name":"Viramgam","names":{"en":"Viramgam"},"country":"IN","lat":23.12564,"lon":72.05014,"pop":55821,"search_terms":["viramgam"]},{"id":4228147,"name":"Valdosta","names":{"en":"Valdosta","ru":"Валдоста","ar":"فالدوستا","fa":"والدستا، جورجیا","ja":"バルドスタ","uk":"Валдоста","ur":"والڈوسٹا، جارجیا"},"country":"US","lat":30.83334,"lon":-83.28032,"pop":55724,"search_terms":["バルドスタ","والڈوسٹا، جارجیا","valdosta","валдоста","والدستا، جورجیا","فالدوستا"]},{"id":470676,"name":"Vyaz'ma","names":{"en":"Vyazma","ru":"Вязьма","de":"Wjasma"},"country":"RU","lat":55.20997,"lon":34.29695,"pop":55500,"search_terms":["вязьма","vyaz'ma","vyazma","wjasma"]},{"id":3445126,"name":"Videira","names":{"en":"Videira","ru":"Видейра"},"country":"BR","lat":-27.00833,"lon":-51.15167,"pop":55466,"search_terms":["videira","видейра"]},{"id":3625346,"name":"Villa Bruzual","names":{"en":"Villa Bruzual"},"country":"VE","lat":9.33186,"lon":-69.11968,"pop":55244,"search_terms":["villa bruzual"]},{"id":943960,"name":"Viljoenskroon","names":{"en":"Viljoenskroon"},"country":"ZA","lat":-27.20841,"lon":26.94855,"pop":54955,"search_terms":["viljoenskroon"]},{"id":2970777,"name":"Vannes","names":{"en":"Vannes","de":"Vannes","cs":"Vannes","fr":"Vannes","it":"Vannes","ja":"ヴァンヌ","nl":"Vannes","pl":"Vannes","pt":"Vannes","ro":"Vannes","ru":"Ван","sv":"Vannes","kk":"Ванн","ka":"ვანი","uk":"Ванн","ko":"반","ar":"فان","zh":"瓦讷","fa":"ونس"},"country":"FR","lat":47.65688,"lon":-2.76205,"pop":54020,"search_terms":["ван","فان","瓦讷","ونس","반","ванн","ვანი","ヴァンヌ","vannes"]},{"id":470252,"name":"Vyshniy Volochek","names":{"en":"Vyshny Volochyok","ru":"Вышний Волочёк","de":"Wyschni Wolotschok"},"country":"RU","lat":57.5888,"lon":34.56854,"pop":53800,"search_terms":["вышний волочёк","vyshniy volochëk","вышний волочек","vyshniy volochek","vyshny volochyok","wyschni wolotschok","вышный волочёк"]},{"id":178522,"name":"Voi","names":{"en":"Voi","ja":"ボイ","ka":"ვოი","ur":"ووی","ru":"Вои"},"country":"KE","lat":-3.39605,"lon":38.55609,"pop":53353,"search_terms":["ووی","ボイ","voi","ვოი","вои"]},{"id":3106601,"name":"Vallecas","names":{"en":"Vallecas","es":"Vallecas"},"country":"ES","lat":40.38333,"lon":-3.61667,"pop":53208,"search_terms":["vallecas"]},{"id":1253182,"name":"Vikarabad","names":{"en":"Vikarabad"},"country":"IN","lat":17.3381,"lon":77.90441,"pop":53143,"search_terms":["vikarabad"]},{"id":3164630,"name":"Velletri","names":{"en":"Velletri","pl":"Velletri","de":"Velletri","fr":"Velletri","it":"Velletri","nl":"Velletri","pt":"Velletri","ja":"ヴェッレトリ"},"country":"IT","lat":41.68573,"lon":12.77753,"pop":52911,"search_terms":["ヴェッレトリ","velletri"]},{"id":2784821,"name":"Verviers","names":{"en":"Verviers","fr":"Verviers","de":"Verviers","pl":"Verviers","nl":"Verviers","ja":"ヴェルヴィエ","ka":"ვერვიე","fa":"ورویه","ru":"Вервье","zh":"韦尔维耶","ko":"베르비에","uk":"Вервє"},"country":"BE","lat":50.58907,"lon":5.86241,"pop":52824,"search_terms":["вервье","вервє","verviers","韦尔维耶","ورویه","베르비에","ვერვიე","ヴェルヴィエ"]},{"id":1253251,"name":"Venkatagiri","names":{"en":"Venkatagiri"},"country":"IN","lat":13.96005,"lon":79.58032,"pop":52688,"search_terms":["venkatagiri"]},{"id":11962411,"name":"Vila Guilherme","names":{"en":"Vila Guilherme"},"country":"BR","lat":-23.50918,"lon":-46.60577,"pop":52587,"search_terms":["vila guilherme"]},{"id":1680019,"name":"Victoria","names":{"en":"Victoria"},"country":"PH","lat":13.17722,"lon":121.27806,"pop":52215,"search_terms":["victoria"]},{"id":473778,"name":"Vidnoye","names":{"en":"Vidnoye","ru":"Видное","de":"Widnoje"},"country":"RU","lat":55.5523,"lon":37.70885,"pop":51721,"search_terms":["vidnoye","видное","widnoje"]},{"id":3385122,"name":"Viana","names":{"en":"Viana","ru":"Виана"},"country":"BR","lat":-3.22028,"lon":-45.00361,"pop":51442,"search_terms":["виана","viana"]},{"id":3164603,"name":"Venice","names":{"en":"Venice","de":"Venedig","es":"Venecia","ar":"البندقية","cs":"Benátky","el":"Βενετία","fr":"Venise","id":"Venesia","ja":"ヴェネツィア","ko":"베니스","nl":"Venetië","pl":"Wenecja","pt":"Veneza","ro":"Veneția","ru":"Венеция","sv":"Venedig","tr":"Venedik","uk":"Венеція","zh":"威尼斯","it":"Venezia","fa":"ونیز","hy":"Վենետիկ","ka":"ვენეცია","vi":"Venezia","az":"Venesiya"},"country":"IT","lat":45.43713,"lon":12.33265,"pop":51298,"search_terms":["venecia","венеція","վենետիկ","veneția","ベニス","veneza","ვენეცია","ヴェネツィア","venedik","venezia","βενετία","venedig","venesia","베네치아","البندقية","wenecja","威尼斯","венеция","ヴェニス","베니스","venise","venesiya","ونیز","venice","benátky","venetië"]},{"id":13353582,"name":"Vazhakkala","names":{"en":"Vazhakkala"},"country":"IN","lat":10.01239,"lon":76.32633,"pop":51242,"search_terms":["vazhakkala"]},{"id":2522713,"name":"Vittoria","names":{"en":"Vittoria","pl":"Vittoria","de":"Vittoria","cs":"Vittoria","fr":"Vittoria","it":"Vittoria","ja":"ヴィットーリア","nl":"Vittoria","pt":"Vittoria"},"country":"IT","lat":36.95151,"lon":14.52788,"pop":50852,"search_terms":["vittoria","ヴィットーリア"]},{"id":3385088,"name":"Vigia","names":{"en":"Vigia"},"country":"BR","lat":-0.85833,"lon":-48.14167,"pop":50832,"search_terms":["vigia"]},{"id":2509509,"name":"Vila-real","names":{"en":"Vila-real","pt":"Vila-real","ru":"Вильярреаль","es":"Vila-real"},"country":"ES","lat":39.9383,"lon":-0.10087,"pop":50577,"search_terms":["vila-real","вильярреаль"]},{"id":6318864,"name":"Vargem Grande Paulista","names":{"en":"Vargem Grande Paulista"},"country":"BR","lat":-23.60333,"lon":-47.02639,"pop":50415,"search_terms":["vargem grande paulista"]},{"id":11520375,"name":"Virapandi","names":{"en":"Virapandi"},"country":"IN","lat":11.06247,"lon":77.35076,"pop":50301,"search_terms":["virapandi"]},{"id":11550013,"name":"Ventas","names":{"en":"Ventas"},"country":"ES","lat":40.42248,"lon":-3.64741,"pop":50218,"search_terms":["ventas"]},{"id":3491941,"name":"Villa Francisca","names":{"en":"Villa Francisca"},"country":"DO","lat":18.48278,"lon":-69.88914,"pop":50185,"search_terms":["villa francisca"]},{"id":476368,"name":"Vatutino","names":{"en":"Vatutino","ru":"Ватутино","uk":"Ватутіне"},"country":"RU","lat":55.88441,"lon":37.69055,"pop":50000,"search_terms":["ватутино","vatutino","vatutine","ватутіне"]},{"id":477377,"name":"Vagonoremont","names":{"en":"Vagonoremont","ru":"Вагоноремонт"},"country":"RU","lat":55.9,"lon":37.55,"pop":50000,"search_terms":["vagonoremont","вагоноремонт"]},{"id":13494193,"name":"Vinhomes Smart City","names":{"en":"Vinhomes Smart City"},"country":"VN","lat":21.0045,"lon":105.7404,"pop":50000,"search_terms":["vinhomes smart city"]},{"id":13494194,"name":"Vinhomes Times City","names":{"en":"Vinhomes Times City"},"country":"VN","lat":20.9945,"lon":105.8677,"pop":50000,"search_terms":["vinhomes times city"]},{"id":725712,"name":"Vratsa","names":{"en":"Vratsa","ja":"ヴラツァ","kk":"Враца","tr":"İvraca","ko":"브라차","uk":"Враца","ro":"Vrața","pl":"Wraca","ru":"Враца","zh":"弗拉察","el":"Βράτσα","fa":"وراتسا","ar":"فراتسا","ur":"وراتسا"},"country":"BG","lat":43.21052,"lon":23.56312,"pop":49569,"search_terms":["враца","wraca","وراتسا","弗拉察","βράτσα","vratsa","فراتسا","i̇vraca","브라차","ヴラツァ","vrața"]},{"id":3868158,"name":"Villarrica","names":{"en":"Villarrica","ja":"ビジャリカ","ru":"Вильяррика","zh":"比亞里卡","fa":"ویلاریکا","ko":"비야리카"},"country":"CL","lat":-39.28569,"lon":-72.2279,"pop":49184,"search_terms":["比亞里卡","вильяррика","ویلاریکا","비야리카","villarrica","ビジャリカ"]},{"id":1487277,"name":"Verkhnyaya Salda","names":{"en":"Verkhnyaya Salda","ru":"Верхняя Салда","de":"Werchnjaja Salda","fr":"Verkhniaïa Salda","it":"Verchnjaja Salda","nl":"Verchnjaja Salda","ar":"فيرخنيايا سالدا","az":"Verxnyaya Salda","el":"Βέρχνιαγια Σαλντά","fa":"ورخنیایا سالدا","tt":"Югары Саллы","uk":"Верхня Салда","pl":"Wierchniaja Sałda","sv":"Verchnjaja Salda","zh":"上薩爾達"},"country":"RU","lat":58.045,"lon":60.551,"pop":48992,"search_terms":["wierchniaja sałda","ورخنیایا سالدا","上薩爾達","югары саллы","werchnjaja salda","verxnyaya salda","verkhnyaya salda","верхняя салда","فيرخنيايا سالدا","βέρχνιαγια σαλντά","verchnjaja salda","verkhniaïa salda","верхня салда"]},{"id":3514876,"name":"Valladolid","names":{"en":"Valladolid","uk":"Вальядолід","ru":"Вальядолид","zh":"巴利亚多利德","de":"Valladolid (Yucatán)","hi":"वल्लाडोलिड","pt":"Valladolid","hy":"Վալյադոլիդ","id":"Valladolid","ur":"والادولید","mr":"वॅलॅडॉलिड","ms":"Valladolid","el":"Βαγιαδολίδ","it":"Valladolid","es":"Valladolid","ar":"فالادوليد، المكسيك","vi":"Valladolid","ja":"バジャドリド","nl":"Valladolid","fr":"Valladolid","bn":"বাইয়াদোলিদ","sv":"Valladolid","ko":"바야돌리드","ta":"வல்லடோலிட்","te":"వాల్లాడోలిడ్","th":"บายาโดลิด","pl":"Valladolid","tr":"Valladolid"},"country":"MX","lat":20.68812,"lon":-88.19936,"pop":48973,"search_terms":["वल्लाडोलिड","వాల్లాడోలిడ్","вальядолид","valladolid (yucatán)","valladolid","巴利亚多利德","վալյադոլիդ","वॅलॅडॉलिड","والادولید","バジャドリド","바야돌리드","வல்லடோலிட்","বাইয়াদোলিদ","βαγιαδολίδ","فالادوليد، المكسيك","вальядолід","บายาโดลิด"]},{"id":3832899,"name":"Viedma","names":{"en":"Viedma","es":"Viedma","de":"Viedma","fr":"Viedma","it":"Viedma","pt":"Viedma","ru":"Вьедма","th":"เบียดมา","ja":"ビエドマ","el":"Βιέδμα","ka":"ვიედმა","fa":"ویدما","uk":"Вєдма","zh":"別德馬","ko":"비에드마","ar":"فيدما","hy":"Վիեդմա"},"country":"AR","lat":-40.81519,"lon":-63.0004,"pop":48940,"search_terms":["ビエドマ","فيدما","ویدما","viedma","ვიედმა","վիեդմա","เบียดมา","вьедма","βιέδμα","비에드마","別德馬","вєдма"]},{"id":3514868,"name":"Valle Hermoso","names":{"en":"Valle Hermoso"},"country":"MX","lat":25.67317,"lon":-97.81272,"pop":48918,"search_terms":["valle hermoso"]},{"id":3716044,"name":"Verrettes","names":{"en":"Verrettes"},"country":"HT","lat":19.0505,"lon":-72.46585,"pop":48724,"search_terms":["verrettes"]},{"id":13353581,"name":"Vengara","names":{"en":"Vengara"},"country":"IN","lat":11.05083,"lon":75.97806,"pop":48600,"search_terms":["vengara"]},{"id":1679980,"name":"Vigan","names":{"en":"Vigan","de":"Vigan City","th":"วีกัน","fa":"ویگان","id":"Kota Vigan","ka":"ვიგანი","ja":"ビガン","el":"Βιγκάν","ko":"비간","tl":"Lungsod ng Vigan","pt":"Cidade Histórica de Vigan","ru":"Виган","zh":"美岸","ky":"Виган шаары","ur":"ویگان"},"country":"PH","lat":17.57472,"lon":120.38694,"pop":48545,"search_terms":["ვიგანი","lungsod ng vigan","виган","vigan city","ویگان","美岸","ビガン","vigan","วีกัน","비간","cidade histórica de vigan","виган шаары","βιγκάν","kota vigan"]},{"id":1253091,"name":"Vite","names":{"en":"Vite","ru":"Вита"},"country":"IN","lat":17.27343,"lon":74.53792,"pop":48289,"search_terms":["вита","vite"]},{"id":471101,"name":"Vsevolozhsk","names":{"en":"Vsevolozhsk","de":"Wsewoloschsk","es":"Vsévolozhsk","fr":"Vsevolojsk","it":"Vsevoložsk","nl":"Vsevolozjsk","uk":"Всеволожськ","ar":"فسيفولوجسك","fa":"وسوولوژسک","ko":"브세볼로시스크","tg":"Всеволожск","ka":"ვსევოლოჟსკი","pl":"Wsiewołożsk","ru":"Всеволожск","sv":"Vsevolozjsk","zh":"弗謝沃洛日斯克","tt":"Всеволожск"},"country":"RU","lat":60.01512,"lon":30.67314,"pop":48224,"search_terms":["всеволожск","vsevoložsk","弗謝沃洛日斯克","vsévolozhsk","всеволожськ","vsevolozjsk","فسيفولوجسك","ვსევოლოჟსკი","wsiewołożsk","vsevolozhsk","وسوولوژسک","브세볼로시스크","wsewoloschsk","vsevolojsk"]},{"id":2968705,"name":"Villejuif","names":{"en":"Villejuif","fa":"ویلژوئیف","ja":"ヴィルジュイフ","kk":"Вильжуиф","uk":"Вільжуїф","ru":"Вильжюиф","zh":"犹太城","ar":"فيلجويف","ko":"빌쥐프"},"country":"FR","lat":48.7939,"lon":2.35992,"pop":48048,"search_terms":["فيلجويف","вільжуїф","вильжуиф","ヴィルジュイフ","вильжюиф","犹太城","villejuif","빌쥐프","ویلژوئیف"]},{"id":616062,"name":"Vagharshapat","names":{"en":"Vagharshapat","hy":"Վաղարշապատ","pl":"Eczmiadzyn","de":"Etschmiadsin","fa":"واغارشاپات","fr":"Etchmiadzin","ka":"ვაღარშაპატი","ru":"Вагаршапат","sv":"Etjmiadzin","it":"Echmiadzin","pt":"Vagharshapat","uk":"Вагаршапат","id":"Echmiadzin","ur":"واغارشاپات","uz":"Echmiadzin","ms":"Echmiadzin","el":"Ετσμιαντζίν","es":"Echmiadzin","zh":"瓦加尔沙帕特","ar":"فاغارشابات","vi":"Echmiadzin","ja":"エチミアジン","az":"Üçkilsə","ro":"Ecimiadzin","nl":"Edzjmiatsin","ko":"에치미아진","ta":"வாகர்சபாத்","cs":"Vagharšapat","th":"วาการ์สชาพัต","tr":"Eçmiadzin"},"country":"AM","lat":40.16557,"lon":44.29462,"pop":47989,"search_terms":["վաղարշափաթ","эчмиадзин","üçkilsə","echmiadzin","วาการ์สชาพัต","etschmiadsin","vagharšapat","էչմիաձին, իեջմիածին","واغارشاپات","էջմիածին","ετσμιαντζίν","etjmiadzin","eçmiadzin","エチミアジン","فاغارشابات","վաղարշապատ","ვაღარშაპატი","瓦加尔沙帕特","etchmiadzin","vagharshapat","ejmiatsin","edzjmiatsin","ეჩმიაძინი","에치미아진","إتشميادزين","வாகர்சபாத்","вагаршапат","eczmiadzyn","ecimiadzin"]},{"id":13157324,"name":"Vermont Square","names":{"en":"Vermont Square"},"country":"US","lat":34.00204,"lon":-118.29896,"pop":47555,"search_terms":["vermont square"]},{"id":11549977,"name":"Vista Alegre","names":{"en":"Vista Alegre"},"country":"ES","lat":40.38432,"lon":-3.74575,"pop":47427,"search_terms":["vista alegre"]},{"id":9972726,"name":"Valasaravakkam","names":{"en":"Valasaravakkam"},"country":"IN","lat":13.04394,"lon":80.17251,"pop":47378,"search_terms":["valasaravakkam"]},{"id":620391,"name":"Volkovysk","names":{"en":"Vawkavysk","ru":"Волковыск","de":"Waukawysk","nl":"Volkovisk","ar":"فاوكافيسك","uk":"Вовковиськ","zh":"瓦夫卡維斯克","fa":"واوکویسک","ja":"ヴァウカヴィスク","tt":"Волковыск"},"country":"BY","lat":53.1561,"lon":24.4513,"pop":47300,"search_terms":["volkovisk","volkovysk","واوکویسک","vawkavysk","瓦夫卡維斯克","فاوكافيسك","вовковиськ","waukawysk","ヴァウカヴィスク","волковыск"]},{"id":1253180,"name":"Vikramasingapuram","names":{"en":"Vikramasingapuram"},"country":"IN","lat":8.71477,"lon":77.39032,"pop":47241,"search_terms":["vikramasingapuram"]},{"id":11487540,"name":"Vattiyurkavu","names":{"en":"Vattiyurkavu"},"country":"IN","lat":8.52469,"lon":76.98886,"pop":47187,"search_terms":["vattiyurkavu"]},{"id":3164039,"name":"Viterbo","names":{"en":"Viterbo","es":"Viterbo","pl":"Viterbo","de":"Viterbo","cs":"Viterbo","fr":"Viterbe","it":"Viterbo","ja":"ヴィテルボ","nl":"Viterbo","pt":"Viterbo","ro":"Viterbo","ru":"Витербо","sv":"Viterbo"},"country":"IT","lat":42.41937,"lon":12.1056,"pop":47134,"search_terms":["витербо","ヴィテルボ","viterbe","viterbo"]},{"id":784372,"name":"Vitina","names":{"en":"Vitina"},"country":"XK","lat":42.32139,"lon":21.35833,"pop":46959,"search_terms":["vitina"]},{"id":11962422,"name":"Vila Leopoldina","names":{"en":"Vila Leopoldina"},"country":"BR","lat":-23.52927,"lon":-46.73437,"pop":46875,"search_terms":["vila leopoldina"]},{"id":13512358,"name":"Victoria-Downtown","names":{"en":"Victoria-Downtown"},"country":"CA","lat":48.4277,"lon":-123.36104,"pop":46309,"search_terms":["victoria-downtown"]},{"id":2610802,"name":"Valby","names":{"en":"Valby","ru":"Вальбю"},"country":"DK","lat":55.66613,"lon":12.51388,"pop":46161,"search_terms":["вальбю","valby"]},{"id":3359741,"name":"Vredenburg","names":{"en":"Vredenburg"},"country":"ZA","lat":-32.90719,"lon":17.98997,"pop":45986,"search_terms":["vredenburg"]},{"id":2968054,"name":"Vincennes","names":{"en":"Vincennes","fr":"Vincennes","de":"Vincennes","pl":"Vincennes","es":"Vincennes","it":"Vincennes","nl":"Vincennes","pt":"Vincennes","sv":"Vincennes","ar":"فانسان","kk":"Венсенн","ja":"ヴァンセンヌ","fa":"ونسن","uk":"Венсенн","ko":"뱅센","ru":"Венсен","zh":"万塞讷","az":"Vensen"},"country":"FR","lat":48.8486,"lon":2.43769,"pop":45923,"search_terms":["ونسن","венсен","فانسان","vensen","венсенн","ヴァンセンヌ","뱅센","vincennes","万塞讷"]},{"id":3164565,"name":"Vercelli","names":{"en":"Vercelli","pl":"Vercelli","de":"Vercelli","fr":"Verceil","it":"Vercelli","ja":"ヴェルチェッリ","nl":"Vercelli","pt":"Vercelli","ro":"Vercelli","ru":"Верчелли","sv":"Vercelli"},"country":"IT","lat":45.32163,"lon":8.41989,"pop":45875,"search_terms":["верчелли","vercelli","ヴェルチェッリ","verceil"]},{"id":1220855,"name":"Vahdat","names":{"en":"Vahdat","ru":"Вахдат"},"country":"TJ","lat":38.55632,"lon":69.01354,"pop":45693,"search_terms":["кофарнихона","вахдат","vahdat"]},{"id":472722,"name":"Volkhov","names":{"en":"Volkhov","de":"Wolchow","ko":"볼호프","ru":"Волхов","es":"Vóljov","it":"Volchov","nl":"Volchov","ar":"فولخوف","fa":"وولخوف","ja":"ヴォルホフ","ka":"ვოლხოვი","tg":"Волхов","uk":"Волхов","pl":"Wołchow","sv":"Volchov","zh":"沃爾霍夫","cs":"Volchov","hy":"Վոլխով","tt":"Волхов"},"country":"RU","lat":59.92335,"lon":32.33966,"pop":45673,"search_terms":["volchov","فولخوف","vóljov","volkhov","волхов","볼호프","վոլխով","wołchow","ვოლხოვი","وولخوف","沃爾霍夫","ヴォルホフ","wolchow"]},{"id":2244177,"name":"Velingara","names":{"en":"Velingara"},"country":"SN","lat":13.15,"lon":-14.11667,"pop":45431,"search_terms":["velingara"]},{"id":2745392,"name":"Vlissingen","names":{"en":"Vlissingen","es":"Flesinga","it":"Flessinga","fr":"Flessingue","nl":"Vlissingen","de":"Vlissingen","id":"Vlissingen","ro":"Vlissingen","sv":"Vlissingen","ru":"Влиссинген","ar":"فلسنقن","ko":"플리싱언","hy":"Վլիսինգեն","zh":"弗利辛恩"},"country":"NL","lat":51.4425,"lon":3.57361,"pop":45273,"search_terms":["վլիսինգեն","flessinga","флиссинген","flushing","فلسنقن","влиссинген","فليسنجن","فلسنكن","flessingue","弗利辛恩","vlissingen","플리싱언","flesinga"]},{"id":1679811,"name":"Vinzons","names":{"en":"Vinzons"},"country":"PH","lat":14.1737,"lon":122.9066,"pop":45173,"search_terms":["vinzons"]},{"id":3868633,"name":"Vallenar","names":{"en":"Vallenar"},"country":"CL","lat":-28.57617,"lon":-70.75938,"pop":44895,"search_terms":["vallenar"]},{"id":2971041,"name":"Valenciennes","names":{"en":"Valenciennes","fr":"Valenciennes","pl":"Valenciennes","de":"Valenciennes","cs":"Valenciennes","id":"Valenciennes","it":"Valenciennes","nl":"Valenciennes","ro":"Valenciennes","sv":"Valenciennes","ru":"Валансьен","zh":"瓦朗謝訥","ja":"ヴァランシエンヌ","uk":"Валансьєнн","fa":"والنسین","kk":"Валансьенн","th":"วาล็องเซียน","ar":"فالنسيان","el":"Βαλανσιέν","ko":"발랑시엔"},"country":"FR","lat":50.35909,"lon":3.52506,"pop":44821,"search_terms":["فالنسيان","валансьен","валансьєнн","瓦朗謝訥","валансьенн","วาล็องเซียน","valenciennes","βαλανσιέν","발랑시엔","ヴァランシエンヌ","والنسین"]},{"id":3163948,"name":"Vomero","names":{"en":"Vomero","zh":"沃梅罗"},"country":"IT","lat":40.84282,"lon":14.23075,"pop":44791,"search_terms":["vomero","沃梅罗"]},{"id":1253098,"name":"Visharam","names":{"en":"Visharam"},"country":"IN","lat":12.91808,"lon":79.27756,"pop":44786,"search_terms":["visharam"]},{"id":733905,"name":"Veroia","names":{"en":"Veroia","el":"Βέροια","ru":"Верия"},"country":"GR","lat":40.52437,"lon":22.20242,"pop":44464,"search_terms":["veroia","véroia","верия","βέροια"]},{"id":3832778,"name":"Villa Constitucion","names":{"en":"Villa Constitucion","fa":"وییا کونستیتوسیون","zh":"孔斯蒂圖西翁鎮"},"country":"AR","lat":-33.22795,"lon":-60.32994,"pop":44271,"search_terms":["孔斯蒂圖西翁鎮","villa constitucion","وییا کونستیتوسیون"]},{"id":1253403,"name":"Varangaon","names":{"en":"Varangaon"},"country":"IN","lat":21.01767,"lon":75.91042,"pop":44067,"search_terms":["varangaon"]},{"id":3832811,"name":"Villa Angela","names":{"en":"Villa Angela","fa":"وییا آنخلا","zh":"安吉拉鎮"},"country":"AR","lat":-27.57679,"lon":-60.71114,"pop":43511,"search_terms":["villa angela","安吉拉鎮","وییا آنخلا"]},{"id":3427453,"name":"Villa de Mayo","names":{"en":"Villa de Mayo"},"country":"AR","lat":-34.5108,"lon":-58.68059,"pop":43405,"search_terms":["villa de mayo"]},{"id":943032,"name":"Volksrust","names":{"en":"Volksrust"},"country":"ZA","lat":-27.36541,"lon":29.88175,"pop":43378,"search_terms":["volksrust"]},{"id":1253392,"name":"Varkala","names":{"en":"Varkala","ru":"Варкала","bn":"বারকল","hi":"वर्कला","ta":"வர்க்கலை","zh":"瓦尔卡拉","uk":"Варкала","ur":"ورکلا"},"country":"IN","lat":8.7333,"lon":76.7167,"pop":43276,"search_terms":["варкала","বারকল","varkala","वर्कला","ورکلا","瓦尔卡拉","வர்க்கலை"]},{"id":3385538,"name":"Vargem Grande","names":{"en":"Vargem Grande"},"country":"BR","lat":-3.54306,"lon":-43.91583,"pop":43261,"search_terms":["vargem grande"]},{"id":1024683,"name":"Vilankulo","names":{"en":"Vilankulo","de":"Vilankulo","ru":"Виланкуло","pt":"Vilanculos","fr":"Vilankulo","ka":"ვილანკულუში","id":"Vilanculos","sw":"Vilanculo","el":"Βιλανκούλο","it":"Vilankulo","zh":"維蘭庫洛","vi":"Vilanculos","ja":"ヴィランクーロ","fa":"ویلانکولو، موزامبیک","pl":"Vilankulo","ro":"Vilankulo","nl":"Vilankulo"},"country":"MZ","lat":-22.0,"lon":35.31667,"pop":43183,"search_terms":["vilankulo","vilanculos","ヴィランクーロ","vilanculo","ვილანკულუში","виланкуло","βιλανκούλο","ویلانکولو، موزامبیک","維蘭庫洛"]},{"id":689487,"name":"Vyshneve","names":{"en":"Vyshneve","ru":"Вишневе","uk":"Вишневе","de":"Wyschnewe","fr":"Vychneve","ar":"فيشنيفي","cs":"Vyšneve","fa":"ویشنف","hy":"Վիշնյովոե","ka":"ვიშნევოე","ro":"Vîșneve","pl":"Wysznewe","sv":"Vysjneve","zh":"維什涅韋"},"country":"UA","lat":50.38913,"lon":30.3705,"pop":42983,"search_terms":["vysjneve","ვიშნევოე","vîșneve","wysznewe","vychneve","vyshneve","vyšneve","維什涅韋","вишневе","ویشنف","вишнёвое","вишневое","فيشنيفي","wyschnewe","վիշնյովոե"]},{"id":3345517,"name":"Virei","names":{"en":"Virei"},"country":"AO","lat":-15.727,"lon":12.94961,"pop":42607,"search_terms":["virei"]},{"id":3465813,"name":"Vera Cruz","names":{"en":"Vera Cruz"},"country":"BR","lat":-12.96028,"lon":-38.60861,"pop":42529,"search_terms":["vera cruz"]},{"id":8341919,"name":"Varash","names":{"en":"Varash","uk":"Вараш","de":"Warasch","ru":"Вараш","ja":"ヴァラシュ"},"country":"UA","lat":51.34038,"lon":25.85547,"pop":42000,"search_terms":["warasch","クズネツォフスク","varash","ヴァラシュ","вараш"]},{"id":3164672,"name":"Vasto","names":{"en":"Vasto","pl":"Vasto","de":"Vasto","fr":"Vasto","it":"Vasto","nl":"Vasto","pt":"Vasto","ro":"Vasto","ru":"Васто"},"country":"IT","lat":42.1115,"lon":14.70649,"pop":41409,"search_terms":["васто","vasto"]},{"id":1253545,"name":"Vaijapur","names":{"en":"Vaijapur"},"country":"IN","lat":19.92672,"lon":74.7275,"pop":41296,"search_terms":["vaijapur"]},{"id":2610319,"name":"Viborg","names":{"en":"Viborg","de":"Viborg","pl":"Viborg","fr":"Viborg","it":"Viborg","nl":"Viborg","pt":"Viburgo","sv":"Viborg","ru":"Виборг","ka":"ვიბორგი","uk":"Віборг","ja":"ヴィボー","el":"Βίμποργκ","ko":"비보르","zh":"維堡","ur":"ویبو، ڈنمارک"},"country":"DK","lat":56.45319,"lon":9.40201,"pop":41239,"search_terms":["віборг","viborg","ویبو، ڈنمارک","βίμποργκ","維堡","виборг","viburgo","ვიბორგი","ヴィボー","비보르"]},{"id":3436714,"name":"Villarrica","names":{"en":"Villarrica","es":"Villarrica","de":"Villarrica","fr":"Villarrica","nl":"Villarrica","ru":"Вильяррика","tr":"Villarrica","uk":"Вільярріка","fa":"ویاریکا","ka":"ვილიარიკა","zh":"比亚里卡","ko":"비야리카","ur":"ویاریکا، پیراگوئے"},"country":"PY","lat":-25.74946,"lon":-56.43518,"pop":41157,"search_terms":["ვილიარიკა","вильяррика","ویاریکا","비야리카","вільярріка","villarrica","ویاریکا، پیراگوئے","比亚里卡"]},{"id":2816630,"name":"Voelklingen","names":{"en":"Voelklingen","kk":"Фёльклинген","fa":"فولکلینگن","ja":"フェルクリンゲン","uk":"Фельклінген","ru":"Фёльклинген","zh":"弗尔克林根","de":"Völklingen","ar":"فولكلينغن","ky":"Фөльклинген"},"country":"DE","lat":49.25162,"lon":6.85873,"pop":41132,"search_terms":["フェルクリンゲン","völklingen","弗尔克林根","فولكلينغن","фөльклинген","фёльклинген","فولکلینگن","фельклінген","voelklingen"]},{"id":6173004,"name":"Val-des-Arbres","names":{"en":"Val-des-Arbres"},"country":"CA","lat":45.59837,"lon":-73.67542,"pop":40974,"search_terms":["val-des-arbres"]},{"id":5405841,"name":"Venice","names":{"en":"Venice","el":"Βένις","ja":"ヴェニス","ko":"베니스","zh":"威尼斯","ar":"فينسيا","fa":"ونیز، لس‌آنجلس"},"country":"US","lat":33.99084,"lon":-118.46008,"pop":40885,"search_terms":["威尼斯","venice","venice beach","βένις","ヴェニス","فينسيا","ونیز، لس‌آنجلس","베니스"]},{"id":10214681,"name":"Vadgaon","names":{"en":"Vadgaon"},"country":"IN","lat":20.37589,"lon":78.11258,"pop":40884,"search_terms":["vadgaon"]},{"id":1054329,"name":"Vangaindrano","names":{"en":"Vangaindrano","sv":"Vangaindrano","it":"Vangaindrano","fr":"Vangaindrano","zh":"萬加因德拉努","ja":"バンゲーンドラヌ","fa":"وانگایندرانو","pl":"Vangaindrano","ro":"Vangaindrano","nl":"Vangaindrano"},