[{"id":1790630,"name":"Xi'an","names":{"en":"Xi'an","de":"Xi'an","es":"Xi'an","fr":"Xi'an","ja":"西安市","ko":"시안 시","nl":"Xi'an","pl":"Xi'an","pt":"Xian","ro":"Xī'ān","sv":"Xi'an","th":"ซีอาน","zh":"西安","id":"Xian","vi":"Tây An","it":"Xi'an","tr":"Xi'an","ru":"Сиань","uk":"Сіань"},"country":"CN","lat":34.25833,"lon":108.92861,"pop":9600000,"search_terms":["сіань","xi'an","xī'ān","hsi-an","西安","сиань","시안 시","tây an","ซีอาน","xian","西安市","xi’an"]},{"id":1790645,"name":"Xiamen","names":{"en":"Xiamen","de":"Xiamen","es":"Xiamen","fr":"Xiamen","pl":"Xiamen","cs":"Sia-men","id":"Xiamen","ja":"廈門市","nl":"Xiamen","sv":"Xiamen","vi":"Hạ Môn","ru":"Сямэнь","fa":"شیامن","ka":"სიამინი","th":"เซี่ยเหมิน","uk":"Сямень","ko":"샤먼 시","zh":"厦门市","ar":"شيامن","el":"Σιαμέν","ur":"شیامین"},"country":"CN","lat":24.47979,"lon":118.08187,"pop":4617251,"search_terms":["شیامین","xiamen","شیامن","სიამინი","เซี่ยเหมิน","hạ môn","廈門市","сямень","厦门市","сямэнь","샤먼 시","شيامن","σιαμέν","сямынь","sia-men","amoy"]},{"id":1788852,"name":"Xining","names":{"en":"Xining","de":"Xining","es":"Xining","ja":"西寧市","nl":"Xining","pl":"Xining","zh":"西宁","ko":"시닝 시","ru":"Синин","fr":"Xining","id":"Xining","it":"Xining","sv":"Xining","vi":"Tây Ninh","hi":"शिनिंग","cs":"Si-ning","uk":"Сінін","ar":"شينينغ","fa":"شینینگ","ka":"სინინი","ur":"شینینگ","az":"Sinin"},"country":"CN","lat":36.62554,"lon":101.75739,"pop":1677177,"search_terms":["tây ninh","شینینگ","西寧市","სინინი","sining","शिनिंग","xining","شينينغ","сінін","시닝 시","西宁","西宁市","si-ning","синин","sinin"]},{"id":1790587,"name":"Xiangyang","names":{"en":"Xiangyang","fr":"Xiangfan","id":"Xiangfan","nl":"Xiangfan","ru":"Сянъян","zh":"襄阳","cs":"Siang-jang","de":"Xiangyang","es":"Xiangyang","ja":"襄陽市","ko":"샹양시","uk":"Сян'ян","vi":"Tương Dương"},"country":"CN","lat":32.0422,"lon":112.14479,"pop":1294733,"search_terms":["襄阳市","xiangyang","襄阳","сянъян","xiangfan","сян'ян","샹양시","siang-jang","襄陽市","tương dương"]},{"id":1788046,"name":"Xuchang","names":{"en":"Xuchang","zh":"将官池"},"country":"CN","lat":34.03189,"lon":113.86299,"pop":1265536,"search_terms":["xuchang","将官池"]},{"id":10630003,"name":"Xuzhou","names":{"en":"Xuzhou","zh":"徐州市","ru":"Сюйчжоу","ja":"徐州市","ko":"쉬저우 시","fa":"شوژو","fr":"Xuzhou","es":"Xuzhou","de":"Xuzhou"},"country":"CN","lat":34.20442,"lon":117.28386,"pop":1253991,"search_terms":["شوژو","徐州市","сюйчжоу","쉬저우 시","xuzhou"]},{"id":1788534,"name":"Xinyang","names":{"en":"Xinyang","ru":"Цзинань","ko":"신양 시","ja":"信陽市","fa":"شین‌یانگ","ar":"شينيانج","fr":"Xinyang","de":"Xinyang","es":"Xinyang"},"country":"CN","lat":32.12278,"lon":114.06556,"pop":1230042,"search_terms":["شينيانج","신양 시","شین‌یانگ","xinyang","信陽市","цзинань"]},{"id":1787957,"name":"Xuhui","names":{"en":"Xuhui"},"country":"CN","lat":31.19594,"lon":121.44709,"pop":1109800,"search_terms":["xuhui"]},{"id":1788572,"name":"Xinxiang","names":{"en":"Xinxiang","ru":"Синьсян","zh":"南干道"},"country":"CN","lat":35.19033,"lon":113.80151,"pop":1047088,"search_terms":["南干道","синьсян","xinxiang"]},{"id":1790353,"name":"Xianyang","names":{"en":"Xianyang","ru":"Саньян","zh":"咸阳","cs":"Sien-jang","fa":"شیان‌یانگ","ja":"咸陽市","ko":"셴양 시","uk":"Сяньян","vi":"Hàm Dương","th":"เสียนหยาง","ur":"شیانیانگ"},"country":"CN","lat":34.33778,"lon":108.70261,"pop":1034081,"search_terms":["셴양 시","сяньян","咸陽市","hàm dương","شیانیانگ","咸阳","เสียนหยาง","sien-jang","xianyang","شیان‌یانگ","саньян"]},{"id":1790492,"name":"Xiangtan","names":{"en":"Xiangtan","ru":"Сянтань","cs":"Siang-tchan","ja":"湘潭市","ka":"სიანტანი","ko":"샹탄 시","vi":"Tương Đàm","zh":"湘潭市","fa":"شیانگتان","ur":"شیانگتان"},"country":"CN","lat":27.85,"lon":112.9,"pop":959303,"search_terms":["siang-tchan","شیانگتان","샹탄 시","tương đàm","сянтань","სიანტანი","湘潭市","xiangtan"]},{"id":1790254,"name":"Xiaogan","names":{"en":"Xiaogan","fr":"Xiaogan","zh":"孝感市","cs":"Siao-kan","fa":"شیاوگان","ja":"孝感市","ko":"샤오간 시","ur":"شیاوگان","vi":"Hiếu Cảm","ru":"Сяогань"},"country":"CN","lat":30.92689,"lon":113.92221,"pop":908266,"search_terms":["xiaogan","孝感市","hiếu cảm","شیاوگان","샤오간 시","siao-kan","сяогань"]},{"id":1788508,"name":"Xinyu","names":{"en":"Xinyu","cs":"Sin-jü","fa":"شینیو","ko":"신위 시","ur":"شینیو","vi":"Tân Dư","ru":"Синьюй"},"country":"CN","lat":27.80429,"lon":114.93335,"pop":839488,"search_terms":["tân dư","신위 시","شینیو","xinyu","sin-jü","синьюй"]},{"id":1788927,"name":"Xingtai","names":{"en":"Xingtai","cs":"Sing-tchaj","uk":"Сінтай","ko":"싱타이 시","ja":"ケイ台市","vi":"Hình Đài","ru":"Синтай","zh":"邢台市","fa":"شینگتای","ur":"شنگتائی"},"country":"CN","lat":37.06217,"lon":114.49272,"pop":798770,"search_terms":["شینگتای","hình đài","邢台","сінтай","邢台市","شنگتائی","ケイ台市","싱타이 시","sing-tchaj","синтай","xingtai"]},{"id":1788081,"name":"Xuancheng","names":{"en":"Xuancheng"},"country":"CN","lat":30.9525,"lon":118.75528,"pop":774332,"search_terms":["xuancheng"]},{"id":1788450,"name":"Xinzhou","names":{"en":"Xinzhou","zh":"忻州","cs":"Sin-čou","ko":"신저우 시","vi":"Hãn Châu","ru":"Синьчжоу","fa":"شینجو","ur":"شنژوو"},"country":"CN","lat":38.40917,"lon":112.73333,"pop":544683,"search_terms":["شینجو","忻府区","hãn châu","sin-čou","忻州市","синьчжоу","شنژوو","忻州","xinzhou","신저우 시"]},{"id":1790396,"name":"Xianning","names":{"en":"Xianning","ru":"Сяньнин"},"country":"CN","lat":29.84347,"lon":114.32201,"pop":512517,"search_terms":["сяньнин","xianning"]},{"id":1789647,"name":"Xichang","names":{"en":"Xichang","fr":"Xichang","de":"Xichang","ko":"시창","nl":"Xichang","zh":"西昌市","ru":"Сичан"},"country":"CN","lat":27.89642,"lon":102.26341,"pop":481796,"search_terms":["xichang","西昌","시창","сичан","西昌市"]},{"id":3514450,"name":"Xochimilco","names":{"en":"Xochimilco","es":"Delegación Xochimilco"},"country":"MX","lat":19.25465,"lon":-99.10356,"pop":442178,"search_terms":["xochimilco","delegación xochimilco"]},{"id":3526617,"name":"Xalapa de Enriquez","names":{"en":"Xalapa","de":"Jalapa Enríquez","es":"Xalapa","fr":"Xalapa","nl":"Xalapa de Enríquez","pl":"Jalapa Enriques","pt":"Xalapa","sv":"Xalapa"},"country":"MX","lat":19.53124,"lon":-96.91589,"pop":424755,"search_terms":["xalapa de enriquez","jalapa enriques","jalapa","jalapa enríquez","xalapa","xalapa de enríquez"]},{"id":3514519,"name":"Xico","names":{"en":"Xico","es":"San Miguel Xico"},"country":"MX","lat":19.27032,"lon":-98.95088,"pop":384327,"search_terms":["xico","san miguel xico"]},{"id":2033574,"name":"Xuanhua","names":{"en":"Xuanhua","zh":"张家口市宣化区"},"country":"CN","lat":40.61205,"lon":115.06463,"pop":373422,"search_terms":["xuanhua","宣化","张家口市宣化区"]},{"id":8054802,"name":"Xilinhot","names":{"en":"Xilinhot"},"country":"CN","lat":43.93889,"lon":116.07021,"pop":349953,"search_terms":["xilinhot"]},{"id":1807566,"name":"Xingyi","names":{"en":"Xingyi","zh":"兴义"},"country":"CN","lat":25.09617,"lon":104.90639,"pop":322890,"search_terms":["兴义","xingyi"]},{"id":1789262,"name":"Xinyi","names":{"en":"Xinyi","zh":"新安"},"country":"CN","lat":34.38424,"lon":118.34617,"pop":300511,"search_terms":["xinyi","新沂","新安镇","新安"]},{"id":1788245,"name":"Xiuying","names":{"en":"Xiuying","zh":"秀英"},"country":"CN","lat":20.00073,"lon":110.29359,"pop":290000,"search_terms":["xiuying","秀英"]},{"id":1529046,"name":"Xinyuan","names":{"en":"Xinyuan","zh":"新源县"},"country":"CN","lat":43.42649,"lon":83.24959,"pop":282718,"search_terms":["新源县","新源","xinyuan"]},{"id":8594670,"name":"Xingning","names":{"en":"Xingning","zh":"兴城"},"country":"CN","lat":24.1483,"lon":115.72272,"pop":274499,"search_terms":["兴宁市","兴宁","兴城","xingning","兴城镇"]},{"id":1560565,"name":"Xuan Loc","names":{"en":"Xuan Loc"},"country":"VN","lat":10.93333,"lon":107.23333,"pop":253140,"search_terms":["xuan loc"]},{"id":1790371,"name":"Xiantao","names":{"en":"Xiantao"},"country":"CN","lat":30.3708,"lon":113.44294,"pop":239406,"search_terms":["xiantao"]},{"id":1788618,"name":"Xintai","names":{"en":"Xintai"},"country":"CN","lat":35.90056,"lon":117.75194,"pop":222459,"search_terms":["xintai"]},{"id":1675393,"name":"Xizhi","names":{"en":"Xizhi","zh":"汐止","es":"Hsichih","ja":"汐止区","ko":"시즈구","vi":"Tịch Chỉ","de":"Xizhi","ru":"Сичжи","fr":"Xizhi","uk":"Січжі","it":"Xizhi","pl":"Xizhi","nl":"Xizhi District"},"country":"TW","lat":25.06615,"lon":121.65985,"pop":204619,"search_terms":["汐止区","січжі","xizhi","tịch chỉ","시즈구","汐止區","сичжи","xizhi district","hsichih","汐止"]},{"id":1789137,"name":"Xindi","names":{"en":"Xindi"},"country":"CN","lat":29.81667,"lon":113.46667,"pop":175761,"search_terms":["xindi"]},{"id":1024552,"name":"Xai-Xai","names":{"en":"Xai-Xai","es":"Xai Xai","pl":"Xai-Xai","it":"Xai-Xai","ja":"シャイシャイ","pt":"Xai-Xai","sv":"Xai-Xai","ru":"Шаи-Шаи","el":"Σάι-Σάι","ka":"შაი-შაი","ko":"샤이샤이","uk":"Шаї-Шаї","ur":"شای-شای","zh":"賽賽"},"country":"MZ","lat":-25.05194,"lon":33.64417,"pop":154356,"search_terms":["賽賽","шаї-шаї","σάι-σάι","შაი-შაი","xai-xai","шаи-шаи","シャイシャイ","샤이샤이","شای-شای","xai xai"]},{"id":1788816,"name":"Xinji","names":{"en":"Xinji","zh":"辛集"},"country":"CN","lat":37.92595,"lon":115.21907,"pop":145911,"search_terms":["xinji","辛集"]},{"id":7845495,"name":"Xiayang","names":{"en":"Xiayang","zh":"青浦区"},"country":"CN","lat":31.14967,"lon":121.11588,"pop":137321,"search_terms":["青浦区","xiayang"]},{"id":1789703,"name":"Xiazhen","names":{"en":"Xiazhen"},"country":"CN","lat":34.80222,"lon":117.11167,"pop":125667,"search_terms":["xiazhen"]},{"id":1788268,"name":"Xiulin","names":{"en":"Xiulin"},"country":"CN","lat":29.71667,"lon":112.4,"pop":122411,"search_terms":["xiulin"]},{"id":1790442,"name":"Xiangcheng","names":{"en":"Xiangcheng","zh":"祥城"},"country":"CN","lat":25.46687,"lon":100.56248,"pop":121959,"search_terms":["祥城","xiangcheng"]},{"id":2033824,"name":"Xilin Hot","names":{"en":"Xilin Hot"},"country":"CN","lat":43.96667,"lon":116.03333,"pop":120965,"search_terms":["xilin hot"]},{"id":1787901,"name":"Xunchang","names":{"en":"Xunchang","zh":"巡场"},"country":"CN","lat":28.45433,"lon":104.71498,"pop":118664,"search_terms":["xunchang","巡场"]},{"id":1513604,"name":"Xiva","names":{"en":"Xiva","pl":"Chiwa","de":"Xiva","ar":"خيوة","fa":"خیوه","fr":"Khiva","nl":"Xiva","ru":"Хива","sv":"Chiva","uz":"Xiva","es":"Jiva","ur":"خیوا"},"country":"UZ","lat":41.38555,"lon":60.36408,"pop":115000,"search_terms":["khiva","jiva","chiwa","xiva","خیوه","chiva","خيوة","خیوا","хива"]},{"id":1789496,"name":"Xigang","names":{"en":"Xigang","zh":"习岗"},"country":"CN","lat":38.55258,"lon":106.34805,"pop":112061,"search_terms":["xigang","习岗","贺兰县"]},{"id":1787828,"name":"Xuyong","names":{"en":"Xuyong"},"country":"CN","lat":28.16992,"lon":105.43452,"pop":108352,"search_terms":["xuyong"]},{"id":1784820,"name":"Xinghua","names":{"en":"Xinghua","ru":"Синхуа"},"country":"CN","lat":32.93917,"lon":119.83417,"pop":105918,"search_terms":["xinghua","синхуа"]},{"id":1529363,"name":"Xincheng","names":{"en":"Xincheng","fr":"Koutcha","de":"Kuqa","zh":"库车县","ru":"Куча"},"country":"CN","lat":41.71497,"lon":82.93249,"pop":102752,"search_terms":["库车县","xincheng","kucha","koutcha","kuqa","куча","新城"]},{"id":1788492,"name":"Xinzhai","names":{"en":"Xinzhai"},"country":"CN","lat":36.4,"lon":118.61667,"pop":100168,"search_terms":["xinzhai"]},{"id":1788207,"name":"Xixiang","names":{"en":"Xixiang","zh":"西乡县"},"country":"CN","lat":32.98703,"lon":107.764,"pop":99867,"search_terms":["xixiang","西乡县"]},{"id":1812647,"name":"Xinle","names":{"en":"Xinle","zh":"新乐"},"country":"CN","lat":38.34898,"lon":114.68531,"pop":99347,"search_terms":["新乐","xinle"]},{"id":2033766,"name":"Xingcheng","names":{"en":"Xingcheng","ru":"Синчэн"},"country":"CN","lat":40.61667,"lon":120.71667,"pop":98968,"search_terms":["синчэн","xingcheng"]},{"id":1788638,"name":"Xinshi","names":{"en":"Xinshi","zh":"新市"},"country":"CN","lat":31.04704,"lon":113.14098,"pop":98422,"search_terms":["新市","xinshi"]},{"id":1812057,"name":"Xinyi","names":{"en":"Xinyi","zh":"信宜"},"country":"CN","lat":22.37303,"lon":110.94746,"pop":98259,"search_terms":["xinyi","信宜"]},{"id":1803616,"name":"Xishan","names":{"en":"Xishan","ru":"Лилин","zh":"醴陵"},"country":"CN","lat":27.66667,"lon":113.5,"pop":98162,"search_terms":["xishan","醴陵","醴陵市","西山","лилин"]},{"id":1908011,"name":"Xinxing","names":{"en":"Xinxing","zh":"新兴镇"},"country":"CN","lat":34.77597,"lon":105.32216,"pop":97483,"search_terms":["新兴","xinxing","新兴镇"]},{"id":1789998,"name":"Xiaoshan","names":{"en":"Xiaoshan","ru":"Сяошань"},"country":"CN","lat":30.16746,"lon":120.25883,"pop":95234,"search_terms":["xiaoshan","сяошань"]},{"id":1789030,"name":"Xingguo","names":{"en":"Xingguo","zh":"秦安县"},"country":"CN","lat":34.85861,"lon":105.66861,"pop":95211,"search_terms":["xingguo","秦安县"]},{"id":1789289,"name":"Ximeicun","names":{"en":"Ximeicun","zh":"西美村"},"country":"CN","lat":24.98773,"lon":118.3858,"pop":94326,"search_terms":["ximeicun","西美村"]},{"id":1788944,"name":"Xingren","names":{"en":"Xingren"},"country":"CN","lat":25.43333,"lon":105.23333,"pop":91579,"search_terms":["xingren"]},{"id":1789462,"name":"Xihe","names":{"en":"Xihe"},"country":"CN","lat":31.68635,"lon":113.46585,"pop":90422,"search_terms":["xihe"]},{"id":1789691,"name":"Xiazhuang","names":{"en":"Xiazhuang"},"country":"CN","lat":36.44917,"lon":119.83556,"pop":88710,"search_terms":["xiazhuang"]},{"id":1790471,"name":"Xiangxiang","names":{"en":"Xiangxiang","ja":"湘郷市","ko":"샹샹 시","vi":"Tương Hương","zh":"湘乡市"},"country":"CN","lat":27.73333,"lon":112.53333,"pop":87592,"search_terms":["샹샹 시","tương hương","湘乡市","xiangxiang","湘郷市"]},{"id":1787925,"name":"Xujiang","names":{"en":"Xujiang"},"country":"CN","lat":26.83945,"lon":116.32011,"pop":87459,"search_terms":["xujiang"]},{"id":1790392,"name":"Xiannue","names":{"en":"Xiannue","zh":"仙女"},"country":"CN","lat":32.42806,"lon":119.56048,"pop":83936,"search_terms":["xiannue","仙女","江都市"]},{"id":1787837,"name":"Xucheng","names":{"en":"Xucheng","zh":"徐城"},"country":"CN","lat":20.33025,"lon":110.16643,"pop":83267,"search_terms":["徐城街道","徐城","徐城镇","xucheng"]},{"id":1789118,"name":"Xindian","names":{"en":"Xindian"},"country":"CN","lat":36.7975,"lon":118.29444,"pop":82555,"search_terms":["xindian"]},{"id":1788269,"name":"Xiugu","names":{"en":"Xiugu"},"country":"CN","lat":27.91132,"lon":116.77637,"pop":81153,"search_terms":["xiugu"]},{"id":1789649,"name":"Xichang","names":{"en":"Xichang"},"country":"CN","lat":21.63333,"lon":108.95,"pop":80064,"search_terms":["xichang"]},{"id":1788402,"name":"Xiongzhou","names":{"en":"Xiongzhou","zh":"雄州"},"country":"CN","lat":25.11667,"lon":114.3,"pop":79050,"search_terms":["xiongzhou","雄州"]},{"id":1788452,"name":"Xinzhou","names":{"en":"Xinzhou"},"country":"CN","lat":30.86667,"lon":114.8,"pop":78767,"search_terms":["xinzhou"]},{"id":1805175,"name":"Xixiang","names":{"en":"Xixiang"},"country":"CN","lat":22.59306,"lon":113.8889,"pop":78022,"search_terms":["xixiang"]},{"id":1668353,"name":"Xinying","names":{"en":"Xinying","zh":"新營","cs":"Sin-jing","ja":"新営区","ko":"신잉 구","vi":"Tân Doanh"},"country":"TW","lat":23.30694,"lon":120.31056,"pop":74972,"search_terms":["新営区","sin-jing","신잉 구","新營區","新營","xinying","tân doanh","xinying district"]},{"id":2033675,"name":"Xinmin","names":{"en":"Xinmin","ru":"Синьминь"},"country":"CN","lat":41.99083,"lon":122.82528,"pop":74139,"search_terms":["xinmin","синьминь"]},{"id":1790379,"name":"Xianshuigu","names":{"en":"Xianshuigu","zh":"咸水沽"},"country":"CN","lat":38.985,"lon":117.38278,"pop":74028,"search_terms":["津南区","xianshuigu","咸水沽镇","咸水沽","津南"]},{"id":1788462,"name":"Xinzhi","names":{"en":"Xinzhi"},"country":"CN","lat":36.49889,"lon":111.70472,"pop":72303,"search_terms":["xinzhi"]},{"id":2033602,"name":"Xiuyan","names":{"en":"Xiuyan"},"country":"CN","lat":40.29278,"lon":123.27444,"pop":71614,"search_terms":["xiuyan"]},{"id":1788887,"name":"Xinhe","names":{"en":"Xinhe","zh":"新河"},"country":"CN","lat":36.925,"lon":119.59306,"pop":69884,"search_terms":["新河","xinhe"]},{"id":1529528,"name":"Xininglu","names":{"en":"Xininglu","zh":"西宁路"},"country":"CN","lat":44.33957,"lon":84.90425,"pop":69361,"search_terms":["xininglu","西宁路"]},{"id":1788061,"name":"Xuantan","names":{"en":"Xuantan","zh":"玄滩"},"country":"CN","lat":29.20856,"lon":105.56974,"pop":69250,"search_terms":["xuantan","玄滩"]},{"id":2033934,"name":"Xiaoshi","names":{"en":"Xiaoshi"},"country":"CN","lat":41.29711,"lon":124.12092,"pop":68994,"search_terms":["xiaoshi"]},{"id":1787873,"name":"Xunyang","names":{"en":"Xunyang"},"country":"CN","lat":32.82389,"lon":109.36528,"pop":67929,"search_terms":["xunyang"]},{"id":601339,"name":"Xo'jayli Shahri","names":{"en":"Xo'jayli Shahri","ru":"Ходжейли","uz":"Xo‘jayli Shahri"},"country":"UZ","lat":42.40881,"lon":59.44544,"pop":67800,"search_terms":["xo‘jayli shahri","khŭjayli shahri","xo'jayli shahri","ходжейли"]},{"id":1788461,"name":"Xinzhou","names":{"en":"Xinzhou"},"country":"CN","lat":19.71446,"lon":109.31146,"pop":67316,"search_terms":["xinzhou"]},{"id":1790100,"name":"Xiaolingwei","names":{"en":"Xiaolingwei","zh":"孝陵卫街道"},"country":"CN","lat":32.03244,"lon":118.854,"pop":66031,"search_terms":["孝陵卫街道","xiaolingwei"]},{"id":1790601,"name":"Xiangcheng Chengguanzhen","names":{"en":"Xiangcheng Chengguanzhen","zh":"襄城"},"country":"CN","lat":33.84703,"lon":113.4778,"pop":65833,"search_terms":["襄城城关镇","襄城","xiangcheng chengguanzhen"]},{"id":1813892,"name":"Xincheng","names":{"en":"Xincheng","zh":"新城"},"country":"CN","lat":33.63333,"lon":115.18333,"pop":65411,"search_terms":["新城","xincheng"]},{"id":1789693,"name":"Xiazhuang","names":{"en":"Xiazhuang"},"country":"CN","lat":34.91611,"lon":118.63889,"pop":63285,"search_terms":["xiazhuang"]},{"id":1790434,"name":"Xiangzhou","names":{"en":"Xiangzhou"},"country":"CN","lat":36.16444,"lon":119.41889,"pop":61748,"search_terms":["xiangzhou"]},{"id":1788522,"name":"Xinye","names":{"en":"Xinye","zh":"汉城"},"country":"CN","lat":32.52875,"lon":112.36514,"pop":61633,"search_terms":["新野","xinye","汉城"]},{"id":1790413,"name":"Xianju","names":{"en":"Xianju","zh":"仙居"},"country":"CN","lat":28.8547,"lon":120.73168,"pop":61532,"search_terms":["xianju","仙居"]},{"id":2033866,"name":"Xifeng","names":{"en":"Xifeng"},"country":"CN","lat":42.73722,"lon":124.72222,"pop":61087,"search_terms":["xifeng"]},{"id":1789546,"name":"Xiema","names":{"en":"Xiema","zh":"歇马"},"country":"CN","lat":29.77415,"lon":106.3688,"pop":60933,"search_terms":["歇马","xiema","歇马镇"]},{"id":1788206,"name":"Xixiang","names":{"en":"Xixiang"},"country":"CN","lat":35.16278,"lon":112.865,"pop":60745,"search_terms":["xixiang"]},{"id":1789945,"name":"Xiaoweizhai","names":{"en":"Xiaoweizhai"},"country":"CN","lat":26.19028,"lon":107.5125,"pop":58913,"search_terms":["xiaoweizhai"]},{"id":2033739,"name":"Xinglongshan","names":{"en":"Xinglongshan"},"country":"CN","lat":43.95611,"lon":125.46611,"pop":58432,"search_terms":["xinglongshan"]},{"id":1549660,"name":"Xuzhuang","names":{"en":"Xuzhuang"},"country":"CN","lat":34.29614,"lon":117.45798,"pop":56099,"search_terms":["xuzhuang"]},{"id":2033667,"name":"Xinqing","names":{"en":"Xinqing","zh":"新青"},"country":"CN","lat":48.28701,"lon":129.52337,"pop":55415,"search_terms":["新青","xinqing"]},{"id":1561907,"name":"Xom Cai Nuoc","names":{"en":"Xom Cai Nuoc"},"country":"VN","lat":9.8,"lon":105.1,"pop":54397,"search_terms":["xom cai nuoc"]},{"id":1675281,"name":"Xihu","names":{"en":"Xihu","zh":"溪湖"},"country":"TW","lat":23.95683,"lon":120.47918,"pop":54033,"search_terms":["溪湖","xihu"]},{"id":1789699,"name":"Xiazhuang","names":{"en":"Xiazhuang"},"country":"CN","lat":25.4,"lon":100.83333,"pop":53954,"search_terms":["xiazhuang"]},{"id":6318968,"name":"Xinguara","names":{"en":"Xinguara"},"country":"BR","lat":-7.09829,"lon":-49.9435,"pop":52893,"search_terms":["xinguara"]},{"id":7735165,"name":"Xingqiao","names":{"en":"Xingqiao"},"country":"CN","lat":30.39943,"lon":120.25171,"pop":52400,"search_terms":["xingqiao"]},{"id":3444848,"name":"Xanxere","names":{"en":"Xanxere"},"country":"BR","lat":-26.87694,"lon":-52.40417,"pop":51607,"search_terms":["xanxere"]},{"id":1549747,"name":"Xinglou","names":{"en":"Xinglou"},"country":"CN","lat":34.56667,"lon":117.82778,"pop":49653,"search_terms":["xinglou"]},{"id":12277244,"name":"Xinhe","names":{"en":"Xinhe"},"country":"CN","lat":34.18613,"lon":117.98775,"pop":48712,"search_terms":["xinhe"]},{"id":1790615,"name":"Xianfeng","names":{"en":"Xianfeng","zh":"先锋"},"country":"CN","lat":29.21004,"lon":106.30012,"pop":48586,"search_terms":["先锋","xianfeng","先锋镇"]},{"id":733840,"name":"Xanthi","names":{"en":"Xanthi","el":"Ξάνθη","ru":"Ксанти"},"country":"GR","lat":41.13488,"lon":24.888,"pop":48221,"search_terms":["ксанти","xánthi","xanthi","ξάνθη"]},{"id":1652203,"name":"Xam Nua","names":{"en":"Xam Nua","uk":"Сам Неуа","vi":"Sầm Nưa"},"country":"LA","lat":20.4164,"lon":104.045,"pop":46800,"search_terms":["сам неуа","sầm nưa","xam nua","sầm nứa"]},{"id":3444823,"name":"Xique-Xique","names":{"en":"Xique-Xique"},"country":"BR","lat":-10.82294,"lon":-42.72815,"pop":44757,"search_terms":["xique-xique"]},{"id":12277243,"name":"Xindian","names":{"en":"Xindian"},"country":"CN","lat":34.14281,"lon":118.33531,"pop":44409,"search_terms":["xindian"]},{"id":1513578,"name":"Xonobod","names":{"en":"Xonobod","uz":"Xonobod","ru":"Советабад"},"country":"UZ","lat":40.8026,"lon":72.97499,"pop":44000,"search_terms":["xonobod","хонобод","советабад"]},{"id":1788984,"name":"Xinglong","names":{"en":"Xinglong","zh":"兴隆"},"country":"CN","lat":30.65723,"lon":109.44599,"pop":41411,"search_terms":["兴隆","xinglong","兴隆镇","三角坝"]},{"id":1787879,"name":"Xunsi","names":{"en":"Xunsi","zh":"巡司"},"country":"CN","lat":28.10077,"lon":104.56063,"pop":41120,"search_terms":["xunsi","巡司"]},{"id":8334017,"name":"Xili","names":{"en":"Xili","zh":"西丽"},"country":"CN","lat":22.58809,"lon":113.94786,"pop":40685,"search_terms":["西丽","西丽街道","xili"]},{"id":3514510,"name":"Xicotepec de Juarez","names":{"en":"Xicotepec de Juarez","es":"Xicotepec de Juárez"},"country":"MX","lat":20.27605,"lon":-97.96111,"pop":39803,"search_terms":["xicotepec de juárez","xicotepec de juarez"]},{"id":6958004,"name":"Xilinji","names":{"en":"Xilinji"},"country":"CN","lat":52.99063,"lon":123.23522,"pop":39310,"search_terms":["xilinji"]},{"id":12450949,"name":"Xihu","names":{"en":"Xihu","zh":"西湖"},"country":"CN","lat":29.10023,"lon":106.39536,"pop":38386,"search_terms":["xihu","西湖"]},{"id":1788561,"name":"Xinxing","names":{"en":"Xinxing"},"country":"CN","lat":36.04917,"lon":119.54139,"pop":38200,"search_terms":["xinxing"]},{"id":1675232,"name":"Xiluo","names":{"en":"Xiluo","zh":"西螺"},"country":"TW","lat":23.79891,"lon":120.46337,"pop":37181,"search_terms":["西螺","xiluo"]},{"id":584717,"name":"Xacmaz","names":{"en":"Xacmaz","ru":"Хачмас","ar":"خاشماز","fa":"خاچماز","hy":"Խաչմազ","ro":"Hacimaz","tr":"Haçmaz","ur":"خاشماز","zh":"哈奇馬斯"},"country":"AZ","lat":41.46426,"lon":48.80565,"pop":37175,"search_terms":["خاچماز","haçmaz","hacimaz","хачмаз","哈奇馬斯","خاشماز","xaçmaz","xacmaz","хачмас","խաչմազ"]},{"id":1904187,"name":"Xianlong","names":{"en":"Xianlong","zh":"仙龙"},"country":"CN","lat":29.15107,"lon":105.78403,"pop":36561,"search_terms":["仙龙","xianlong","仙龙镇"]},{"id":4004159,"name":"Xalisco","names":{"en":"Xalisco","es":"Xalisco"},"country":"MX","lat":21.451,"lon":-104.8983,"pop":35702,"search_terms":["jalisco","xalisco"]},{"id":1562278,"name":"Xa Long Hai","names":{"en":"Xa Long Hai"},"country":"VN","lat":10.38706,"lon":107.23884,"pop":35167,"search_terms":["xa long hai"]},{"id":3345492,"name":"Xangongo","names":{"en":"Xangongo","ru":"Ксангонго"},"country":"AO","lat":-16.7444,"lon":14.97494,"pop":35000,"search_terms":["ксангонго","xangongo"]},{"id":1788725,"name":"Xinmiao","names":{"en":"Xinmiao","zh":"新妙"},"country":"CN","lat":29.65528,"lon":107.04988,"pop":34299,"search_terms":["xinmiao","新妙","新妙镇"]},{"id":1788590,"name":"Xintian","names":{"en":"Xintian","zh":"新田"},"country":"CN","lat":30.69866,"lon":108.40193,"pop":34145,"search_terms":["新田镇","xintian","新田"]},{"id":8403609,"name":"Xiongjia","names":{"en":"Xiongjia","zh":"熊家"},"country":"CN","lat":30.90155,"lon":108.43367,"pop":33176,"search_terms":["xiongjia","熊家镇","熊家"]},{"id":1914158,"name":"Xiasi","names":{"en":"Xiasi","zh":"下寺"},"country":"CN","lat":32.28998,"lon":105.51326,"pop":32400,"search_terms":["下寺","xiasi"]},{"id":1561210,"name":"Xom My Xuan","names":{"en":"Xom My Xuan"},"country":"VN","lat":10.61667,"lon":107.06667,"pop":32345,"search_terms":["xom my xuan"]},{"id":3444830,"name":"Xaxim","names":{"en":"Xaxim"},"country":"BR","lat":-26.96167,"lon":-52.53472,"pop":31918,"search_terms":["xaxim"]},{"id":1790744,"name":"Xiagezhuang","names":{"en":"Xiagezhuang","zh":"夏格庄"},"country":"CN","lat":36.69306,"lon":120.43472,"pop":30706,"search_terms":["夏格庄","xiagezhuang"]},{"id":8406218,"name":"Xingyi","names":{"en":"Xingyi","zh":"兴义"},"country":"CN","lat":29.95552,"lon":107.81646,"pop":30629,"search_terms":["兴义","兴义镇","泥巴溪","xingyi"]},{"id":1674975,"name":"Xingang","names":{"en":"Xingang","zh":"新港"},"country":"TW","lat":23.55736,"lon":120.34603,"pop":30543,"search_terms":["xingang","新港"]},{"id":2519466,"name":"Xirivella","names":{"en":"Xirivella","ru":"Чиривелья"},"country":"ES","lat":39.46588,"lon":-0.42589,"pop":30002,"search_terms":["xirivella","чиривелья"]},{"id":12358445,"name":"Xihu","names":{"en":"Xihu"},"country":"CN","lat":35.44934,"lon":119.23607,"pop":29978,"search_terms":["xihu"]},{"id":10741023,"name":"Xichuan","names":{"en":"Xichuan","zh":"西川"},"country":"CN","lat":35.0305,"lon":106.063,"pop":29394,"search_terms":["西川","xichuan"]},{"id":2516345,"name":"Xativa","names":{"en":"Xativa","es":"Játiva","fr":"Xàtiva","de":"Xàtiva","ar":"شاطبة","it":"Xàtiva","nl":"Xàtiva","pt":"Xàtiva","ru":"Хатива"},"country":"ES","lat":38.99042,"lon":-0.51852,"pop":29386,"search_terms":["شاطبة","játiva","xàtiva","xativa","хатива"]},{"id":1676682,"name":"Xizhou","names":{"en":"Xizhou","zh":"溪洲"},"country":"TW","lat":24.27667,"lon":120.68917,"pop":28597,"search_terms":["xizhou","溪洲"]},{"id":8405692,"name":"Xinmin","names":{"en":"Xinmin","zh":"新民"},"country":"CN","lat":30.39759,"lon":107.3895,"pop":28033,"search_terms":["新民","xinmin","新民镇"]},{"id":8405732,"name":"Xinsheng","names":{"en":"Xinsheng","zh":"新盛"},"country":"CN","lat":30.84367,"lon":107.72413,"pop":27741,"search_terms":["xinsheng","新盛镇","新盛"]},{"id":1796799,"name":"Xiaodu","names":{"en":"Xiaodu","zh":"小渡"},"country":"CN","lat":29.96207,"lon":105.88678,"pop":27469,"search_terms":["xiaodu","三汇场","小渡镇","小渡"]},{"id":1790059,"name":"Xiaomian","names":{"en":"Xiaomian","zh":"小沔镇"},"country":"CN","lat":30.12268,"lon":106.53435,"pop":27154,"search_terms":["小沔镇","xiaomian","小沔"]},{"id":8404770,"name":"Xialu","names":{"en":"Xialu","zh":"下路"},"country":"CN","lat":29.94167,"lon":108.08442,"pop":26300,"search_terms":["xialu","下路","下路镇"]},{"id":4528810,"name":"Xenia","names":{"en":"Xenia","ru":"Ксения","kk":"Ксениа","fa":"زنیا، اوهایو","ar":"زينيا"},"country":"US","lat":39.68478,"lon":-83.92965,"pop":25976,"search_terms":["زنیا، اوهایو","xenia","زينيا","ксения","ксениа"]},{"id":1788272,"name":"Xituo","names":{"en":"Xituo","zh":"西沱"},"country":"CN","lat":30.40793,"lon":108.21732,"pop":25585,"search_terms":["西沱镇","西沱","xituo"]},{"id":1789787,"name":"Xiasi","names":{"en":"Xiasi"},"country":"CN","lat":26.51667,"lon":107.78333,"pop":25490,"search_terms":["xiasi"]},{"id":1560551,"name":"Xuan Mai","names":{"en":"Xuan Mai"},"country":"VN","lat":20.9,"lon":105.58333,"pop":25100,"search_terms":["xuan mai"]},{"id":1795179,"name":"Xianglong","names":{"en":"Xianglong","zh":"香龙"},"country":"CN","lat":30.26125,"lon":106.57588,"pop":25006,"search_terms":["香龙","香龙镇","xianglong"]},{"id":7373724,"name":"Xiyu","names":{"en":"Xiyu"},"country":"CN","lat":34.05163,"lon":105.3036,"pop":24452,"search_terms":["xiyu"]},{"id":12358477,"name":"Xingdaohu","names":{"en":"Xingdaohu"},"country":"CN","lat":21.71479,"lon":109.13207,"pop":24048,"search_terms":["xingdaohu"]},{"id":1908009,"name":"Xingfeng","names":{"en":"Xingfeng"},"country":"CN","lat":34.86111,"lon":105.8375,"pop":23922,"search_terms":["xingfeng"]},{"id":12718700,"name":"Xilembene","names":{"en":"Xilembene"},"country":"MZ","lat":-24.68941,"lon":33.25844,"pop":23742,"search_terms":["xilembene"]},{"id":2033685,"name":"Xinlin","names":{"en":"Xinlin","ru":"Синьлинь"},"country":"CN","lat":51.66667,"lon":124.4,"pop":23533,"search_terms":["синьлинь","xinlin"]},{"id":12324286,"name":"Xiaying","names":{"en":"Xiaying"},"country":"CN","lat":37.04248,"lon":119.47654,"pop":23395,"search_terms":["xiaying"]},{"id":12358745,"name":"Xiejiawan","names":{"en":"Xiejiawan","zh":"谢家湾乡"},"country":"CN","lat":34.81213,"lon":105.17148,"pop":22066,"search_terms":["xiejiawan","谢家湾","谢家湾乡"]},{"id":1788720,"name":"Xinmin","names":{"en":"Xinmin","zh":"新民"},"country":"CN","lat":30.90343,"lon":109.46682,"pop":21912,"search_terms":["新民","xinmin","新民镇"]},{"id":2805385,"name":"Xanten","names":{"en":"Xanten","de":"Xanten","pl":"Xanten","cs":"Xanten","ja":"クサンテン","nl":"Xanten","fr":"Xanten","ru":"Ксантен","kk":"Ксантен","zh":"克桑滕","az":"Ksanten","ky":"Ксантен","uk":"Ксантен"},"country":"DE","lat":51.65877,"lon":6.45297,"pop":21587,"search_terms":["ксантен","クサンテン","克桑滕","xanten","ksanten"]},{"id":1789198,"name":"Xinshi","names":{"en":"Xinshi","zh":"新市"},"country":"CN","lat":29.95996,"lon":107.10408,"pop":21578,"search_terms":["新市","新市镇","xinshi"]},{"id":3514398,"name":"Xoxocotla","names":{"en":"Xoxocotla","es":"Xoxocotla","sv":"Xoxocotla","pl":"Xoxocotla","nl":"Xoxocotla"},"country":"MX","lat":18.68415,"lon":-99.24577,"pop":21074,"search_terms":["xoxocotla"]},{"id":12358573,"name":"Xinyingpan","names":{"en":"Xinyingpan"},"country":"CN","lat":27.16757,"lon":100.92005,"pop":21008,"search_terms":["xinyingpan"]},{"id":3514409,"name":"Xonacatlan","names":{"en":"Xonacatlan"},"country":"MX","lat":19.40513,"lon":-99.52807,"pop":20680,"search_terms":["xonacatlan"]},{"id":1789181,"name":"Xincheng","names":{"en":"Xincheng"},"country":"CN","lat":34.67431,"lon":103.5868,"pop":20535,"search_terms":["xincheng"]},{"id":12489685,"name":"Xinglong","names":{"en":"Xinglong","zh":"兴隆镇"},"country":"CN","lat":29.1685,"lon":107.0064,"pop":20489,"search_terms":["兴隆","xinglong","兴隆镇"]},{"id":1788974,"name":"Xinglong","names":{"en":"Xinglong","zh":"兴隆"},"country":"CN","lat":29.88931,"lon":106.70622,"pop":20333,"search_terms":["兴隆","xinglong","兴隆镇"]},{"id":1513600,"name":"Xo'jaobod","names":{"en":"Xo'jaobod","uz":"Khŭjaobod","ky":"Kojo-Abad"},"country":"UZ","lat":40.66886,"lon":72.56002,"pop":20200,"search_terms":["khŭjaobod","xo'jaobod","xo‘jaobod","kojo-abad"]},{"id":1908010,"name":"Xinglong","names":{"en":"Xinglong"},"country":"CN","lat":34.03821,"lon":105.34422,"pop":19803,"search_terms":["xinglong"]},{"id":1346645,"name":"Xambabazar","names":{"en":"Xambabazar","zh":"先拜巴扎"},"country":"CN","lat":36.88639,"lon":81.50972,"pop":19796,"search_terms":["先拜巴扎","xambabazar","先拜巴扎镇"]},{"id":2368657,"name":"Xitole","names":{"en":"Xitole"},"country":"GW","lat":11.73333,"lon":-14.81667,"pop":19424,"search_terms":["xitole"]},{"id":3514437,"name":"Xochitepec","names":{"en":"Xochitepec"},"country":"MX","lat":18.7808,"lon":-99.23049,"pop":19164,"search_terms":["xochitepec"]},{"id":3514518,"name":"Xico","names":{"en":"Xico"},"country":"MX","lat":19.42178,"lon":-97.00819,"pop":18652,"search_terms":["xico"]},{"id":8408661,"name":"Xintian","names":{"en":"Xintian","zh":"新田"},"country":"CN","lat":29.19634,"lon":108.2705,"pop":18249,"search_terms":["新田乡","xintian","新田","头党坝"]},{"id":3924674,"name":"Xapuri","names":{"en":"Xapuri"},"country":"BR","lat":-10.65167,"lon":-68.50444,"pop":18243,"search_terms":["xapuri"]},{"id":1790296,"name":"Xiaochuan","names":{"en":"Xiaochuan"},"country":"CN","lat":33.6806,"lon":105.56156,"pop":18098,"search_terms":["xiaochuan"]},{"id":1914240,"name":"Xiaba","names":{"en":"Xiaba","zh":"夏坝"},"country":"CN","lat":29.11684,"lon":106.51006,"pop":17486,"search_terms":["夏坝镇","xiaba","夏坝"]},{"id":1674615,"name":"Xiulin","names":{"en":"Xiulin","zh":"秀林"},"country":"TW","lat":24.12019,"lon":121.6263,"pop":17068,"search_terms":["xiulin","秀林"]},{"id":1790497,"name":"Xiangshui","names":{"en":"Xiangshui","zh":"响水"},"country":"CN","lat":30.655,"lon":108.193,"pop":16889,"search_terms":["响水镇","响水","xiangshui"]},{"id":7373329,"name":"Xigaoshan","names":{"en":"Xigaoshan"},"country":"CN","lat":33.73475,"lon":105.38817,"pop":16550,"search_terms":["xigaoshan"]},{"id":6318964,"name":"Xangri-la","names":{"en":"Xangri-la"},"country":"BR","lat":-29.80083,"lon":-50.04361,"pop":16463,"search_terms":["xangri-la"]},{"id":8417533,"name":"Xiaojia","names":{"en":"Xiaojia","zh":"肖家"},"country":"CN","lat":30.28838,"lon":106.47031,"pop":16363,"search_terms":["肖家镇","xiaojia","肖家"]},{"id":12358565,"name":"Xinhua","names":{"en":"Xinhua"},"country":"CN","lat":24.75252,"lon":98.48296,"pop":16336,"search_terms":["xinhua"]},{"id":1921495,"name":"Xiaochangshan","names":{"en":"Xiaochangshan","zh":"小长山岛镇"},"country":"CN","lat":39.23583,"lon":122.72361,"pop":16071,"search_terms":["小长山","小长山岛镇","xiaochangshan"]},{"id":1904026,"name":"Xinsheng","names":{"en":"Xinsheng","zh":"新生"},"country":"CN","lat":29.95673,"lon":105.75092,"pop":15743,"search_terms":["xinsheng","新生镇","新生"]},{"id":10429089,"name":"Xiping","names":{"en":"Xiping","zh":"西坪"},"country":"CN","lat":34.6057,"lon":105.115,"pop":15165,"search_terms":["xiping","西坪"]},{"id":3526611,"name":"Xalatlaco","names":{"en":"Xalatlaco"},"country":"MX","lat":19.18314,"lon":-99.41844,"pop":15043,"search_terms":["xalatlaco"]}]