[{"id":1790630,"name":"Xi'an","local":"Сиань","country":"CN","lat":34.258,"lon":108.929,"pop":9600000,"tz":"Asia/Shanghai"},{"id":1790645,"name":"Xiamen","local":"Сямэнь","country":"CN","lat":24.48,"lon":118.082,"pop":4617251,"tz":"Asia/Shanghai"},{"id":1788852,"name":"Xining","local":"Синин","country":"CN","lat":36.626,"lon":101.757,"pop":1677177,"tz":"Asia/Shanghai"},{"id":1790587,"name":"Xiangyang","local":"Сянъян","country":"CN","lat":32.042,"lon":112.145,"pop":1294733,"tz":"Asia/Shanghai"},{"id":1788046,"name":"Xuchang","local":"Xuchang","country":"CN","lat":34.032,"lon":113.863,"pop":1265536,"tz":"Asia/Shanghai"},{"id":10630003,"name":"Xuzhou","local":"Сюйчжоу","country":"CN","lat":34.204,"lon":117.284,"pop":1253991,"tz":"Asia/Shanghai"},{"id":1788534,"name":"Xinyang","local":"Цзинань","country":"CN","lat":32.123,"lon":114.066,"pop":1230042,"tz":"Asia/Shanghai"},{"id":1788572,"name":"Xinxiang","local":"Синьсян","country":"CN","lat":35.19,"lon":113.802,"pop":1047088,"tz":"Asia/Shanghai"},{"id":1790353,"name":"Xianyang","local":"Саньян","country":"CN","lat":34.338,"lon":108.703,"pop":1034081,"tz":"Asia/Shanghai"},{"id":1790492,"name":"Xiangtan","local":"Сянтань","country":"CN","lat":27.85,"lon":112.9,"pop":959303,"tz":"Asia/Shanghai"},{"id":1790254,"name":"Xiaogan","local":"Сяогань","country":"CN","lat":30.927,"lon":113.922,"pop":908266,"tz":"Asia/Shanghai"},{"id":1788508,"name":"Xinyu","local":"Синьюй","country":"CN","lat":27.804,"lon":114.933,"pop":839488,"tz":"Asia/Shanghai"},{"id":1788927,"name":"Xingtai","local":"Синтай","country":"CN","lat":37.062,"lon":114.493,"pop":798770,"tz":"Asia/Shanghai"},{"id":1788081,"name":"Xuancheng","local":"Xuancheng","country":"CN","lat":30.953,"lon":118.755,"pop":774332,"tz":"Asia/Shanghai"},{"id":1788450,"name":"Xinzhou","local":"Синьчжоу","country":"CN","lat":38.409,"lon":112.733,"pop":544683,"tz":"Asia/Shanghai"},{"id":1790396,"name":"Xianning","local":"Сяньнин","country":"CN","lat":29.843,"lon":114.322,"pop":512517,"tz":"Asia/Shanghai"},{"id":1789647,"name":"Xichang","local":"Сичан","country":"CN","lat":27.896,"lon":102.263,"pop":481796,"tz":"Asia/Shanghai"},{"id":3514450,"name":"Xochimilco","local":"Xochimilco","country":"MX","lat":19.255,"lon":-99.104,"pop":442178,"tz":"America/Mexico_City"},{"id":3526617,"name":"Xalapa de Enriquez","local":"Xalapa de Enríquez","country":"MX","lat":19.531,"lon":-96.916,"pop":424755,"tz":"America/Mexico_City"},{"id":3514519,"name":"Xico","local":"Xico","country":"MX","lat":19.27,"lon":-98.951,"pop":384327,"tz":"America/Mexico_City"},{"id":2033574,"name":"Xuanhua","local":"Xuanhua","country":"CN","lat":40.612,"lon":115.065,"pop":373422,"tz":"Asia/Shanghai"},{"id":8054802,"name":"Xilinhot","local":"Xilinhot","country":"CN","lat":43.939,"lon":116.07,"pop":349953,"tz":"Asia/Shanghai"},{"id":1807566,"name":"Xingyi","local":"Xingyi","country":"CN","lat":25.096,"lon":104.906,"pop":322890,"tz":"Asia/Shanghai"},{"id":1789262,"name":"Xinyi","local":"Xinyi","country":"CN","lat":34.384,"lon":118.346,"pop":300511,"tz":"Asia/Shanghai"},{"id":1788245,"name":"Xiuying","local":"Xiuying","country":"CN","lat":20.001,"lon":110.294,"pop":290000,"tz":"Asia/Shanghai"},{"id":1529046,"name":"Xinyuan","local":"Күнәс","country":"CN","lat":43.426,"lon":83.25,"pop":282718,"tz":"Asia/Urumqi"},{"id":8594670,"name":"Xingning","local":"Xingning","country":"CN","lat":24.148,"lon":115.723,"pop":274499,"tz":"Asia/Shanghai"},{"id":1560565,"name":"Xuan Loc","local":"Xuân Lộc","country":"VN","lat":10.933,"lon":107.233,"pop":253140,"tz":"Asia/Ho_Chi_Minh"},{"id":1790371,"name":"Xiantao","local":"Xiantao","country":"CN","lat":30.371,"lon":113.443,"pop":239406,"tz":"Asia/Shanghai"},{"id":1788618,"name":"Xintai","local":"Xintai","country":"CN","lat":35.901,"lon":117.752,"pop":222459,"tz":"Asia/Shanghai"},{"id":1675393,"name":"Xizhi","local":"Сичжи","country":"TW","lat":25.066,"lon":121.66,"pop":204619,"tz":"Asia/Taipei"},{"id":1789137,"name":"Xindi","local":"Xindi","country":"CN","lat":29.817,"lon":113.467,"pop":175761,"tz":"Asia/Shanghai"},{"id":1024552,"name":"Xai-Xai","local":"Шаи-Шаи","country":"MZ","lat":-25.052,"lon":33.644,"pop":154356,"tz":"Africa/Maputo"},{"id":1788816,"name":"Xinji","local":"Xinji","country":"CN","lat":37.926,"lon":115.219,"pop":145911,"tz":"Asia/Shanghai"},{"id":1789703,"name":"Xiazhen","local":"Xiazhen","country":"CN","lat":34.802,"lon":117.112,"pop":125667,"tz":"Asia/Shanghai"},{"id":1788268,"name":"Xiulin","local":"Xiulin","country":"CN","lat":29.717,"lon":112.4,"pop":122411,"tz":"Asia/Shanghai"},{"id":1790442,"name":"Xiangcheng","local":"Xiangcheng","country":"CN","lat":25.467,"lon":100.562,"pop":121959,"tz":"Asia/Shanghai"},{"id":2033824,"name":"Xilin Hot","local":"Xilin Hot","country":"CN","lat":43.967,"lon":116.033,"pop":120965,"tz":"Asia/Shanghai"},{"id":1787901,"name":"Xunchang","local":"Xunchang","country":"CN","lat":28.454,"lon":104.715,"pop":118664,"tz":"Asia/Shanghai"},{"id":1513604,"name":"Xiva","local":"Хива","country":"UZ","lat":41.386,"lon":60.364,"pop":115000,"tz":"Asia/Samarkand"},{"id":1789496,"name":"Xigang","local":"Xigang","country":"CN","lat":38.553,"lon":106.348,"pop":112061,"tz":"Asia/Shanghai"},{"id":1787828,"name":"Xuyong","local":"Xuyong","country":"CN","lat":28.17,"lon":105.435,"pop":108352,"tz":"Asia/Shanghai"},{"id":1784820,"name":"Xinghua","local":"Синхуа","country":"CN","lat":32.939,"lon":119.834,"pop":105918,"tz":"Asia/Shanghai"},{"id":1529363,"name":"Xincheng","local":"Куча","country":"CN","lat":41.715,"lon":82.932,"pop":102752,"tz":"Asia/Urumqi"},{"id":1788492,"name":"Xinzhai","local":"Xinzhai","country":"CN","lat":36.4,"lon":118.617,"pop":100168,"tz":"Asia/Shanghai"},{"id":1788207,"name":"Xixiang","local":"Xixiang","country":"CN","lat":32.987,"lon":107.764,"pop":99867,"tz":"Asia/Shanghai"},{"id":1812647,"name":"Xinle","local":"Xinle","country":"CN","lat":38.349,"lon":114.685,"pop":99347,"tz":"Asia/Shanghai"},{"id":2033766,"name":"Xingcheng","local":"Синчэн","country":"CN","lat":40.617,"lon":120.717,"pop":98968,"tz":"Asia/Shanghai"},{"id":1788638,"name":"Xinshi","local":"Xinshi","country":"CN","lat":31.047,"lon":113.141,"pop":98422,"tz":"Asia/Shanghai"},{"id":1812057,"name":"Xinyi","local":"Xinyi","country":"CN","lat":22.373,"lon":110.947,"pop":98259,"tz":"Asia/Shanghai"},{"id":1803616,"name":"Xishan","local":"Лилин","country":"CN","lat":27.667,"lon":113.5,"pop":98162,"tz":"Asia/Shanghai"},{"id":1908011,"name":"Xinxing","local":"Xinxing","country":"CN","lat":34.776,"lon":105.322,"pop":97483,"tz":"Asia/Shanghai"},{"id":1789998,"name":"Xiaoshan","local":"Сяошань","country":"CN","lat":30.167,"lon":120.259,"pop":95234,"tz":"Asia/Shanghai"},{"id":1789030,"name":"Xingguo","local":"Xingguo","country":"CN","lat":34.859,"lon":105.669,"pop":95211,"tz":"Asia/Shanghai"},{"id":1789289,"name":"Ximeicun","local":"Ximeicun","country":"CN","lat":24.988,"lon":118.386,"pop":94326,"tz":"Asia/Shanghai"},{"id":1788944,"name":"Xingren","local":"Xingren","country":"CN","lat":25.433,"lon":105.233,"pop":91579,"tz":"Asia/Shanghai"},{"id":1789462,"name":"Xihe","local":"Xihe","country":"CN","lat":31.686,"lon":113.466,"pop":90422,"tz":"Asia/Shanghai"},{"id":1789691,"name":"Xiazhuang","local":"Xiazhuang","country":"CN","lat":36.449,"lon":119.836,"pop":88710,"tz":"Asia/Shanghai"},{"id":1790471,"name":"Xiangxiang","local":"Xiangxiang","country":"CN","lat":27.733,"lon":112.533,"pop":87592,"tz":"Asia/Shanghai"},{"id":1787925,"name":"Xujiang","local":"Xujiang","country":"CN","lat":26.839,"lon":116.32,"pop":87459,"tz":"Asia/Shanghai"},{"id":1790392,"name":"Xiannue","local":"Xiannü","country":"CN","lat":32.428,"lon":119.56,"pop":83936,"tz":"Asia/Shanghai"},{"id":1787837,"name":"Xucheng","local":"Xucheng","country":"CN","lat":20.33,"lon":110.166,"pop":83267,"tz":"Asia/Shanghai"},{"id":1789118,"name":"Xindian","local":"Xindian","country":"CN","lat":36.797,"lon":118.294,"pop":82555,"tz":"Asia/Shanghai"},{"id":1788269,"name":"Xiugu","local":"Xiugu","country":"CN","lat":27.911,"lon":116.776,"pop":81153,"tz":"Asia/Shanghai"},{"id":1789649,"name":"Xichang","local":"Xichang","country":"CN","lat":21.633,"lon":108.95,"pop":80064,"tz":"Asia/Shanghai"},{"id":1788402,"name":"Xiongzhou","local":"Xiongzhou","country":"CN","lat":25.117,"lon":114.3,"pop":79050,"tz":"Asia/Shanghai"},{"id":1788452,"name":"Xinzhou","local":"Xinzhou","country":"CN","lat":30.867,"lon":114.8,"pop":78767,"tz":"Asia/Shanghai"},{"id":1805175,"name":"Xixiang","local":"Xixiang","country":"CN","lat":22.593,"lon":113.889,"pop":78022,"tz":"Asia/Shanghai"},{"id":1668353,"name":"Xinying","local":"Xinying","country":"TW","lat":23.307,"lon":120.311,"pop":74972,"tz":"Asia/Taipei"},{"id":2033675,"name":"Xinmin","local":"Синьминь","country":"CN","lat":41.991,"lon":122.825,"pop":74139,"tz":"Asia/Shanghai"},{"id":1790379,"name":"Xianshuigu","local":"Xianshuigu","country":"CN","lat":38.985,"lon":117.383,"pop":74028,"tz":"Asia/Shanghai"},{"id":1788462,"name":"Xinzhi","local":"Xinzhi","country":"CN","lat":36.499,"lon":111.705,"pop":72303,"tz":"Asia/Shanghai"},{"id":2033602,"name":"Xiuyan","local":"Xiuyan","country":"CN","lat":40.293,"lon":123.274,"pop":71614,"tz":"Asia/Shanghai"},{"id":1788887,"name":"Xinhe","local":"Xinhe","country":"CN","lat":36.925,"lon":119.593,"pop":69884,"tz":"Asia/Shanghai"},{"id":1529528,"name":"Xininglu","local":"Майтағ","country":"CN","lat":44.34,"lon":84.904,"pop":69361,"tz":"Asia/Urumqi"},{"id":1788061,"name":"Xuantan","local":"Xuantan","country":"CN","lat":29.209,"lon":105.57,"pop":69250,"tz":"Asia/Shanghai"},{"id":2033934,"name":"Xiaoshi","local":"Xiaoshi","country":"CN","lat":41.297,"lon":124.121,"pop":68994,"tz":"Asia/Shanghai"},{"id":1787873,"name":"Xunyang","local":"Xunyang","country":"CN","lat":32.824,"lon":109.365,"pop":67929,"tz":"Asia/Shanghai"},{"id":601339,"name":"Xo'jayli Shahri","local":"Ходжейли","country":"UZ","lat":42.409,"lon":59.445,"pop":67800,"tz":"Asia/Samarkand"},{"id":1788461,"name":"Xinzhou","local":"Xinzhou","country":"CN","lat":19.714,"lon":109.311,"pop":67316,"tz":"Asia/Shanghai"},{"id":1790100,"name":"Xiaolingwei","local":"Xiaolingwei","country":"CN","lat":32.032,"lon":118.854,"pop":66031,"tz":"Asia/Shanghai"},{"id":1790601,"name":"Xiangcheng Chengguanzhen","local":"Xiangcheng Chengguanzhen","country":"CN","lat":33.847,"lon":113.478,"pop":65833,"tz":"Asia/Shanghai"},{"id":1813892,"name":"Xincheng","local":"Xincheng","country":"CN","lat":33.633,"lon":115.183,"pop":65411,"tz":"Asia/Shanghai"},{"id":1789693,"name":"Xiazhuang","local":"Xiazhuang","country":"CN","lat":34.916,"lon":118.639,"pop":63285,"tz":"Asia/Shanghai"},{"id":1790434,"name":"Xiangzhou","local":"Xiangzhou","country":"CN","lat":36.164,"lon":119.419,"pop":61748,"tz":"Asia/Shanghai"},{"id":1788522,"name":"Xinye","local":"Xinye","country":"CN","lat":32.529,"lon":112.365,"pop":61633,"tz":"Asia/Shanghai"},{"id":1790413,"name":"Xianju","local":"Xianju","country":"CN","lat":28.855,"lon":120.732,"pop":61532,"tz":"Asia/Shanghai"},{"id":2033866,"name":"Xifeng","local":"Xifeng","country":"CN","lat":42.737,"lon":124.722,"pop":61087,"tz":"Asia/Shanghai"},{"id":1789546,"name":"Xiema","local":"Xiema","country":"CN","lat":29.774,"lon":106.369,"pop":60933,"tz":"Asia/Shanghai"},{"id":1788206,"name":"Xixiang","local":"Xixiang","country":"CN","lat":35.163,"lon":112.865,"pop":60745,"tz":"Asia/Shanghai"},{"id":1789945,"name":"Xiaoweizhai","local":"Xiaoweizhai","country":"CN","lat":26.19,"lon":107.513,"pop":58913,"tz":"Asia/Shanghai"},{"id":2033739,"name":"Xinglongshan","local":"Xinglongshan","country":"CN","lat":43.956,"lon":125.466,"pop":58432,"tz":"Asia/Shanghai"},{"id":1549660,"name":"Xuzhuang","local":"Xuzhuang","country":"CN","lat":34.296,"lon":117.458,"pop":56099,"tz":"Asia/Shanghai"},{"id":2033667,"name":"Xinqing","local":"Xinqing","country":"CN","lat":48.287,"lon":129.523,"pop":55415,"tz":"Asia/Shanghai"},{"id":1561907,"name":"Xom Cai Nuoc","local":"Xóm Cái Nước","country":"VN","lat":9.8,"lon":105.1,"pop":54397,"tz":"Asia/Ho_Chi_Minh"},{"id":1675281,"name":"Xihu","local":"Xihu","country":"TW","lat":23.957,"lon":120.479,"pop":54033,"tz":"Asia/Taipei"},{"id":1789699,"name":"Xiazhuang","local":"Xiazhuang","country":"CN","lat":25.4,"lon":100.833,"pop":53954,"tz":"Asia/Shanghai"},{"id":6318968,"name":"Xinguara","local":"Xinguara","country":"BR","lat":-7.098,"lon":-49.944,"pop":52893,"tz":"America/Belem"},{"id":7735165,"name":"Xingqiao","local":"Xingqiao","country":"CN","lat":30.399,"lon":120.252,"pop":52400,"tz":"Asia/Shanghai"},{"id":3444848,"name":"Xanxere","local":"Xanxerê","country":"BR","lat":-26.877,"lon":-52.404,"pop":51607,"tz":"America/Sao_Paulo"},{"id":1549747,"name":"Xinglou","local":"Xinglou","country":"CN","lat":34.567,"lon":117.828,"pop":49653,"tz":"Asia/Shanghai"},{"id":12277244,"name":"Xinhe","local":"Xinhe","country":"CN","lat":34.186,"lon":117.988,"pop":48712,"tz":"Asia/Shanghai"},{"id":1790615,"name":"Xianfeng","local":"Xianfeng","country":"CN","lat":29.21,"lon":106.3,"pop":48586,"tz":"Asia/Shanghai"},{"id":733840,"name":"Xanthi","local":"Ксанти","country":"GR","lat":41.135,"lon":24.888,"pop":48221,"tz":"Europe/Athens"},{"id":1652203,"name":"Xam Nua","local":"Xam Nua","country":"LA","lat":20.416,"lon":104.045,"pop":46800,"tz":"Asia/Vientiane"},{"id":3444823,"name":"Xique-Xique","local":"Xique-Xique","country":"BR","lat":-10.823,"lon":-42.728,"pop":44757,"tz":"America/Bahia"},{"id":12277243,"name":"Xindian","local":"Xindian","country":"CN","lat":34.143,"lon":118.335,"pop":44409,"tz":"Asia/Shanghai"},{"id":1513578,"name":"Xonobod","local":"Советабад","country":"UZ","lat":40.803,"lon":72.975,"pop":44000,"tz":"Asia/Tashkent"},{"id":1788984,"name":"Xinglong","local":"Xinglong","country":"CN","lat":30.657,"lon":109.446,"pop":41411,"tz":"Asia/Shanghai"},{"id":1787879,"name":"Xunsi","local":"Xunsi","country":"CN","lat":28.101,"lon":104.561,"pop":41120,"tz":"Asia/Shanghai"},{"id":8334017,"name":"Xili","local":"Xili","country":"CN","lat":22.588,"lon":113.948,"pop":40685,"tz":"Asia/Shanghai"},{"id":3514510,"name":"Xicotepec de Juarez","local":"Xicotepec de Juárez","country":"MX","lat":20.276,"lon":-97.961,"pop":39803,"tz":"America/Mexico_City"},{"id":6958004,"name":"Xilinji","local":"Xilinji","country":"CN","lat":52.991,"lon":123.235,"pop":39310,"tz":"Asia/Shanghai"},{"id":12450949,"name":"Xihu","local":"Xihu","country":"CN","lat":29.1,"lon":106.395,"pop":38386,"tz":"Asia/Shanghai"},{"id":1788561,"name":"Xinxing","local":"Xinxing","country":"CN","lat":36.049,"lon":119.541,"pop":38200,"tz":"Asia/Shanghai"},{"id":1675232,"name":"Xiluo","local":"Xiluo","country":"TW","lat":23.799,"lon":120.463,"pop":37181,"tz":"Asia/Taipei"},{"id":584717,"name":"Xacmaz","local":"Хачмас","country":"AZ","lat":41.464,"lon":48.806,"pop":37175,"tz":"Asia/Baku"},{"id":1904187,"name":"Xianlong","local":"Xianlong","country":"CN","lat":29.151,"lon":105.784,"pop":36561,"tz":"Asia/Shanghai"},{"id":4004159,"name":"Xalisco","local":"Xalisco","country":"MX","lat":21.451,"lon":-104.898,"pop":35702,"tz":"America/Mazatlan"},{"id":1562278,"name":"Xa Long Hai","local":"Xã Long Hải","country":"VN","lat":10.387,"lon":107.239,"pop":35167,"tz":"Asia/Ho_Chi_Minh"},{"id":3345492,"name":"Xangongo","local":"Ксангонго","country":"AO","lat":-16.744,"lon":14.975,"pop":35000,"tz":"Africa/Luanda"},{"id":1788725,"name":"Xinmiao","local":"Xinmiao","country":"CN","lat":29.655,"lon":107.05,"pop":34299,"tz":"Asia/Shanghai"},{"id":1788590,"name":"Xintian","local":"Xintian","country":"CN","lat":30.699,"lon":108.402,"pop":34145,"tz":"Asia/Shanghai"},{"id":8403609,"name":"Xiongjia","local":"Xiongjia","country":"CN","lat":30.902,"lon":108.434,"pop":33176,"tz":"Asia/Shanghai"},{"id":1914158,"name":"Xiasi","local":"Xiasi","country":"CN","lat":32.29,"lon":105.513,"pop":32400,"tz":"Asia/Shanghai"},{"id":1561210,"name":"Xom My Xuan","local":"Xóm Mỹ Xuân","country":"VN","lat":10.617,"lon":107.067,"pop":32345,"tz":"Asia/Ho_Chi_Minh"},{"id":3444830,"name":"Xaxim","local":"Xaxim","country":"BR","lat":-26.962,"lon":-52.535,"pop":31918,"tz":"America/Sao_Paulo"},{"id":1790744,"name":"Xiagezhuang","local":"Xiagezhuang","country":"CN","lat":36.693,"lon":120.435,"pop":30706,"tz":"Asia/Shanghai"},{"id":8406218,"name":"Xingyi","local":"Xingyi","country":"CN","lat":29.956,"lon":107.816,"pop":30629,"tz":"Asia/Shanghai"},{"id":1674975,"name":"Xingang","local":"Xingang","country":"TW","lat":23.557,"lon":120.346,"pop":30543,"tz":"Asia/Taipei"},{"id":2519466,"name":"Xirivella","local":"Чиривелья","country":"ES","lat":39.466,"lon":-0.426,"pop":30002,"tz":"Europe/Madrid"},{"id":12358445,"name":"Xihu","local":"Xihu","country":"CN","lat":35.449,"lon":119.236,"pop":29978,"tz":"Asia/Shanghai"},{"id":10741023,"name":"Xichuan","local":"Xichuan","country":"CN","lat":35.031,"lon":106.063,"pop":29394,"tz":"Asia/Shanghai"},{"id":2516345,"name":"Xativa","local":"Хатива","country":"ES","lat":38.99,"lon":-0.519,"pop":29386,"tz":"Europe/Madrid"},{"id":1676682,"name":"Xizhou","local":"Xizhou","country":"TW","lat":24.277,"lon":120.689,"pop":28597,"tz":"Asia/Taipei"},{"id":8405692,"name":"Xinmin","local":"Xinmin","country":"CN","lat":30.398,"lon":107.389,"pop":28033,"tz":"Asia/Shanghai"},{"id":8405732,"name":"Xinsheng","local":"Xinsheng","country":"CN","lat":30.844,"lon":107.724,"pop":27741,"tz":"Asia/Shanghai"},{"id":1796799,"name":"Xiaodu","local":"Xiaodu","country":"CN","lat":29.962,"lon":105.887,"pop":27469,"tz":"Asia/Shanghai"},{"id":1790059,"name":"Xiaomian","local":"Xiaomian","country":"CN","lat":30.123,"lon":106.534,"pop":27154,"tz":"Asia/Shanghai"},{"id":8404770,"name":"Xialu","local":"Xialu","country":"CN","lat":29.942,"lon":108.084,"pop":26300,"tz":"Asia/Shanghai"},{"id":4528810,"name":"Xenia","local":"Ксения","country":"US","lat":39.685,"lon":-83.93,"pop":25976,"tz":"America/New_York"},{"id":1788272,"name":"Xituo","local":"Xituo","country":"CN","lat":30.408,"lon":108.217,"pop":25585,"tz":"Asia/Shanghai"},{"id":1789787,"name":"Xiasi","local":"Xiasi","country":"CN","lat":26.517,"lon":107.783,"pop":25490,"tz":"Asia/Shanghai"},{"id":1560551,"name":"Xuan Mai","local":"Xuân Mai","country":"VN","lat":20.9,"lon":105.583,"pop":25100,"tz":"Asia/Ho_Chi_Minh"},{"id":1795179,"name":"Xianglong","local":"Xianglong","country":"CN","lat":30.261,"lon":106.576,"pop":25006,"tz":"Asia/Shanghai"},{"id":7373724,"name":"Xiyu","local":"Xiyu","country":"CN","lat":34.052,"lon":105.304,"pop":24452,"tz":"Asia/Shanghai"},{"id":12358477,"name":"Xingdaohu","local":"Xingdaohu","country":"CN","lat":21.715,"lon":109.132,"pop":24048,"tz":"Asia/Shanghai"},{"id":1908009,"name":"Xingfeng","local":"Xingfeng","country":"CN","lat":34.861,"lon":105.838,"pop":23922,"tz":"Asia/Shanghai"},{"id":12718700,"name":"Xilembene","local":"Xilembene","country":"MZ","lat":-24.689,"lon":33.258,"pop":23742,"tz":"Africa/Maputo"},{"id":2033685,"name":"Xinlin","local":"Синьлинь","country":"CN","lat":51.667,"lon":124.4,"pop":23533,"tz":"Asia/Shanghai"},{"id":12324286,"name":"Xiaying","local":"Xiaying","country":"CN","lat":37.042,"lon":119.477,"pop":23395,"tz":"Asia/Shanghai"},{"id":12358745,"name":"Xiejiawan","local":"Xiejiawan","country":"CN","lat":34.812,"lon":105.171,"pop":22066,"tz":"Asia/Shanghai"},{"id":1788720,"name":"Xinmin","local":"Xinmin","country":"CN","lat":30.903,"lon":109.467,"pop":21912,"tz":"Asia/Shanghai"},{"id":2805385,"name":"Xanten","local":"Ксантен","country":"DE","lat":51.659,"lon":6.453,"pop":21587,"tz":"Europe/Berlin"},{"id":1789198,"name":"Xinshi","local":"Xinshi","country":"CN","lat":29.96,"lon":107.104,"pop":21578,"tz":"Asia/Shanghai"},{"id":3514398,"name":"Xoxocotla","local":"Сосокотла","country":"MX","lat":18.684,"lon":-99.246,"pop":21074,"tz":"America/Mexico_City"},{"id":12358573,"name":"Xinyingpan","local":"Xinyingpan","country":"CN","lat":27.168,"lon":100.92,"pop":21008,"tz":"Asia/Shanghai"},{"id":3514409,"name":"Xonacatlan","local":"Xonacatlán","country":"MX","lat":19.405,"lon":-99.528,"pop":20680,"tz":"America/Mexico_City"},{"id":1789181,"name":"Xincheng","local":"Xincheng","country":"CN","lat":34.674,"lon":103.587,"pop":20535,"tz":"Asia/Shanghai"},{"id":12489685,"name":"Xinglong","local":"Xinglong","country":"CN","lat":29.169,"lon":107.006,"pop":20489,"tz":"Asia/Shanghai"},{"id":1788974,"name":"Xinglong","local":"Xinglong","country":"CN","lat":29.889,"lon":106.706,"pop":20333,"tz":"Asia/Shanghai"},{"id":1513600,"name":"Xo'jaobod","local":"Xo‘jaobod","country":"UZ","lat":40.669,"lon":72.56,"pop":20200,"tz":"Asia/Tashkent"},{"id":1908010,"name":"Xinglong","local":"Xinglong","country":"CN","lat":34.038,"lon":105.344,"pop":19803,"tz":"Asia/Shanghai"},{"id":1346645,"name":"Xambabazar","local":"Шәнбәбазар","country":"CN","lat":36.886,"lon":81.51,"pop":19796,"tz":"Asia/Urumqi"},{"id":2368657,"name":"Xitole","local":"Xitole","country":"GW","lat":11.733,"lon":-14.817,"pop":19424,"tz":"Africa/Bissau"},{"id":3514437,"name":"Xochitepec","local":"Xochitepec","country":"MX","lat":18.781,"lon":-99.23,"pop":19164,"tz":"America/Mexico_City"},{"id":3514518,"name":"Xico","local":"Xico","country":"MX","lat":19.422,"lon":-97.008,"pop":18652,"tz":"America/Mexico_City"},{"id":8408661,"name":"Xintian","local":"Xintian","country":"CN","lat":29.196,"lon":108.27,"pop":18249,"tz":"Asia/Shanghai"},{"id":3924674,"name":"Xapuri","local":"Xapuri","country":"BR","lat":-10.652,"lon":-68.504,"pop":18243,"tz":"America/Rio_Branco"},{"id":1790296,"name":"Xiaochuan","local":"Xiaochuan","country":"CN","lat":33.681,"lon":105.562,"pop":18098,"tz":"Asia/Shanghai"},{"id":1914240,"name":"Xiaba","local":"Xiaba","country":"CN","lat":29.117,"lon":106.51,"pop":17486,"tz":"Asia/Shanghai"},{"id":1674615,"name":"Xiulin","local":"Xiulin","country":"TW","lat":24.12,"lon":121.626,"pop":17068,"tz":"Asia/Taipei"},{"id":1790497,"name":"Xiangshui","local":"Xiangshui","country":"CN","lat":30.655,"lon":108.193,"pop":16889,"tz":"Asia/Shanghai"},{"id":7373329,"name":"Xigaoshan","local":"Xigaoshan","country":"CN","lat":33.735,"lon":105.388,"pop":16550,"tz":"Asia/Shanghai"},{"id":6318964,"name":"Xangri-la","local":"Xangri-lá","country":"BR","lat":-29.801,"lon":-50.044,"pop":16463,"tz":"America/Sao_Paulo"},{"id":8417533,"name":"Xiaojia","local":"Xiaojia","country":"CN","lat":30.288,"lon":106.47,"pop":16363,"tz":"Asia/Shanghai"},{"id":12358565,"name":"Xinhua","local":"Xinhua","country":"CN","lat":24.753,"lon":98.483,"pop":16336,"tz":"Asia/Shanghai"},{"id":1921495,"name":"Xiaochangshan","local":"Xiaochangshan","country":"CN","lat":39.236,"lon":122.724,"pop":16071,"tz":"Asia/Shanghai"},{"id":1904026,"name":"Xinsheng","local":"Xinsheng","country":"CN","lat":29.957,"lon":105.751,"pop":15743,"tz":"Asia/Shanghai"},{"id":10429089,"name":"Xiping","local":"Xiping","country":"CN","lat":34.606,"lon":105.115,"pop":15165,"tz":"Asia/Shanghai"},{"id":3526611,"name":"Xalatlaco","local":"Xalatlaco","country":"MX","lat":19.183,"lon":-99.418,"pop":15043,"tz":"America/Mexico_City"}]