[{"id":1784658,"name":"Zhengzhou","local":"Чжэнчжоу","country":"CN","lat":34.758,"lon":113.649,"pop":4253913,"tz":"Asia/Shanghai"},{"id":6986104,"name":"Zhongshan","local":"Чжуншань","country":"CN","lat":22.523,"lon":113.379,"pop":3841873,"tz":"Asia/Shanghai"},{"id":1785286,"name":"Zibo","local":"Цзыбо","country":"CN","lat":36.791,"lon":118.063,"pop":3129228,"tz":"Asia/Shanghai"},{"id":1790437,"name":"Zhuhai","local":"Чжухай","country":"CN","lat":22.277,"lon":113.568,"pop":2207090,"tz":"Asia/Shanghai"},{"id":1783621,"name":"Zunyi","local":"Цзуньи","country":"CN","lat":27.687,"lon":106.907,"pop":2037775,"tz":"Asia/Shanghai"},{"id":1784853,"name":"Zhaoqing","local":"Чжаоцин","country":"CN","lat":23.049,"lon":112.461,"pop":1553109,"tz":"Asia/Shanghai"},{"id":3979770,"name":"Zapopan","local":"Сапопан","country":"MX","lat":20.721,"lon":-103.387,"pop":1476491,"tz":"America/Mexico_City"},{"id":1787331,"name":"Zhangjiagang","local":"Zhangjiagang","country":"CN","lat":31.865,"lon":120.539,"pop":1432044,"tz":"Asia/Shanghai"},{"id":1784990,"name":"Zhanjiang","local":"Чжаньцзян","country":"CN","lat":21.234,"lon":110.387,"pop":1400709,"tz":"Asia/Shanghai"},{"id":1783745,"name":"Zigong","local":"Цзыгун","country":"CN","lat":29.342,"lon":104.777,"pop":1262064,"tz":"Asia/Shanghai"},{"id":1783763,"name":"Zhuzhou","local":"Чжучжоу","country":"CN","lat":27.833,"lon":113.15,"pop":1129687,"tz":"Asia/Shanghai"},{"id":1679432,"name":"Zamboanga","local":"Замбоанга","country":"PH","lat":6.91,"lon":122.074,"pop":1018849,"tz":"Asia/Manila"},{"id":7602670,"name":"Zhu Cheng City","local":"Zhu Cheng City","country":"CN","lat":35.995,"lon":119.403,"pop":1000000,"tz":"Asia/Shanghai"},{"id":2317765,"name":"Zaria","local":"Заря","country":"NG","lat":11.111,"lon":7.723,"pop":980000,"tz":"Africa/Lagos"},{"id":1784642,"name":"Zhenjiang","local":"Zhenjiang","country":"CN","lat":32.211,"lon":119.455,"pop":950516,"tz":"Asia/Shanghai"},{"id":1783683,"name":"Ziyang","local":"Цзыян","country":"CN","lat":30.121,"lon":104.648,"pop":905729,"tz":"Asia/Shanghai"},{"id":1785453,"name":"Zaozhuang","local":"Цзаочжуан","country":"CN","lat":34.865,"lon":117.554,"pop":899753,"tz":"Asia/Shanghai"},{"id":1886762,"name":"Zhoushan","local":"Чжоушань","country":"CN","lat":29.989,"lon":122.205,"pop":882932,"tz":"Asia/Shanghai"},{"id":1785412,"name":"Zhabei","local":"Zhabei","country":"CN","lat":31.259,"lon":121.46,"pop":840000,"tz":"Asia/Shanghai"},{"id":250090,"name":"Zarqa","local":"Эз-Зарка","country":"JO","lat":32.073,"lon":36.088,"pop":792665,"tz":"Asia/Amman"},{"id":1784841,"name":"Zhaotong","local":"Чжаотун","country":"CN","lat":27.317,"lon":103.717,"pop":787845,"tz":"Asia/Shanghai"},{"id":1783873,"name":"Zhumadian","local":"Чжумадянь","country":"CN","lat":32.979,"lon":114.029,"pop":721670,"tz":"Asia/Shanghai"},{"id":687700,"name":"Zaporizhzhya","local":"Запорожье","country":"UA","lat":47.852,"lon":35.117,"pop":710052,"tz":"Europe/Kyiv"},{"id":148730,"name":"Zanzibar","local":"Занзибар","country":"TZ","lat":-6.164,"lon":39.198,"pop":709809,"tz":"Africa/Dar_es_Salaam"},{"id":2033196,"name":"Zhangjiakou","local":"Чжанцзякоу","country":"CN","lat":40.783,"lon":114.871,"pop":692602,"tz":"Asia/Shanghai"},{"id":3104324,"name":"Zaragoza","local":"Сарагоса","country":"ES","lat":41.656,"lon":-0.877,"pop":686986,"tz":"Europe/Madrid"},{"id":3186886,"name":"Zagreb","local":"Загреб","country":"HR","lat":45.814,"lon":15.978,"pop":663592,"tz":"Europe/Zagreb"},{"id":1785018,"name":"Zhangzhou","local":"Чжанчжоу","country":"CN","lat":24.513,"lon":117.656,"pop":589831,"tz":"Asia/Shanghai"},{"id":1159301,"name":"Zahedan","local":"Захедан","country":"IR","lat":29.496,"lon":60.863,"pop":551980,"tz":"Asia/Tehran"},{"id":1785036,"name":"Zhangye","local":"Чжанъе","country":"CN","lat":38.934,"lon":100.452,"pop":507433,"tz":"Asia/Shanghai"},{"id":1784130,"name":"Zhoukou","local":"Чжоуко","country":"CN","lat":33.633,"lon":114.633,"pop":505171,"tz":"Asia/Shanghai"},{"id":1783988,"name":"Zhucheng","local":"Zhucheng","country":"CN","lat":35.995,"lon":119.397,"pop":499285,"tz":"Asia/Shanghai"},{"id":1813171,"name":"Zhangjiajie","local":"Чжанцзяцзе","country":"CN","lat":29.129,"lon":110.478,"pop":441804,"tz":"Asia/Shanghai"},{"id":359493,"name":"Zagazig","local":"Эз-Заказик","country":"EG","lat":30.588,"lon":31.502,"pop":430445,"tz":"Africa/Cairo"},{"id":2657896,"name":"Zuerich","local":"Цюрих","country":"CH","lat":47.367,"lon":8.55,"pop":415367,"tz":"Europe/Zurich"},{"id":111453,"name":"Zanjan","local":"Зенджан","country":"IR","lat":36.676,"lon":48.496,"pop":357471,"tz":"Asia/Tehran"},{"id":2437798,"name":"Zinder","local":"Зиндер","country":"NE","lat":13.807,"lon":8.988,"pop":318874,"tz":"Africa/Niamey"},{"id":737071,"name":"Zeytinburnu","local":"Zeytinburnu","country":"TR","lat":40.994,"lon":28.904,"pop":288743,"tz":"Europe/Istanbul"},{"id":3513966,"name":"Zumpango","local":"Зумпанго-де-Окампо","country":"MX","lat":19.797,"lon":-99.099,"pop":280455,"tz":"America/Mexico_City"},{"id":1783633,"name":"Zoucheng","local":"Цзоучэн","country":"CN","lat":35.401,"lon":116.966,"pop":277400,"tz":"Asia/Shanghai"},{"id":686967,"name":"Zhytomyr","local":"Житомир","country":"UA","lat":50.262,"lon":28.679,"pop":261624,"tz":"Europe/Kyiv"},{"id":463829,"name":"Zelenograd","local":"Зеленоград","country":"RU","lat":55.983,"lon":37.181,"pop":215727,"tz":"Europe/Moscow"},{"id":2243940,"name":"Ziguinchor","local":"Зигиншор","country":"SN","lat":12.568,"lon":-16.273,"pop":214874,"tz":"Africa/Dakar"},{"id":1783700,"name":"Zitong","local":"Zitong","country":"CN","lat":30.178,"lon":105.83,"pop":212819,"tz":"Asia/Shanghai"},{"id":1677112,"name":"Zhubei","local":"Чжубэй","country":"TW","lat":24.838,"lon":121.008,"pop":212695,"tz":"Asia/Taipei"},{"id":2208485,"name":"Zliten","local":"Злитен","country":"LY","lat":32.467,"lon":14.569,"pop":203790,"tz":"Africa/Tripoli"},{"id":1784712,"name":"Zhengding","local":"Zhengding","country":"CN","lat":38.145,"lon":114.566,"pop":193524,"tz":"Asia/Shanghai"},{"id":3080985,"name":"Zabrze","local":"Забже","country":"PL","lat":50.325,"lon":18.786,"pop":192177,"tz":"Europe/Warsaw"},{"id":462444,"name":"Zlatoust","local":"Златоуст","country":"RU","lat":55.172,"lon":59.655,"pop":191366,"tz":"Asia/Yekaterinburg"},{"id":2216885,"name":"Zawiya","local":"Zawiya","country":"LY","lat":32.752,"lon":12.728,"pop":186123,"tz":"Africa/Tripoli"},{"id":3979802,"name":"Zamora de Hidalgo","local":"Самора-де-Идальго","country":"MX","lat":19.984,"lon":-102.286,"pop":186102,"tz":"America/Mexico_City"},{"id":1785462,"name":"Zaoyang","local":"Zaoyang","country":"CN","lat":32.127,"lon":112.754,"pop":184509,"tz":"Asia/Shanghai"},{"id":1784617,"name":"Zhenping","local":"Zhenping","country":"CN","lat":33.035,"lon":112.228,"pop":181528,"tz":"Asia/Shanghai"},{"id":1784580,"name":"Zhenzhou","local":"Zhenzhou","country":"CN","lat":32.28,"lon":119.17,"pop":176006,"tz":"Asia/Shanghai"},{"id":3186573,"name":"Zenica","local":"Зеница","country":"BA","lat":44.202,"lon":17.904,"pop":164423,"tz":"Europe/Sarajevo"},{"id":1784554,"name":"Zhicheng","local":"Zhicheng","country":"CN","lat":30.296,"lon":111.505,"pop":159383,"tz":"Asia/Shanghai"},{"id":783920,"name":"Zemun","local":"Земун","country":"RS","lat":44.846,"lon":20.401,"pop":155591,"tz":"Europe/Belgrade"},{"id":2033168,"name":"Zhaodong","local":"Zhaodong","country":"CN","lat":46.052,"lon":125.955,"pop":154406,"tz":"Asia/Shanghai"},{"id":462745,"name":"Zhulebino","local":"Жулебино","country":"RU","lat":55.7,"lon":37.85,"pop":150000,"tz":"Europe/Moscow"},{"id":463355,"name":"Zheleznodorozhnyy","local":"Железнодорожный","country":"RU","lat":55.744,"lon":38.017,"pop":141648,"tz":"Europe/Moscow"},{"id":2744114,"name":"Zaanstad","local":"Zaanstad","country":"NL","lat":52.453,"lon":4.814,"pop":140085,"tz":"Europe/Amsterdam"},{"id":1848004,"name":"Zama","local":"Зама","country":"JP","lat":35.488,"lon":139.391,"pop":132325,"tz":"Asia/Tokyo"},{"id":2033225,"name":"Zhalantun","local":"Чжаланьтунь","country":"CN","lat":48.009,"lon":122.737,"pop":132224,"tz":"Asia/Shanghai"},{"id":3665542,"name":"Zipaquira","local":"Сипакира","country":"CO","lat":5.022,"lon":-74.005,"pop":130432,"tz":"America/Bogota"},{"id":3042430,"name":"Zuglo","local":"Будимпешта XIV округ","country":"HU","lat":47.518,"lon":19.105,"pop":130000,"tz":"Europe/Budapest"},{"id":2743477,"name":"Zwolle","local":"Зволле","country":"NL","lat":52.513,"lon":6.094,"pop":129840,"tz":"Europe/Amsterdam"},{"id":3979844,"name":"Zacatecas","local":"Сакатекас","country":"MX","lat":22.768,"lon":-102.581,"pop":129011,"tz":"America/Mexico_City"},{"id":461835,"name":"Zyablikovo","local":"Зябликово","country":"RU","lat":55.617,"lon":37.767,"pop":129000,"tz":"Europe/Moscow"},{"id":1784178,"name":"Zhoucun","local":"Zhoucun","country":"CN","lat":36.817,"lon":117.817,"pop":122402,"tz":"Asia/Shanghai"},{"id":1113217,"name":"Zabol","local":"Заболь","country":"IR","lat":31.031,"lon":61.495,"pop":121989,"tz":"Asia/Tehran"},{"id":461740,"name":"Zyuzino","local":"Зюзино","country":"RU","lat":55.656,"lon":37.568,"pop":121000,"tz":"Europe/Moscow"},{"id":1784953,"name":"Zhaoyuan","local":"Zhaoyuan","country":"CN","lat":37.365,"lon":120.41,"pop":120000,"tz":"Asia/Shanghai"},{"id":923295,"name":"Zomba","local":"Зомба","country":"MW","lat":-15.386,"lon":35.319,"pop":118440,"tz":"Africa/Blantyre"},{"id":3080165,"name":"Zielona Gora","local":"Зелёна-Гура","country":"PL","lat":51.935,"lon":15.506,"pop":118433,"tz":"Europe/Warsaw"},{"id":2743856,"name":"Zoetermeer","local":"Zoetermeer","country":"NL","lat":52.057,"lon":4.493,"pop":115845,"tz":"Europe/Amsterdam"},{"id":2033147,"name":"Zhaozhou","local":"Чжаочжоу","country":"CN","lat":45.706,"lon":125.266,"pop":114009,"tz":"Asia/Shanghai"},{"id":346030,"name":"Zefta","local":"Зифта","country":"EG","lat":30.714,"lon":31.244,"pop":111700,"tz":"Africa/Cairo"},{"id":1783940,"name":"Zhuji","local":"Zhuji","country":"CN","lat":29.719,"lon":120.242,"pop":110721,"tz":"Asia/Shanghai"},{"id":1786546,"name":"Zhongxiang","local":"Zhongxiang","country":"CN","lat":31.166,"lon":112.583,"pop":108883,"tz":"Asia/Shanghai"},{"id":1784393,"name":"Zhonghe","local":"Zhonghe","country":"CN","lat":28.45,"lon":108.989,"pop":105003,"tz":"Asia/Shanghai"},{"id":1516589,"name":"Zhezqazghan","local":"Жезказган","country":"KZ","lat":47.794,"lon":67.706,"pop":104357,"tz":"Asia/Almaty"},{"id":607610,"name":"Zhanaozen","local":"Жанаозен","country":"KZ","lat":43.341,"lon":52.862,"pop":103598,"tz":"Asia/Aqtau"},{"id":737022,"name":"Zonguldak","local":"Зонгулдак","country":"TR","lat":41.451,"lon":31.793,"pop":101749,"tz":"Europe/Istanbul"},{"id":463835,"name":"Zelenodolsk","local":"Зеленодольск","country":"RU","lat":55.844,"lon":48.518,"pop":99600,"tz":"Europe/Moscow"},{"id":3427213,"name":"Zarate","local":"Зарате","country":"AR","lat":-34.096,"lon":-59.024,"pop":99061,"tz":"America/Argentina/Buenos_Aires"},{"id":2803560,"name":"Zwickau","local":"Цвиккау","country":"DE","lat":50.727,"lon":12.488,"pop":98796,"tz":"Europe/Berlin"},{"id":463343,"name":"Zheleznogorsk","local":"Железногорск","country":"RU","lat":52.342,"lon":35.359,"pop":97900,"tz":"Europe/Moscow"},{"id":462755,"name":"Zhukovsky","local":"Жуковский","country":"RU","lat":55.595,"lon":38.12,"pop":97200,"tz":"Europe/Moscow"},{"id":1677053,"name":"Zhudong","local":"Zhudong","country":"TW","lat":24.732,"lon":121.091,"pop":96518,"tz":"Asia/Taipei"},{"id":6989891,"name":"Zerakpur","local":"Zerakpur","country":"IN","lat":30.656,"lon":76.821,"pop":95553,"tz":"Asia/Kolkata"},{"id":89570,"name":"Zaxo","local":"Заху","country":"IQ","lat":37.149,"lon":42.686,"pop":95052,"tz":"Asia/Baghdad"},{"id":1784417,"name":"Zhongduo","local":"Zhongduo","country":"CN","lat":28.847,"lon":108.764,"pop":93928,"tz":"Asia/Shanghai"},{"id":1538635,"name":"Zheleznogorsk","local":"Железногорск","country":"RU","lat":56.251,"lon":93.531,"pop":93834,"tz":"Asia/Krasnoyarsk"},{"id":2033149,"name":"Zhaoyuan","local":"Zhaoyuan","country":"CN","lat":45.52,"lon":125.076,"pop":93505,"tz":"Asia/Shanghai"},{"id":1784310,"name":"Zhongshu","local":"Чжуншу","country":"CN","lat":24.517,"lon":103.767,"pop":91750,"tz":"Asia/Shanghai"},{"id":325579,"name":"Ziway","local":"Ziway","country":"ET","lat":7.933,"lon":38.717,"pop":90500,"tz":"Africa/Addis_Ababa"},{"id":8403611,"name":"Zhoujiaba","local":"Zhoujiaba","country":"CN","lat":30.843,"lon":108.366,"pop":88494,"tz":"Asia/Shanghai"},{"id":1784929,"name":"Zhaogezhuang","local":"Zhaogezhuang","country":"CN","lat":39.765,"lon":118.412,"pop":86555,"tz":"Asia/Shanghai"},{"id":8403614,"name":"Zhonggulou","local":"Zhonggulou","country":"CN","lat":30.825,"lon":108.384,"pop":85873,"tz":"Asia/Shanghai"},{"id":3056508,"name":"Zilina","local":"Жилина","country":"SK","lat":49.223,"lon":18.739,"pop":81219,"tz":"Europe/Bratislava"},{"id":1784055,"name":"Zhuanghe","local":"Zhuanghe","country":"CN","lat":39.701,"lon":122.991,"pop":80384,"tz":"Asia/Shanghai"},{"id":783814,"name":"Zrenjanin","local":"Зренянин","country":"RS","lat":45.384,"lon":20.382,"pop":79773,"tz":"Europe/Belgrade"},{"id":2470173,"name":"Zarzis","local":"Зарзис","country":"TN","lat":33.504,"lon":11.112,"pop":79316,"tz":"Africa/Tunis"},{"id":1797438,"name":"Zhuangyuan","local":"Zhuangyuan","country":"CN","lat":37.306,"lon":120.827,"pop":79106,"tz":"Asia/Shanghai"},{"id":266045,"name":"Zahle","local":"Захла","country":"LB","lat":33.847,"lon":35.902,"pop":78145,"tz":"Asia/Beirut"},{"id":618806,"name":"Zhlobin","local":"Жлобин","country":"BY","lat":52.893,"lon":30.024,"pop":76844,"tz":"Europe/Minsk"},{"id":1784939,"name":"Zhaodun","local":"Zhaodun","country":"CN","lat":34.303,"lon":117.857,"pop":76691,"tz":"Asia/Shanghai"},{"id":1785022,"name":"Zhangzhai","local":"Zhangzhai","country":"CN","lat":34.617,"lon":116.95,"pop":74433,"tz":"Asia/Shanghai"},{"id":1549743,"name":"Zhangzhuang","local":"Zhangzhuang","country":"CN","lat":34.519,"lon":117.006,"pop":74114,"tz":"Asia/Shanghai"},{"id":3625066,"name":"Zaraza","local":"Зараза","country":"VE","lat":9.35,"lon":-65.325,"pop":74017,"tz":"America/Caracas"},{"id":3061370,"name":"Zlin","local":"Злин","country":"CZ","lat":49.226,"lon":17.671,"pop":72973,"tz":"Europe/Prague"},{"id":1920772,"name":"Zhoucheng","local":"Zhoucheng","country":"CN","lat":35.912,"lon":116.312,"pop":72070,"tz":"Asia/Shanghai"},{"id":2744118,"name":"Zaandam","local":"Зандам","country":"NL","lat":52.439,"lon":4.826,"pop":71708,"tz":"Europe/Amsterdam"},{"id":1488253,"name":"Zelenogorsk","local":"Зеленогорск","country":"RU","lat":56.109,"lon":94.587,"pop":71354,"tz":"Asia/Krasnoyarsk"},{"id":1252699,"name":"Zahirabad","local":"Zahirābād","country":"IN","lat":17.681,"lon":77.607,"pop":71166,"tz":"Asia/Kolkata"},{"id":8358544,"name":"Zografos","local":"Zográfos","country":"GR","lat":37.976,"lon":23.769,"pop":71026,"tz":"Europe/Athens"},{"id":13157010,"name":"Ziauddin Pur","local":"Ziauddin Pur","country":"IN","lat":28.709,"lon":77.277,"pop":68993,"tz":"Asia/Kolkata"},{"id":2033128,"name":"Zhenlai","local":"Zhenlai","country":"CN","lat":45.85,"lon":123.198,"pop":67760,"tz":"Asia/Shanghai"},{"id":3186952,"name":"Zadar","local":"Задар","country":"HR","lat":44.116,"lon":15.225,"pop":67309,"tz":"Europe/Zagreb"},{"id":753866,"name":"Zamosc","local":"Замосць","country":"PL","lat":50.723,"lon":23.252,"pop":66034,"tz":"Europe/Warsaw"},{"id":1784553,"name":"Zhicheng","local":"Zhicheng","country":"CN","lat":31.008,"lon":119.909,"pop":63753,"tz":"Asia/Shanghai"},{"id":464625,"name":"Zarechnyy","local":"Заречный","country":"RU","lat":53.204,"lon":45.192,"pop":63579,"tz":"Europe/Moscow"},{"id":291580,"name":"Zayed City","local":"Zayed City","country":"AE","lat":23.654,"lon":53.705,"pop":63482,"tz":"Asia/Dubai"},{"id":2279526,"name":"Zagne","local":"Zagné","country":"CI","lat":6.21,"lon":-7.483,"pop":63341,"tz":"Africa/Abidjan"},{"id":3080004,"name":"Zory","local":"Жоры","country":"PL","lat":50.045,"lon":18.701,"pop":63174,"tz":"Europe/Warsaw"},{"id":1785212,"name":"Zhangjiachuan","local":"Zhangjiachuan","country":"CN","lat":34.988,"lon":106.209,"pop":62497,"tz":"Asia/Shanghai"},{"id":831165,"name":"Zarechnyy","local":"Заречный","country":"RU","lat":53.133,"lon":46.583,"pop":62139,"tz":"Europe/Moscow"},{"id":1784647,"name":"Zhaobaoshan","local":"Zhaobaoshan","country":"CN","lat":29.97,"lon":121.688,"pop":61979,"tz":"Asia/Shanghai"},{"id":1785222,"name":"Zhangji","local":"Zhangji","country":"CN","lat":34.138,"lon":117.376,"pop":61929,"tz":"Asia/Shanghai"},{"id":3042638,"name":"Zalaegerszeg","local":"Залаэгерсег","country":"HU","lat":46.837,"lon":16.844,"pop":61898,"tz":"Europe/Budapest"},{"id":3104342,"name":"Zamora","local":"Самора","country":"ES","lat":41.506,"lon":-5.745,"pop":61827,"tz":"Europe/Madrid"},{"id":2743977,"name":"Zeist","local":"Зейст","country":"NL","lat":52.09,"lon":5.233,"pop":60949,"tz":"Europe/Amsterdam"},{"id":3587587,"name":"Zacapa","local":"Сакапа","country":"GT","lat":14.969,"lon":-89.527,"pop":60424,"tz":"America/Guatemala"},{"id":1801455,"name":"Zhijiang","local":"Zhijiang","country":"CN","lat":30.421,"lon":111.753,"pop":60169,"tz":"Asia/Shanghai"},{"id":1847968,"name":"Zushi","local":"Zushi","country":"JP","lat":35.295,"lon":139.578,"pop":60055,"tz":"Asia/Tokyo"},{"id":1783920,"name":"Zhujiajiao","local":"Чжуцзяцзяо","country":"CN","lat":31.108,"lon":121.057,"pop":60000,"tz":"Asia/Shanghai"},{"id":878549,"name":"Zvishavane","local":"Zvishavane","country":"ZW","lat":-20.327,"lon":30.066,"pop":59717,"tz":"Africa/Harare"},{"id":111421,"name":"Zarand","local":"Zarand","country":"IR","lat":30.813,"lon":56.564,"pop":58983,"tz":"Asia/Tehran"},{"id":3061412,"name":"Zizkov","local":"Жижков","country":"CZ","lat":50.083,"lon":14.45,"pop":58267,"tz":"Europe/Prague"},{"id":1783802,"name":"Zhutuo","local":"Zhutuo","country":"CN","lat":29.018,"lon":105.849,"pop":58262,"tz":"Asia/Shanghai"},{"id":3080251,"name":"Zgierz","local":"Згеж","country":"PL","lat":51.856,"lon":19.406,"pop":58036,"tz":"Europe/Warsaw"},{"id":1784253,"name":"Zhongxing","local":"Zhongxing","country":"CN","lat":33.704,"lon":118.679,"pop":57338,"tz":"Asia/Shanghai"},{"id":463082,"name":"Zhigulevsk","local":"Жигулёвск","country":"RU","lat":53.403,"lon":49.511,"pop":57094,"tz":"Europe/Samara"},{"id":1549804,"name":"Zhuzhai","local":"Zhuzhai","country":"CN","lat":34.761,"lon":116.814,"pop":56908,"tz":"Asia/Shanghai"},{"id":1279553,"name":"Zibihu","local":"Zibihu","country":"CN","lat":26.114,"lon":99.953,"pop":56246,"tz":"Asia/Shanghai"},{"id":699553,"name":"Zviahel","local":"Звягель","country":"UA","lat":50.594,"lon":27.616,"pop":55925,"tz":"Europe/Kyiv"},{"id":418418,"name":"Zarrin Shahr","local":"Zarrīn Shahr","country":"IR","lat":32.391,"lon":51.377,"pop":55817,"tz":"Asia/Tehran"},{"id":737054,"name":"Zile","local":"Зил","country":"TR","lat":40.303,"lon":35.886,"pop":55680,"tz":"Europe/Istanbul"},{"id":12358614,"name":"Zhuyi","local":"Zhuyi","country":"CN","lat":31.025,"lon":109.386,"pop":55627,"tz":"Asia/Shanghai"},{"id":2375558,"name":"Zouerat","local":"Zouérat","country":"MR","lat":22.735,"lon":-12.471,"pop":55183,"tz":"Africa/Nouakchott"},{"id":465057,"name":"Zamoskvorech'ye","local":"Замоскворечье","country":"RU","lat":55.733,"lon":37.633,"pop":55000,"tz":"Europe/Moscow"},{"id":2805059,"name":"Zehlendorf","local":"Целендорф","country":"DE","lat":52.433,"lon":13.25,"pop":54328,"tz":"Europe/Berlin"},{"id":6295533,"name":"Zuerich (Kreis 11)","local":"Zürich (Kreis 11)","country":"CH","lat":47.423,"lon":8.522,"pop":54260,"tz":"Europe/Zurich"},{"id":3518221,"name":"Zinacantepec","local":"Zinacantepec","country":"MX","lat":19.284,"lon":-99.734,"pop":54220,"tz":"America/Mexico_City"},{"id":1279485,"name":"Zhangfeng","local":"Zhangfeng","country":"CN","lat":24.191,"lon":97.802,"pop":53370,"tz":"Asia/Shanghai"},{"id":1549810,"name":"Zhaozhuang","local":"Zhaozhuang","country":"CN","lat":34.739,"lon":116.456,"pop":53193,"tz":"Asia/Shanghai"},{"id":3080526,"name":"Zawiercie","local":"Заверце","country":"PL","lat":50.488,"lon":19.417,"pop":53159,"tz":"Europe/Warsaw"},{"id":1679397,"name":"Zaragoza","local":"Zaragoza","country":"PH","lat":15.449,"lon":120.796,"pop":53090,"tz":"Asia/Manila"},{"id":69500,"name":"Zabid","local":"Забид","country":"YE","lat":14.195,"lon":43.315,"pop":52590,"tz":"Asia/Aden"},{"id":662334,"name":"Zalau","local":"Залэу","country":"RO","lat":47.2,"lon":23.05,"pop":52359,"tz":"Europe/Bucharest"},{"id":1485439,"name":"Zarinsk","local":"Заринск","country":"RU","lat":53.708,"lon":84.943,"pop":52209,"tz":"Asia/Barnaul"},{"id":12450873,"name":"Zhawa","local":"Zhawa","country":"CN","lat":37.214,"lon":79.629,"pop":52165,"tz":"Asia/Urumqi"},{"id":1549693,"name":"Zizhuang","local":"Zizhuang","country":"CN","lat":34.362,"lon":117.488,"pop":52063,"tz":"Asia/Shanghai"},{"id":1784272,"name":"Zhongxin","local":"Zhongxin","country":"CN","lat":26.617,"lon":101.272,"pop":51866,"tz":"Asia/Shanghai"},{"id":1279501,"name":"Zepu","local":"Поскам","country":"CN","lat":38.189,"lon":77.271,"pop":51691,"tz":"Asia/Urumqi"},{"id":1279471,"name":"Zhefang","local":"Zhefang","country":"CN","lat":24.267,"lon":98.283,"pop":51477,"tz":"Asia/Shanghai"},{"id":753142,"name":"Zoliborz","local":"Жолибож","country":"PL","lat":52.269,"lon":20.986,"pop":50934,"tz":"Europe/Warsaw"},{"id":1162105,"name":"Zhob","local":"Zhob","country":"PK","lat":31.341,"lon":69.449,"pop":50537,"tz":"Asia/Karachi"},{"id":3979846,"name":"Zacapu","local":"Сакапу","country":"MX","lat":19.815,"lon":-101.792,"pop":50112,"tz":"America/Mexico_City"},{"id":1784595,"name":"Zhenxi","local":"Zhenxi","country":"CN","lat":29.899,"lon":107.465,"pop":50017,"tz":"Asia/Shanghai"},{"id":1120985,"name":"Zaranj","local":"Зарани","country":"AF","lat":30.96,"lon":61.86,"pop":49851,"tz":"Asia/Kabul"},{"id":784024,"name":"Zajecar","local":"Заечар","country":"RS","lat":43.904,"lon":22.264,"pop":49800,"tz":"Europe/Belgrade"},{"id":2310763,"name":"Zongo","local":"Zongo","country":"CD","lat":4.343,"lon":18.594,"pop":48658,"tz":"Africa/Kinshasa"},{"id":346201,"name":"Zaafarana","local":"Zaafarana","country":"EG","lat":29.11,"lon":32.66,"pop":46993,"tz":"Africa/Cairo"},{"id":6295532,"name":"Zuerich (Kreis 3)","local":"Zürich (Kreis 3)","country":"CH","lat":47.358,"lon":8.503,"pop":46018,"tz":"Europe/Zurich"},{"id":2743493,"name":"Zwijndrecht","local":"Звейндрехте","country":"NL","lat":51.818,"lon":4.633,"pop":45696,"tz":"Europe/Amsterdam"},{"id":1549554,"name":"Zouzhuang","local":"Zouzhuang","country":"CN","lat":34.6,"lon":118.05,"pop":45461,"tz":"Asia/Shanghai"},{"id":6295534,"name":"Zuerich (Kreis 9)","local":"Zürich (Kreis 9)","country":"CH","lat":47.382,"lon":8.48,"pop":44878,"tz":"Europe/Zurich"},{"id":3080414,"name":"Zdunska Wola","local":"Здуньская-Воля","country":"PL","lat":51.599,"lon":18.94,"pop":44515,"tz":"Europe/Warsaw"},{"id":2472833,"name":"Zouila","local":"Zouila","country":"TN","lat":35.501,"lon":11.061,"pop":44349,"tz":"Africa/Tunis"},{"id":2279172,"name":"Zuenoula","local":"Zuénoula","country":"CI","lat":7.43,"lon":-6.051,"pop":44097,"tz":"Africa/Abidjan"},{"id":1677099,"name":"Zhushan","local":"Zhushan","country":"TW","lat":23.756,"lon":120.682,"pop":44083,"tz":"Asia/Taipei"},{"id":2526452,"name":"Zagora","local":"Загора","country":"MA","lat":30.332,"lon":-5.838,"pop":43752,"tz":"Africa/Casablanca"},{"id":1784388,"name":"Zhonghe","local":"Zhonghe","country":"CN","lat":31.177,"lon":108.132,"pop":43318,"tz":"Asia/Shanghai"},{"id":1784527,"name":"Zhigou","local":"Zhigou","country":"CN","lat":35.917,"lon":119.217,"pop":43152,"tz":"Asia/Shanghai"},{"id":1516601,"name":"Zhitikara","local":"Житикара","country":"KZ","lat":52.19,"lon":61.199,"pop":43104,"tz":"Asia/Qostanay"},{"id":1784697,"name":"Zhengji","local":"Zhengji","country":"CN","lat":34.437,"lon":117.039,"pop":43021,"tz":"Asia/Shanghai"},{"id":464101,"name":"Zavolzh'ye","local":"Заволжье","country":"RU","lat":56.641,"lon":43.394,"pop":42900,"tz":"Europe/Moscow"},{"id":12495684,"name":"Zhuhai","local":"Zhuhai","country":"CN","lat":29.369,"lon":105.883,"pop":42383,"tz":"Asia/Shanghai"},{"id":3815392,"name":"Zacatelco","local":"Цакателко","country":"MX","lat":19.216,"lon":-98.24,"pop":42150,"tz":"America/Mexico_City"},{"id":687196,"name":"Zhovti Vody","local":"Жёлтые Воды","country":"UA","lat":48.345,"lon":33.497,"pop":42052,"tz":"Europe/Kyiv"},{"id":465543,"name":"Zainsk","local":"Заинск","country":"RU","lat":55.319,"lon":52.069,"pop":42044,"tz":"Europe/Moscow"},{"id":463824,"name":"Zelenokumsk","local":"Зеленокумск","country":"RU","lat":44.41,"lon":43.88,"pop":41306,"tz":"Europe/Moscow"},{"id":752967,"name":"Zyrardow","local":"Жирардув","country":"PL","lat":52.049,"lon":20.446,"pop":41179,"tz":"Europe/Warsaw"},{"id":6318970,"name":"Ze Doca","local":"Zé Doca","country":"BR","lat":-3.275,"lon":-45.658,"pop":40801,"tz":"America/Fortaleza"},{"id":610824,"name":"Zugdidi","local":"Зугдиди","country":"GE","lat":42.508,"lon":41.868,"pop":40067,"tz":"Asia/Tbilisi"},{"id":1942226,"name":"Zhaojia","local":"Zhaojia","country":"CN","lat":31.081,"lon":108.412,"pop":39910,"tz":"Asia/Shanghai"},{"id":3056459,"name":"Zvolen","local":"Зволен","country":"SK","lat":48.574,"lon":19.153,"pop":39844,"tz":"Europe/Bratislava"},{"id":3582805,"name":"Zacatecoluca","local":"Zacatecoluca","country":"SV","lat":13.509,"lon":-88.87,"pop":39613,"tz":"America/El_Salvador"},{"id":1783771,"name":"Zhuyuan","local":"Zhuyuan","country":"CN","lat":31.302,"lon":109.258,"pop":39338,"tz":"Asia/Shanghai"},{"id":2526435,"name":"Zaio","local":"Zaïo","country":"MA","lat":34.943,"lon":-2.733,"pop":39099,"tz":"Africa/Casablanca"},{"id":3080644,"name":"Zary","local":"Жара","country":"PL","lat":51.642,"lon":15.137,"pop":38779,"tz":"Europe/Warsaw"},{"id":2272491,"name":"Zwedru","local":"Зведру","country":"LR","lat":6.068,"lon":-8.136,"pop":38269,"tz":"Africa/Monrovia"},{"id":1785345,"name":"Zhancheng","local":"Zhancheng","country":"CN","lat":34.175,"lon":117.763,"pop":38164,"tz":"Asia/Shanghai"},{"id":9988213,"name":"Zhonghe","local":"Zhonghe","country":"CN","lat":25.056,"lon":98.4,"pop":37682,"tz":"Asia/Shanghai"},{"id":7645176,"name":"Zira","local":"Зира","country":"IN","lat":30.969,"lon":74.991,"pop":37498,"tz":"Asia/Kolkata"},{"id":2537538,"name":"Zeghanghane","local":"Zeghanghane","country":"MA","lat":35.156,"lon":-3.002,"pop":37154,"tz":"Africa/Casablanca"},{"id":8421919,"name":"Zhiping","local":"Zhiping","country":"CN","lat":29.258,"lon":106.359,"pop":36680,"tz":"Asia/Shanghai"},{"id":1524385,"name":"Zhetysay","local":"Джетысай","country":"KZ","lat":40.776,"lon":68.328,"pop":36494,"tz":"Asia/Almaty"},{"id":6295539,"name":"Zuerich (Kreis 10)","local":"Zürich (Kreis 10)","country":"CH","lat":47.408,"lon":8.501,"pop":36216,"tz":"Europe/Zurich"},{"id":2743608,"name":"Zutphen","local":"Зютфен","country":"NL","lat":52.138,"lon":6.201,"pop":36188,"tz":"Europe/Amsterdam"},{"id":12358511,"name":"Zhutang","local":"Zhutang","country":"CN","lat":22.715,"lon":99.807,"pop":35766,"tz":"Asia/Shanghai"},{"id":1783682,"name":"Ziyang Chengguanzhen","local":"Ziyang Chengguanzhen","country":"CN","lat":32.519,"lon":108.532,"pop":35496,"tz":"Asia/Shanghai"},{"id":2353197,"name":"Zorgo","local":"Zorgo","country":"BF","lat":12.249,"lon":-0.615,"pop":35398,"tz":"Africa/Ouagadougou"},{"id":3061344,"name":"Znojmo","local":"Зноймо","country":"CZ","lat":48.855,"lon":16.049,"pop":35280,"tz":"Europe/Prague"},{"id":3062152,"name":"Zabehlice","local":"Záběhlice","country":"CZ","lat":50.057,"lon":14.504,"pop":35228,"tz":"Europe/Prague"},{"id":2803620,"name":"Zweibruecken","local":"Цвайбрюккен","country":"DE","lat":49.247,"lon":7.37,"pop":35221,"tz":"Europe/Berlin"},{"id":363533,"name":"Zalinjay","local":"Залингее","country":"SD","lat":12.909,"lon":23.471,"pop":35061,"tz":"Africa/Khartoum"},{"id":687116,"name":"Zhmerynka","local":"Жмеринка","country":"UA","lat":49.035,"lon":28.114,"pop":34498,"tz":"Europe/Kyiv"},{"id":1520253,"name":"Zharkent","local":"Жаркент","country":"KZ","lat":44.166,"lon":80.007,"pop":34422,"tz":"Asia/Almaty"},{"id":1784750,"name":"Zhelou","local":"Zhelou","country":"CN","lat":24.967,"lon":105.817,"pop":34250,"tz":"Asia/Shanghai"},{"id":1162275,"name":"Zahir Pir","local":"Zahir Pir","country":"PK","lat":28.813,"lon":70.523,"pop":34121,"tz":"Asia/Karachi"},{"id":1783793,"name":"Zhuxi","local":"Zhuxi","country":"CN","lat":29.536,"lon":105.667,"pop":34113,"tz":"Asia/Shanghai"},{"id":2208425,"name":"Zuwarah","local":"Зуара","country":"LY","lat":32.931,"lon":12.082,"pop":33887,"tz":"Africa/Tripoli"},{"id":6295548,"name":"Zuerich (Kreis 7)","local":"Zürich (Kreis 7)","country":"CH","lat":47.373,"lon":8.58,"pop":33820,"tz":"Europe/Zurich"},{"id":3514148,"name":"Zacatlan","local":"Сакатлан","country":"MX","lat":19.936,"lon":-97.961,"pop":33736,"tz":"America/Mexico_City"},{"id":1516788,"name":"Zhangatas","local":"Жанатас","country":"KZ","lat":43.563,"lon":69.732,"pop":33492,"tz":"Asia/Almaty"},{"id":1252698,"name":"Zaidpur","local":"Заидпур","country":"IN","lat":26.831,"lon":81.329,"pop":33397,"tz":"Asia/Kolkata"},{"id":2012484,"name":"Zima","local":"Зима","country":"RU","lat":53.92,"lon":102.044,"pop":33323,"tz":"Asia/Irkutsk"},{"id":2353257,"name":"Ziniare","local":"Ziniaré","country":"BF","lat":12.582,"lon":-1.298,"pop":33296,"tz":"Africa/Ouagadougou"},{"id":3080231,"name":"Zgorzelec","local":"Згожелец","country":"PL","lat":51.149,"lon":15.008,"pop":33247,"tz":"Europe/Warsaw"},{"id":2218963,"name":"Zintan","local":"Эз-Зинтан","country":"LY","lat":31.932,"lon":12.253,"pop":33000,"tz":"Africa/Tripoli"},{"id":1784157,"name":"Zhoujia","local":"Zhoujia","country":"CN","lat":30.419,"lon":107.538,"pop":32562,"tz":"Asia/Shanghai"},{"id":3979717,"name":"Zapotlanejo","local":"Zapotlanejo","country":"MX","lat":20.623,"lon":-103.068,"pop":32376,"tz":"America/Mexico_City"},{"id":584596,"name":"Zaqatala","local":"Загатала","country":"AZ","lat":41.632,"lon":46.645,"pop":32171,"tz":"Asia/Baku"},{"id":3079855,"name":"Zywiec","local":"Живец","country":"PL","lat":49.685,"lon":19.192,"pop":32132,"tz":"Europe/Warsaw"},{"id":1252692,"name":"Zamania","local":"Zamānia","country":"IN","lat":25.42,"lon":83.558,"pop":32008,"tz":"Asia/Kolkata"},{"id":831130,"name":"Znamensk","local":"Знаменск","country":"RU","lat":48.584,"lon":45.734,"pop":31922,"tz":"Europe/Astrakhan"},{"id":1885400,"name":"Zhonghe","local":"Zhonghe","country":"CN","lat":19.743,"lon":109.345,"pop":31646,"tz":"Asia/Shanghai"},{"id":1847983,"name":"Zentsujicho","local":"Zentsujichó","country":"JP","lat":34.227,"lon":133.778,"pop":31631,"tz":"Asia/Tokyo"},{"id":2448322,"name":"Zegoua","local":"Zégoua","country":"ML","lat":10.488,"lon":-5.649,"pop":31593,"tz":"Africa/Bamako"},{"id":3832132,"name":"Zapala","local":"Сапала","country":"AR","lat":-38.901,"lon":-70.067,"pop":31534,"tz":"America/Argentina/Salta"},{"id":12252444,"name":"Zhakou","local":"Zhakou","country":"CN","lat":21.707,"lon":109.475,"pop":31173,"tz":"Asia/Shanghai"},{"id":1784475,"name":"Zhong'ao","local":"Zhong’ao","country":"CN","lat":29.765,"lon":105.666,"pop":31118,"tz":"Asia/Shanghai"},{"id":1222175,"name":"Zarhalol","local":"Бошқалъа","country":"TJ","lat":37.465,"lon":68.169,"pop":30689,"tz":"Asia/Dushanbe"},{"id":2657908,"name":"Zug","local":"Цуг","country":"CH","lat":47.172,"lon":8.517,"pop":30542,"tz":"Europe/Zurich"},{"id":6418201,"name":"Zagor'ye","local":"Загорье","country":"RU","lat":55.577,"lon":37.667,"pop":30000,"tz":"Europe/Moscow"},{"id":6295550,"name":"Zuerich (Kreis 6)","local":"Zürich (Kreis 6)","country":"CH","lat":47.392,"lon":8.544,"pop":29951,"tz":"Europe/Zurich"},{"id":2279235,"name":"Zouan-Hounien","local":"Zouan-Hounien","country":"CI","lat":6.919,"lon":-8.207,"pop":29649,"tz":"Africa/Abidjan"},{"id":1252653,"name":"Zunheboto","local":"Zunheboto","country":"IN","lat":25.967,"lon":94.517,"pop":29499,"tz":"Asia/Kolkata"},{"id":2804922,"name":"Zeitz","local":"Цайц","country":"DE","lat":51.05,"lon":12.137,"pop":29469,"tz":"Europe/Berlin"},{"id":463637,"name":"Zernograd","local":"Зерноград","country":"RU","lat":46.849,"lon":40.312,"pop":29268,"tz":"Europe/Moscow"},{"id":6295540,"name":"Zuerich (Kreis 2)","local":"Zürich (Kreis 2)","country":"CH","lat":47.338,"lon":8.521,"pop":29215,"tz":"Europe/Zurich"},{"id":2474399,"name":"Zighout Youcef","local":"Zighout Youcef","country":"DZ","lat":36.533,"lon":6.712,"pop":28764,"tz":"Africa/Algiers"},{"id":3665559,"name":"Zarzal","local":"Zarzal","country":"CO","lat":4.395,"lon":-76.072,"pop":28761,"tz":"America/Bogota"},{"id":697576,"name":"Zlatopil","local":"Златополь","country":"UA","lat":49.376,"lon":36.218,"pop":28510,"tz":"Europe/Kyiv"},{"id":8418559,"name":"Zhifeng","local":"Zhifeng","country":"CN","lat":29.654,"lon":105.784,"pop":28467,"tz":"Asia/Shanghai"},{"id":2012557,"name":"Zheleznogorsk-Ilimskiy","local":"Железногорск-Илимский","country":"RU","lat":56.577,"lon":104.13,"pop":28456,"tz":"Asia/Irkutsk"},{"id":12324260,"name":"Zheshan","local":"Zheshan","country":"CN","lat":36.149,"lon":118.951,"pop":28333,"tz":"Asia/Shanghai"},{"id":6295513,"name":"Zuerich (Kreis 9) / Altstetten","local":"Zürich (Kreis 9) / Altstetten","country":"CH","lat":47.389,"lon":8.485,"pop":28307,"tz":"Europe/Zurich"},{"id":6295523,"name":"Zuerich (Kreis 12)","local":"Zürich (Kreis 12)","country":"CH","lat":47.404,"lon":8.576,"pop":28189,"tz":"Europe/Zurich"},{"id":2783310,"name":"Zaventem","local":"Завентем","country":"BE","lat":50.884,"lon":4.473,"pop":28188,"tz":"Europe/Brussels"},{"id":426423,"name":"Zanandore","local":"Zanandore","country":"BI","lat":-3.255,"lon":30.114,"pop":27867,"tz":"Africa/Bujumbura"},{"id":686875,"name":"Zolotonosha","local":"Золотоноша","country":"UA","lat":49.669,"lon":32.036,"pop":27818,"tz":"Europe/Kyiv"},{"id":1784669,"name":"Zhengxing","local":"Zhengxing","country":"CN","lat":29.457,"lon":106.129,"pop":27804,"tz":"Asia/Shanghai"},{"id":1485445,"name":"Zarechnyy","local":"Заречный","country":"RU","lat":56.811,"lon":61.325,"pop":27758,"tz":"Asia/Yekaterinburg"},{"id":2526359,"name":"Zawyat ech Cheikh","local":"Завийя аш Шейх","country":"MA","lat":32.644,"lon":-5.918,"pop":27723,"tz":"Africa/Casablanca"},{"id":2661666,"name":"Zuerich (Kreis 4) / Aussersihl","local":"Zürich (Kreis 4) / Aussersihl","country":"CH","lat":47.378,"lon":8.521,"pop":27273,"tz":"Europe/Zurich"},{"id":3080866,"name":"Zakopane","local":"Закопане","country":"PL","lat":49.299,"lon":19.949,"pop":27266,"tz":"Europe/Warsaw"},{"id":1908018,"name":"Zhongshan","local":"Zhongshan","country":"CN","lat":34.938,"lon":105.877,"pop":27147,"tz":"Asia/Shanghai"},{"id":1215694,"name":"Zomin Shaharchasi","local":"Зомин","country":"UZ","lat":39.961,"lon":68.396,"pop":27077,"tz":"Asia/Samarkand"},{"id":2279495,"name":"Zaliohouan","local":"Zaliohouan","country":"CI","lat":6.795,"lon":-6.236,"pop":27050,"tz":"Africa/Abidjan"},{"id":1783626,"name":"Zuitai","local":"Zuitai","country":"CN","lat":33.331,"lon":105.605,"pop":27027,"tz":"Asia/Shanghai"},{"id":7117880,"name":"Zarya","local":"Заря","country":"RU","lat":55.755,"lon":38.096,"pop":27000,"tz":"Europe/Moscow"},{"id":2012593,"name":"Zeya","local":"Зея","country":"RU","lat":53.736,"lon":127.256,"pop":26999,"tz":"Asia/Yakutsk"},{"id":895953,"name":"Zambezi","local":"Замбези","country":"ZM","lat":-13.543,"lon":23.105,"pop":26885,"tz":"Africa/Lusaka"},{"id":1162261,"name":"Zaida","local":"Zaida","country":"PK","lat":34.059,"lon":72.467,"pop":26787,"tz":"Asia/Karachi"},{"id":2744102,"name":"Zaltbommel","local":"Zaltbommel","country":"NL","lat":51.81,"lon":5.244,"pop":26383,"tz":"Europe/Amsterdam"},{"id":1783782,"name":"Zhuyang","local":"Zhuyang","country":"CN","lat":29.064,"lon":105.945,"pop":26335,"tz":"Asia/Shanghai"},{"id":4267336,"name":"Zionsville","local":"Зајонсвил","country":"US","lat":39.951,"lon":-86.262,"pop":26296,"tz":"America/Indiana/Indianapolis"},{"id":2743949,"name":"Zevenaar","local":"Зевенар","country":"NL","lat":51.93,"lon":6.071,"pop":26063,"tz":"Europe/Amsterdam"},{"id":1942248,"name":"Zouma","local":"Zouma","country":"CN","lat":30.57,"lon":108.438,"pop":26017,"tz":"Asia/Shanghai"},{"id":2541210,"name":"Zawyat an Nwacer","local":"Zawyat an Nwaçer","country":"MA","lat":33.38,"lon":-7.619,"pop":25991,"tz":"Africa/Casablanca"},{"id":2804008,"name":"Zittau","local":"Циттау","country":"DE","lat":50.898,"lon":14.808,"pop":25785,"tz":"Europe/Berlin"},{"id":2804034,"name":"Zirndorf","local":"Цирндорф","country":"DE","lat":49.442,"lon":10.954,"pop":25734,"tz":"Europe/Berlin"},{"id":3080944,"name":"Zagan","local":"Жагань","country":"PL","lat":51.618,"lon":15.315,"pop":25731,"tz":"Europe/Warsaw"},{"id":1485357,"name":"Zavodoukovsk","local":"Заводоуковск","country":"RU","lat":56.503,"lon":66.547,"pop":25682,"tz":"Asia/Yekaterinburg"},{"id":7601921,"name":"Zhongxing New Village","local":"Zhongxing New Village","country":"TW","lat":23.959,"lon":120.685,"pop":25549,"tz":"Asia/Taipei"},{"id":4528923,"name":"Zanesville","local":"Зејнсвил","country":"US","lat":39.94,"lon":-82.013,"pop":25498,"tz":"America/New_York"},{"id":783926,"name":"Zelino","local":"Желино","country":"MK","lat":41.98,"lon":21.064,"pop":25422,"tz":"Europe/Skopje"},{"id":2279240,"name":"Zou","local":"Zou","country":"CI","lat":6.976,"lon":-7.798,"pop":25210,"tz":"Africa/Abidjan"},{"id":8408335,"name":"Zhoubai","local":"Zhoubai","country":"CN","lat":29.529,"lon":108.823,"pop":25147,"tz":"Asia/Shanghai"},{"id":461910,"name":"Zverevo","local":"Зверево","country":"RU","lat":48.027,"lon":40.123,"pop":24978,"tz":"Europe/Moscow"},{"id":1463081,"name":"Zee Kone","local":"Zee Kone","country":"MM","lat":16.95,"lon":96.102,"pop":24948,"tz":"Asia/Yangon"},{"id":662284,"name":"Zarnesti","local":"Zărnești","country":"RO","lat":45.561,"lon":25.318,"pop":24926,"tz":"Europe/Bucharest"},{"id":1512287,"name":"Zafar","local":"Зафар","country":"UZ","lat":40.983,"lon":68.9,"pop":24781,"tz":"Asia/Tashkent"},{"id":3513967,"name":"Zumpango del Rio","local":"Зумпанго-дель-Рио","country":"MX","lat":17.654,"lon":-99.527,"pop":24719,"tz":"America/Mexico_City"},{"id":464687,"name":"Zaraysk","local":"Зарайск","country":"RU","lat":54.763,"lon":38.881,"pop":24637,"tz":"Europe/Moscow"},{"id":463340,"name":"Zheleznovodsk","local":"Железноводск","country":"RU","lat":44.143,"lon":43.005,"pop":24632,"tz":"Europe/Moscow"},{"id":687432,"name":"Zdolbuniv","local":"Здолбунов","country":"UA","lat":50.522,"lon":26.248,"pop":24501,"tz":"Europe/Kyiv"},{"id":2317569,"name":"Zungeru","local":"Зунгеру","country":"NG","lat":9.807,"lon":6.152,"pop":24447,"tz":"Africa/Lagos"},{"id":2783175,"name":"Zottegem","local":"Зоттегем","country":"BE","lat":50.87,"lon":3.811,"pop":24434,"tz":"Europe/Brussels"},{"id":2317548,"name":"Zuru","local":"Zuru","country":"NG","lat":11.435,"lon":5.235,"pop":24338,"tz":"Africa/Lagos"},{"id":4917358,"name":"Zion","local":"Сион","country":"US","lat":42.446,"lon":-87.833,"pop":24117,"tz":"America/Chicago"},{"id":3665566,"name":"Zaragoza","local":"Zaragoza","country":"CO","lat":7.49,"lon":-74.869,"pop":24067,"tz":"America/Bogota"},{"id":3587543,"name":"Zaragoza","local":"Zaragoza","country":"GT","lat":14.65,"lon":-90.89,"pop":24022,"tz":"America/Guatemala"},{"id":1821294,"name":"Zhuojiacun","local":"Zhuojiacun","country":"MO","lat":22.161,"lon":113.556,"pop":24000,"tz":"Asia/Macau"},{"id":1784994,"name":"Zhanhe","local":"Zhanhe","country":"CN","lat":26.859,"lon":100.914,"pop":23854,"tz":"Asia/Shanghai"},{"id":754351,"name":"Zabki","local":"Зомбки","country":"PL","lat":52.293,"lon":21.105,"pop":23473,"tz":"Europe/Warsaw"},{"id":2783089,"name":"Zwevegem","local":"Звевегем","country":"BE","lat":50.813,"lon":3.338,"pop":23358,"tz":"Europe/Brussels"},{"id":293067,"name":"Zikhron Ya'aqov","local":"Zikhron Ya‘aqov","country":"IL","lat":32.566,"lon":34.956,"pop":23206,"tz":"Asia/Jerusalem"},{"id":2474506,"name":"Zeribet el Oued","local":"Zeribet el Oued","country":"DZ","lat":34.683,"lon":6.511,"pop":23187,"tz":"Africa/Algiers"},{"id":3514134,"name":"Zacualtipan","local":"Zacualtipán","country":"MX","lat":20.65,"lon":-98.656,"pop":23125,"tz":"America/Mexico_City"},{"id":1162285,"name":"Zafarwal","local":"Zafarwal","country":"PK","lat":32.345,"lon":74.9,"pop":23078,"tz":"Asia/Karachi"},{"id":8400151,"name":"Zhuxi","local":"Zhuxi","country":"CN","lat":31.124,"lon":108.291,"pop":22900,"tz":"Asia/Shanghai"},{"id":753895,"name":"Zambrow","local":"Замбрув","country":"PL","lat":52.986,"lon":22.243,"pop":22857,"tz":"Europe/Warsaw"},{"id":3979727,"name":"Zapotiltic","local":"Zapotiltic","country":"MX","lat":19.627,"lon":-103.418,"pop":22833,"tz":"America/Mexico_City"},{"id":3104316,"name":"Zarautz","local":"Zarautz","country":"ES","lat":43.284,"lon":-2.17,"pop":22627,"tz":"Europe/Madrid"},{"id":686896,"name":"Zolochiv","local":"Золочев","country":"UA","lat":49.807,"lon":24.904,"pop":22608,"tz":"Europe/Kyiv"},{"id":737081,"name":"Zekeriya","local":"Zekeriya","country":"TR","lat":41.198,"lon":29.03,"pop":22558,"tz":"Europe/Istanbul"},{"id":686919,"name":"Znamyanka","local":"Знаменка","country":"UA","lat":48.721,"lon":32.658,"pop":22444,"tz":"Europe/Kyiv"},{"id":1784452,"name":"Zhongchao","local":"Zhongchao","country":"CN","lat":26.137,"lon":109.22,"pop":22129,"tz":"Asia/Shanghai"},{"id":1784074,"name":"Zhouzhuang","local":"Чжоучжуан","country":"CN","lat":31.118,"lon":120.844,"pop":22000,"tz":"Asia/Shanghai"},{"id":2783308,"name":"Zedelgem","local":"Зедельгем","country":"BE","lat":51.142,"lon":3.137,"pop":21968,"tz":"Europe/Brussels"},{"id":1783956,"name":"Zhouqu Chengguanzhen","local":"Zhouqu Chengguanzhen","country":"CN","lat":33.784,"lon":104.363,"pop":21967,"tz":"Asia/Shanghai"},{"id":1284225,"name":"Zalun","local":"Zalun","country":"MM","lat":17.479,"lon":95.559,"pop":21947,"tz":"Asia/Yangon"},{"id":2474638,"name":"Zemoura","local":"Zemoura","country":"DZ","lat":35.723,"lon":0.755,"pop":21770,"tz":"Africa/Algiers"},{"id":2353436,"name":"Zabre","local":"Zabré","country":"BF","lat":11.182,"lon":-0.632,"pop":21726,"tz":"Africa/Ouagadougou"},{"id":3514163,"name":"Zacatepec","local":"Zacatepec","country":"MX","lat":18.654,"lon":-99.19,"pop":21586,"tz":"America/Mexico_City"},{"id":584614,"name":"Zabrat","local":"Забрат","country":"AZ","lat":40.477,"lon":49.942,"pop":21396,"tz":"Asia/Baku"},{"id":1517323,"name":"Zhangaqorghan","local":"Яныкурган","country":"KZ","lat":43.907,"lon":67.246,"pop":21339,"tz":"Asia/Qyzylorda"},{"id":463885,"name":"Zelenchukskaya","local":"Зеленчукская","country":"RU","lat":43.855,"lon":41.59,"pop":21117,"tz":"Europe/Moscow"},{"id":2783274,"name":"Zemst","local":"Земст","country":"BE","lat":50.983,"lon":4.461,"pop":21096,"tz":"Europe/Brussels"},{"id":12489819,"name":"Zhuantang","local":"Zhuantang","country":"CN","lat":28.896,"lon":106.668,"pop":21048,"tz":"Asia/Shanghai"},{"id":2463941,"name":"Zaouiet Sousse","local":"Zaouiet Sousse","country":"TN","lat":35.786,"lon":10.627,"pop":20992,"tz":"Africa/Tunis"},{"id":6295498,"name":"Zuerich (Kreis 3) / Sihlfeld","local":"Zürich (Kreis 3) / Sihlfeld","country":"CH","lat":47.374,"lon":8.512,"pop":20977,"tz":"Europe/Zurich"},{"id":3061695,"name":"Zgar nad Sazavou","local":"Ждяр-над-Сазавоу","country":"CZ","lat":49.563,"lon":15.939,"pop":20847,"tz":"Europe/Prague"},{"id":2464041,"name":"Zaghouan","local":"Загуан","country":"TN","lat":36.403,"lon":10.143,"pop":20798,"tz":"Africa/Tunis"},{"id":12450950,"name":"Zhongshan","local":"Zhongshan","country":"CN","lat":28.855,"lon":106.336,"pop":20509,"tz":"Asia/Shanghai"},{"id":1783701,"name":"Zishui","local":"Zishui","country":"CN","lat":31.413,"lon":108.315,"pop":20396,"tz":"Asia/Shanghai"},{"id":1783858,"name":"Zhuoshui","local":"Zhuoshui","country":"CN","lat":29.303,"lon":108.77,"pop":20386,"tz":"Asia/Shanghai"},{"id":2783293,"name":"Zele","local":"Зеле","country":"BE","lat":51.066,"lon":4.04,"pop":20236,"tz":"Europe/Brussels"},{"id":2803723,"name":"Zuelpich","local":"Цюльпих","country":"DE","lat":50.694,"lon":6.654,"pop":20208,"tz":"Europe/Berlin"},{"id":610864,"name":"Zestaponi","local":"Зестафони","country":"GE","lat":42.108,"lon":43.033,"pop":20183,"tz":"Asia/Tbilisi"},{"id":1516519,"name":"Zhosaly","local":"Джусалы","country":"KZ","lat":45.488,"lon":64.078,"pop":20065,"tz":"Asia/Qyzylorda"},{"id":6295504,"name":"Zuerich (Kreis 6) / Unterstrass","local":"Zürich (Kreis 6) / Unterstrass","country":"CH","lat":47.395,"lon":8.537,"pop":20045,"tz":"Europe/Zurich"},{"id":464176,"name":"Zavety Il'icha","local":"Заветы Ильича","country":"RU","lat":56.043,"lon":37.852,"pop":20000,"tz":"Europe/Moscow"},{"id":6723020,"name":"Zhuravlivka","local":"Дальня Журавлівка","country":"UA","lat":50.013,"lon":36.272,"pop":20000,"tz":"Europe/Kyiv"},{"id":2783188,"name":"Zonhoven","local":"Зонховен","country":"BE","lat":50.991,"lon":5.368,"pop":19922,"tz":"Europe/Brussels"},{"id":69426,"name":"Zinjibar","local":"Zinjibār","country":"YE","lat":13.129,"lon":45.381,"pop":19879,"tz":"Asia/Aden"},{"id":462822,"name":"Zhukovka","local":"Жуковка","country":"RU","lat":53.534,"lon":33.731,"pop":19690,"tz":"Europe/Moscow"},{"id":2353332,"name":"Zinguedesse","local":"Zinguédéssé","country":"BF","lat":12.247,"lon":-1.584,"pop":19648,"tz":"Africa/Ouagadougou"},{"id":1784207,"name":"Zhongzhai","local":"Zhongzhai","country":"CN","lat":33.191,"lon":104.42,"pop":19641,"tz":"Asia/Shanghai"},{"id":3062119,"name":"Zabovresky","local":"Žabovřesky","country":"CZ","lat":49.214,"lon":16.573,"pop":19387,"tz":"Europe/Prague"},{"id":937136,"name":"Zeerust","local":"Zeerust","country":"ZA","lat":-25.537,"lon":26.075,"pop":19154,"tz":"Africa/Johannesburg"},{"id":2743997,"name":"Zeewolde","local":"Zeewolde","country":"NL","lat":52.33,"lon":5.542,"pop":19022,"tz":"Europe/Amsterdam"},{"id":2509305,"name":"Zubia","local":"Zubia","country":"ES","lat":37.119,"lon":-3.584,"pop":18995,"tz":"Europe/Madrid"},{"id":3061822,"name":"Zatec","local":"Жатец","country":"CZ","lat":50.327,"lon":13.546,"pop":18959,"tz":"Europe/Prague"},{"id":3061473,"name":"Zidenice","local":"Židenice","country":"CZ","lat":49.197,"lon":16.647,"pop":18920,"tz":"Europe/Prague"},{"id":8400142,"name":"Zhendong","local":"Zhendong","country":"CN","lat":31.185,"lon":108.395,"pop":18819,"tz":"Asia/Shanghai"},{"id":3186781,"name":"Zapresic","local":"Запрешич","country":"HR","lat":45.856,"lon":15.808,"pop":18768,"tz":"Europe/Zagreb"},{"id":937246,"name":"Zastron","local":"Zastron","country":"ZA","lat":-30.302,"lon":27.084,"pop":18699,"tz":"Africa/Johannesburg"},{"id":162560,"name":"Zakiyah","local":"Zākīyah","country":"SY","lat":33.334,"lon":36.159,"pop":18553,"tz":"Asia/Damascus"},{"id":3080071,"name":"Zlotow","local":"Злотув","country":"PL","lat":53.363,"lon":17.041,"pop":18395,"tz":"Europe/Warsaw"},{"id":2783081,"name":"Zwijndrecht","local":"Звейндрехт","country":"BE","lat":51.22,"lon":4.327,"pop":18249,"tz":"Europe/Brussels"},{"id":3979822,"name":"Zacoalco de Torres","local":"Zacoalco de Torres","country":"MX","lat":20.226,"lon":-103.57,"pop":18172,"tz":"America/Mexico_City"},{"id":2390731,"name":"Zinvie","local":"Zinvié","country":"BJ","lat":6.617,"lon":2.358,"pop":18157,"tz":"Africa/Porto-Novo"},{"id":13546522,"name":"Zhulyany","local":"Жуляни","country":"UA","lat":50.394,"lon":30.441,"pop":18000,"tz":"Europe/Kyiv"},{"id":2659310,"name":"Zuerich (Kreis 11) / Oerlikon","local":"Zürich (Kreis 11) / Oerlikon","country":"CH","lat":47.408,"lon":8.543,"pop":17922,"tz":"Europe/Zurich"},{"id":462984,"name":"Zhirnovsk","local":"Жирновск","country":"RU","lat":50.979,"lon":44.779,"pop":17887,"tz":"Europe/Volgograd"},{"id":686818,"name":"Zuhres","local":"Зугрэс","country":"UA","lat":48.014,"lon":38.266,"pop":17871,"tz":"Europe/Kyiv"},{"id":2658656,"name":"Zuerich (Kreis 11) / Seebach","local":"Zürich (Kreis 11) / Seebach","country":"CH","lat":47.422,"lon":8.548,"pop":17851,"tz":"Europe/Zurich"},{"id":235826,"name":"Zemio","local":"Zemio","country":"CF","lat":5.031,"lon":25.136,"pop":17829,"tz":"Africa/Bangui"},{"id":464790,"name":"Zapolyarnyy","local":"Заполярный","country":"RU","lat":69.426,"lon":30.811,"pop":17789,"tz":"Europe/Moscow"},{"id":462522,"name":"Zimovniki","local":"Зимовники","country":"RU","lat":47.146,"lon":42.47,"pop":17678,"tz":"Europe/Moscow"},{"id":1517060,"name":"Zaysan","local":"Зайсан","country":"KZ","lat":47.467,"lon":84.871,"pop":17600,"tz":"Asia/Almaty"},{"id":2474583,"name":"Zeralda","local":"Zeralda","country":"DZ","lat":36.712,"lon":2.842,"pop":17563,"tz":"Africa/Algiers"},{"id":753276,"name":"Zielonka","local":"Зеленка","country":"PL","lat":52.304,"lon":21.16,"pop":17518,"tz":"Europe/Warsaw"},{"id":2279513,"name":"Zaibo","local":"Zaïbo","country":"CI","lat":6.989,"lon":-6.667,"pop":17406,"tz":"Africa/Abidjan"},{"id":619066,"name":"Zaslawye","local":"Заславль","country":"BY","lat":54.011,"lon":27.27,"pop":17404,"tz":"Europe/Minsk"},{"id":2783197,"name":"Zolder","local":"Zolder","country":"BE","lat":51.025,"lon":5.31,"pop":17289,"tz":"Europe/Brussels"},{"id":6295484,"name":"Zuerich (Kreis 11) / Affoltern","local":"Zürich (Kreis 11) / Affoltern","country":"CH","lat":47.418,"lon":8.512,"pop":17241,"tz":"Europe/Zurich"},{"id":2803870,"name":"Zossen","local":"Цоссен","country":"DE","lat":52.216,"lon":13.449,"pop":17138,"tz":"Europe/Berlin"},{"id":2660306,"name":"Zuerich (Kreis 10) / Hoengg","local":"Zürich (Kreis 10) / Höngg","country":"CH","lat":47.403,"lon":8.497,"pop":17117,"tz":"Europe/Zurich"},{"id":13580320,"name":"Zvirynets","local":"Звіринець","country":"UA","lat":50.416,"lon":30.549,"pop":17000,"tz":"Europe/Kyiv"},{"id":783770,"name":"Zvecan","local":"Звечан","country":"XK","lat":42.907,"lon":20.84,"pop":17000,"tz":"Europe/Belgrade"},{"id":3056523,"name":"Ziar nad Hronom","local":"Žiar nad Hronom","country":"SK","lat":48.592,"lon":18.85,"pop":16955,"tz":"Europe/Bratislava"},{"id":7648817,"name":"Zuunmod","local":"Зуунмод","country":"MN","lat":47.707,"lon":106.953,"pop":16953,"tz":"Asia/Ulaanbaatar"},{"id":3818398,"name":"Zarumilla","local":"Zarumilla","country":"PE","lat":-3.503,"lon":-80.273,"pop":16907,"tz":"America/Lima"},{"id":2390740,"name":"Ze","local":"Zé","country":"BJ","lat":6.783,"lon":2.3,"pop":16903,"tz":"Africa/Porto-Novo"},{"id":2744042,"name":"Zandvoort","local":"Зандвоорт","country":"NL","lat":52.371,"lon":4.533,"pop":16868,"tz":"Europe/Amsterdam"},{"id":1784089,"name":"Zhouxi","local":"Zhouxi","country":"CN","lat":26.483,"lon":107.917,"pop":16859,"tz":"Asia/Shanghai"},{"id":2472838,"name":"Zeramedine","local":"Zeramedine","country":"TN","lat":35.575,"lon":10.735,"pop":16806,"tz":"Africa/Tunis"},{"id":13308748,"name":"Zhuzilin","local":"Zhuzilin","country":"CN","lat":22.538,"lon":114.015,"pop":16800,"tz":"Asia/Shanghai"},{"id":3514051,"name":"Zaragoza","local":"Zaragoza","country":"MX","lat":19.771,"lon":-97.555,"pop":16752,"tz":"America/Mexico_City"},{"id":1906095,"name":"Zhaoxing","local":"Zhaoxing","country":"CN","lat":25.911,"lon":109.176,"pop":16737,"tz":"Asia/Shanghai"},{"id":8406675,"name":"Zhongling","local":"Zhongling","country":"CN","lat":28.297,"lon":108.958,"pop":16530,"tz":"Asia/Shanghai"},{"id":686803,"name":"Zvenihorodka","local":"Звенигородка","country":"UA","lat":49.078,"lon":30.961,"pop":16490,"tz":"Europe/Kyiv"},{"id":6295512,"name":"Zuerich (Kreis 9) / Albisrieden","local":"Zürich (Kreis 9) / Albisrieden","country":"CH","lat":47.374,"lon":8.49,"pop":16480,"tz":"Europe/Zurich"},{"id":4346788,"name":"Zachary","local":"Закари","country":"US","lat":30.649,"lon":-91.156,"pop":16448,"tz":"America/Chicago"},{"id":2509377,"name":"Zafra","local":"Сафра","country":"ES","lat":38.425,"lon":-6.417,"pop":16424,"tz":"Europe/Madrid"},{"id":461920,"name":"Zvenigorod","local":"Звенигород","country":"RU","lat":55.734,"lon":36.859,"pop":16395,"tz":"Europe/Moscow"},{"id":8403620,"name":"Zhushan","local":"Zhushan","country":"CN","lat":30.733,"lon":108.274,"pop":16331,"tz":"Asia/Shanghai"},{"id":1679360,"name":"Zumarraga","local":"Zumarraga","country":"PH","lat":11.639,"lon":124.842,"pop":16279,"tz":"Asia/Manila"},{"id":11725,"name":"Zir Ab","local":"Zīr Āb","country":"IR","lat":36.18,"lon":52.973,"pop":16191,"tz":"Asia/Tehran"},{"id":7326411,"name":"Zhongba","local":"Zhongba","country":"CN","lat":34.035,"lon":105.033,"pop":16160,"tz":"Asia/Shanghai"},{"id":6295495,"name":"Zuerich (Kreis 2) / Wollishofen","local":"Zürich (Kreis 2) / Wollishofen","country":"CH","lat":47.34,"lon":8.531,"pop":16073,"tz":"Europe/Zurich"},{"id":463217,"name":"Zherdevka","local":"Жердевка","country":"RU","lat":51.854,"lon":41.455,"pop":16019,"tz":"Europe/Moscow"},{"id":3163853,"name":"Zola Predosa","local":"Zola Predosa","country":"IT","lat":44.49,"lon":11.218,"pop":15965,"tz":"Europe/Rome"},{"id":618815,"name":"Zytkavicy","local":"Житковичи","country":"BY","lat":52.217,"lon":27.856,"pop":15950,"tz":"Europe/Minsk"},{"id":3979665,"name":"Zinapecuaro de Figueroa","local":"Zinapécuaro de Figueroa","country":"MX","lat":19.86,"lon":-100.827,"pop":15875,"tz":"America/Mexico_City"},{"id":7849068,"name":"Zeaglo","local":"Zéaglo","country":"CI","lat":6.563,"lon":-7.817,"pop":15873,"tz":"Africa/Abidjan"},{"id":6295475,"name":"Zuerich (Kreis 10) / Wipkingen","local":"Zürich (Kreis 10) / Wipkingen","country":"CH","lat":47.395,"lon":8.525,"pop":15718,"tz":"Europe/Zurich"},{"id":2804748,"name":"Zerbst","local":"Цербст","country":"DE","lat":51.966,"lon":12.085,"pop":15680,"tz":"Europe/Berlin"},{"id":8224430,"name":"Zeulenroda-Triebes","local":"Цойленрода-Трибес","country":"DE","lat":50.65,"lon":11.984,"pop":15677,"tz":"Europe/Berlin"},{"id":2562266,"name":"Zabbar","local":"Забар","country":"MT","lat":35.877,"lon":14.536,"pop":15648,"tz":"Europe/Malta"},{"id":463828,"name":"Zelenogradsk","local":"Зеленоградск","country":"RU","lat":54.959,"lon":20.477,"pop":15644,"tz":"Europe/Kaliningrad"},{"id":3517795,"name":"Zinacatepec","local":"Zinacatepec","country":"MX","lat":18.335,"lon":-97.246,"pop":15592,"tz":"America/Mexico_City"},{"id":3080074,"name":"Zlotoryja","local":"Злоторыя","country":"PL","lat":51.126,"lon":15.92,"pop":15564,"tz":"Europe/Warsaw"},{"id":8416213,"name":"Zengfu","local":"Zengfu","country":"CN","lat":29.511,"lon":106.986,"pop":15527,"tz":"Asia/Shanghai"},{"id":6295542,"name":"Zuerich (Kreis 8)","local":"Zürich (Kreis 8)","country":"CH","lat":47.355,"lon":8.561,"pop":15519,"tz":"Europe/Zurich"},{"id":8400139,"name":"Zhen'an","local":"Zhen’an","country":"CN","lat":31.152,"lon":108.317,"pop":15452,"tz":"Asia/Shanghai"},{"id":2279214,"name":"Zoukougbeu","local":"Zoukougbeu","country":"CI","lat":6.762,"lon":-6.864,"pop":15375,"tz":"Africa/Abidjan"},{"id":3649959,"name":"Zamora","local":"Zamora","country":"EC","lat":-4.064,"lon":-78.951,"pop":15276,"tz":"America/Guayaquil"},{"id":1283878,"name":"Zigon","local":"Zigon","country":"MM","lat":18.336,"lon":95.621,"pop":15233,"tz":"Asia/Yangon"},{"id":662187,"name":"Zimnicea","local":"Зимнича","country":"RO","lat":43.656,"lon":25.365,"pop":15228,"tz":"Europe/Bucharest"},{"id":3081046,"name":"Zabkowice Slaskie","local":"Зомбковице-Слёнске","country":"PL","lat":50.59,"lon":16.812,"pop":15004,"tz":"Europe/Warsaw"}]