[{"id":1784658,"name":"Zhengzhou","names":{"en":"Zhengzhou","de":"Zhengzhou","es":"Zhengzhou","fr":"Zhengzhou","ja":"鄭州市","nl":"Zhengzhou","pl":"Czengczou","pt":"Zhengzhou","zh":"郑州","id":"Zhengzhou","vi":"Trịnh Châu","ru":"Чжэнчжоу","tr":"Çengçou","fa":"ژنگژو","th":"เจิ้งโจว","ko":"정저우 시","az":"Çjençjou","uk":"Чженчжоу","ur":"ژینگژو","hi":"झेंगझोऊ","cs":"Čeng-čou","ar":"تشنغتشو","el":"Τσεντσόου","mr":"चंचौ","ta":"செங்சவு"},"country":"CN","lat":34.75778,"lon":113.64861,"pop":4253913,"search_terms":["çjençjou","ژنگژو","ژینگژو","تشنغتشو","чжэнчжоу","เจิ้งโจว","정저우 시","çengçou","čeng-čou","郑州","鄭州市","czengczou","झेंगझोऊ","чженчжоу","trịnh châu","zhengzhou","செங்சவு","τσεντσόου","चंचौ"]},{"id":6986104,"name":"Zhongshan","names":{"en":"Zhongshan","zh":"中山","cs":"Čung-šan","ko":"중산 시","ja":"中山","vi":"Trung Sơn","ru":"Чжуншань","de":"Zhongshan"},"country":"CN","lat":22.52306,"lon":113.37912,"pop":3841873,"search_terms":["中山","trung sơn","чжуншань","xiangshan","중산 시","zhongshan","中山市","čung-šan"]},{"id":1785286,"name":"Zibo","names":{"en":"Zibo","de":"Zibo","ja":"シ博市","nl":"Zibo","pl":"Zibo","pt":"Zibo","zh":"淄博","fr":"Zibo","ru":"Цзыбо","vi":"Truy Bác","cs":"C-po","ur":"زیبو","ar":"زيبو","ko":"쯔보 시","fa":"زایبو"},"country":"CN","lat":36.79056,"lon":118.06333,"pop":3129228,"search_terms":["زیبو","c-po","zibo","淄博","цзыбо","زایبو","쯔보 시","truy bác","淄博市","シ博市","زيبو"]},{"id":1790437,"name":"Zhuhai","names":{"en":"Zhuhai","de":"Zhuhai","fr":"Zhuhai","it":"Zhuhai","ja":"珠海","vi":"Châu Hải","zh":"珠海市","ru":"Чжухай","ko":"주하이 시","cs":"Ču-chaj","ar":"زوهاي","fa":"جوهای","ur":"ژوہوئی","uk":"Чжухай"},"country":"CN","lat":22.27694,"lon":113.56778,"pop":2207090,"search_terms":["ژوہوئی","zhuhai","чжухай","زوهاي","ču-chaj","châu hải","جوهای","珠海市","珠海","chu hải","주하이 시"]},{"id":1783621,"name":"Zunyi","names":{"en":"Zunyi","de":"Zunyi","zh":"遵义市","ja":"遵義市","vi":"Tuân Nghĩa","cs":"Cun-i","ko":"쭌이 시","ru":"Цзуньи","fa":"زونیای","ur":"زونئی","es":"Zunyi","fr":"Zunyi","uk":"Цзуньї"},"country":"CN","lat":27.68667,"lon":106.90722,"pop":2037775,"search_terms":["遵义市","cun-i","цзуньї","tuân nghĩa","쭌이 시","遵義市","زونیای","زونئی","zunyi","цзуньи"]},{"id":1784853,"name":"Zhaoqing","names":{"en":"Zhaoqing","fr":"Zhaoqing","de":"Zhaoqing","nl":"Zhaoqing","ru":"Чжаоцин","ko":"자오칭 시","ja":"肇慶市","cs":"Čao-čching","vi":"Triệu Khánh","zh":"肇庆市","fa":"ژاوکینگ","ur":"ژاوچنگ"},"country":"CN","lat":23.04893,"lon":112.46091,"pop":1553109,"search_terms":["ژاوکینگ","čao-čching","자오칭 시","triệu khánh","zhaoqing","чжаоцин","肇庆市","肇慶市","ژاوچنگ"]},{"id":3979770,"name":"Zapopan","names":{"en":"Zapopan","es":"Zapopan","de":"Zapopan","nl":"Zapopan","sv":"Zapopan","pl":"Zapopan","fr":"Zapopan","pt":"Zapopan","fa":"زاپوپان، خالیسکو","ja":"サポパン","ar":"سابوبان، خاليسكو","ka":"საპოპანი","ru":"Сапопан","zh":"萨波潘","el":"Σαπόπαν"},"country":"MX","lat":20.72111,"lon":-103.38742,"pop":1476491,"search_terms":["საპოპანი","сапопан","سابوبان، خاليسكو","サポパン","σαπόπαν","zapopan","زاپوپان، خالیسکو","萨波潘"]},{"id":1787331,"name":"Zhangjiagang","names":{"en":"Zhangjiagang","zh":"张家港市"},"country":"CN","lat":31.865,"lon":120.53889,"pop":1432044,"search_terms":["张家港","张家港市","zhangjiagang"]},{"id":1784990,"name":"Zhanjiang","names":{"en":"Zhanjiang","de":"Zhanjiang","fr":"Zhanjiang","ja":"湛江","nl":"Zhanjiang","pl":"Zhanjiang","pt":"Zhanjiang","zh":"湛江市","vi":"Trạm Giang","ru":"Чжаньцзян"},"country":"CN","lat":21.23391,"lon":110.38749,"pop":1400709,"search_terms":["zhanjiang","trạm giang","湛江","чжаньцзян","湛江市"]},{"id":1783745,"name":"Zigong","names":{"en":"Zigong","de":"Zigong","nl":"Zigong","pt":"Zigong","zh":"自贡市","ja":"自貢市","ko":"쯔궁 시","vi":"Tự Cống","cs":"C-kung","ar":"زيجونج","ru":"Цзыгун","fa":"زیگانگ","ur":"زیگونگ"},"country":"CN","lat":29.34162,"lon":104.77689,"pop":1262064,"search_terms":["自贡市","زيجونج","tự cống","цзыгун","زیگانگ","쯔궁 시","زیگونگ","zigong","c-kung","自貢市"]},{"id":1783763,"name":"Zhuzhou","names":{"en":"Zhuzhou","ru":"Чжучжоу","zh":"株洲","cs":"Ču-čou","ja":"株洲市","ko":"주저우 시","vi":"Chu Châu","az":"Çyu Cou","fa":"ژانژو","ur":"ژوژوو"},"country":"CN","lat":27.83333,"lon":113.15,"pop":1129687,"search_terms":["ژوژوو","ču-čou","chu châu","чжучжоу","株洲市","ژانژو","주저우 시","çyu cou","株洲","zhuzhou"]},{"id":1679432,"name":"Zamboanga","names":{"en":"Zamboanga","ru":"Замбоанга","ja":"サンボアンガ","ko":"삼보앙가","uk":"Замбоанга","tl":"Lungsod ng Zamboanga","zh":"三宝颜"},"country":"PH","lat":6.91028,"lon":122.07389,"pop":1018849,"search_terms":["lungsod ng zamboanga","삼보앙가","zamboanga","замбоанга","三宝颜","サンボアンガ","zamboanga city"]},{"id":7602670,"name":"Zhu Cheng City","names":{"en":"Zhu Cheng City"},"country":"CN","lat":35.99502,"lon":119.40259,"pop":1000000,"search_terms":["zhu cheng city"]},{"id":2317765,"name":"Zaria","names":{"en":"Zaria","ru":"Заря","ar":"زاريا","ha":"Zariya","ja":"ザリア","ko":"자리아","zh":"扎里亚"},"country":"NG","lat":11.11128,"lon":7.7227,"pop":980000,"search_terms":["زاريا","자리아","заря","ザリア","扎里亚","zaria","zariya","зариа"]},{"id":1784642,"name":"Zhenjiang","names":{"en":"Zhenjiang","de":"Zhenjiang","fr":"Zhenjiang","ja":"鎮江","pt":"Zhenjiang","zh":"镇江"},"country":"CN","lat":32.21086,"lon":119.45508,"pop":950516,"search_terms":["chinkiang","鎮江","zhenjiang","镇江"]},{"id":1783683,"name":"Ziyang","names":{"en":"Ziyang","ru":"Цзыян","zh":"雁江"},"country":"CN","lat":30.12108,"lon":104.64811,"pop":905729,"search_terms":["雁江","ziyang","цзыян"]},{"id":1785453,"name":"Zaozhuang","names":{"en":"Zaozhuang","de":"Zaozhuang","zh":"枣庄市","ru":"Цзаочжуан","cs":"Cao-čuang","ja":"棗荘市","ko":"짜오좡 시","ur":"زاوژوانگ","vi":"Tảo Trang"},"country":"CN","lat":34.86472,"lon":117.55417,"pop":899753,"search_terms":["짜오좡 시","cao-čuang","枣庄市","زاوژوانگ","zaozhuang","tảo trang","цзаочжуан","棗荘市"]},{"id":1886762,"name":"Zhoushan","names":{"en":"Zhoushan","ru":"Чжоушань"},"country":"CN","lat":29.98869,"lon":122.20488,"pop":882932,"search_terms":["zhoushan","чжоушань"]},{"id":1785412,"name":"Zhabei","names":{"en":"Zhabei"},"country":"CN","lat":31.25861,"lon":121.45972,"pop":840000,"search_terms":["zhabei"]},{"id":250090,"name":"Zarqa","names":{"en":"Zarqa","de":"Zarqa","fr":"Zarka","ar":"زرقاء","id":"Zarqa","sv":"Zarqa","pl":"Zarka","ru":"Эз-Зарка","zh":"扎尔卡","ja":"ザルカ","ko":"자르카"},"country":"JO","lat":32.07275,"lon":36.08796,"pop":792665,"search_terms":["الزرقاء","эз-зарка","ザルカ","zarka","zarqa","자르카","زرقاء","扎尔卡"]},{"id":1784841,"name":"Zhaotong","names":{"en":"Zhaotong","ru":"Чжаотун","cs":"Čao-tchung","ja":"昭通市","ko":"자오퉁 시","th":"เจาทง","vi":"Chiêu Thông","zh":"昭通市","ur":"ژاوتونگ"},"country":"CN","lat":27.31667,"lon":103.71667,"pop":787845,"search_terms":["ژاوتونگ","เจาทง","čao-tchung","chiêu thông","昭通市","zhaotong","чжаотун","자오퉁 시"]},{"id":1783873,"name":"Zhumadian","names":{"en":"Zhumadian","fr":"Zhumadian","ru":"Чжумадянь"},"country":"CN","lat":32.97944,"lon":114.02944,"pop":721670,"search_terms":["zhumadian","чжумадянь"]},{"id":687700,"name":"Zaporizhzhya","names":{"en":"Zaporizhzhya","uk":"Запоріжжя","ru":"Запорожье","pt":"Zaporizhzhya","de":"Saporischschja","ar":"زاباروجيا","az":"Zaporijya","cs":"Záporoží","es":"Zaporiyia","fr":"Zaporijjia","pl":"Zaporoże","tr":"Zaporijjia","zh":"扎波里日扎","it":"Zaporižžja"},"country":"UA","lat":47.85167,"lon":35.11714,"pop":710052,"search_terms":["zaporoye","запорожье","záporoží","zaporižžja","alessandrovia","saporischschja","zaporijjia","扎波里日扎","zaporizhzhia","zaporiggia","zaporiyia","زاباروجيا","запоріжжя","zaporozhye","zaporijya","zaporoże","zaporizhzhya"]},{"id":148730,"name":"Zanzibar","names":{"en":"Zanzibar","de":"Sansibar-Stadt","nl":"Zanzibar","pl":"Zanzibar","ru":"Занзибар","es":"Zanzíbar","ar":"مدينة زنجبار","el":"Πόλη της Ζανζιβάρης","fa":"زنگبار","ja":"ザンジバルシティ","ko":"잔지바르시티","uk":"Занзібар","ur":"زنجبار شہر","zh":"桑给巴尔市","ka":"ზანზიბარი","uz":"Zanjibar"},"country":"TZ","lat":-6.16394,"lon":39.19793,"pop":709809,"search_terms":["زنجبار شہر","잔지바르시티","sansibar-stadt","занзібар","桑给巴尔市","zanzibar","zanzíbar","занзибар","زنگبار","مدينة زنجبار","ザンジバルシティ","zanjibar","ზანზიბარი","πόλη της ζανζιβάρης"]},{"id":2033196,"name":"Zhangjiakou","names":{"en":"Zhangjiakou","fr":"Zhangjiakou","pl":"Zhangjiakou","de":"Zhangjiakou","ja":"張家口","nl":"Zhangjiakou","pt":"Zhangjiakou","ru":"Чжанцзякоу","vi":"Trương Gia Khẩu","ko":"장자커우 시","cs":"Čang-ťia-kchou","zh":"张家口市","fa":"جانگجیاکو","ur":"ژانگجیاکوو"},"country":"CN","lat":40.78341,"lon":114.87139,"pop":692602,"search_terms":["trương gia khẩu","장자커우 시","张家口市","zhangjiakou","ژانگجیاکوو","чжанцзякоу","張家口市","張家口","čang-ťia-kchou","张家口","جانگجیاکو"]},{"id":3104324,"name":"Zaragoza","names":{"en":"Zaragoza","de":"Saragossa","es":"Zaragoza","ar":"سرقسطة","cs":"Zaragoza","fr":"Saragosse","id":"Zaragoza","it":"Saragozza","ja":"サラゴサ","nl":"Zaragoza","pl":"Saragossa","pt":"Saragoça","sv":"Zaragoza","ru":"Сарагоса","tr":"Zaragoza","kk":"Сарагоса","fa":"ساراگوسا","el":"Σαραγόσα","mr":"सारागोसा","uk":"Сарагоса","th":"ซาราโกซา","ko":"사라고사","ka":"სარაგოსა","az":"Saraqosa","hy":"Սարագոսա","zh":"萨拉戈萨"},"country":"ES","lat":41.65606,"lon":-0.87734,"pop":686986,"search_terms":["zaragosa","ซาราโกซา","saragoça","սարագոսա","सारागोसा","saragozza","сарагоса","σαραγόσα","saragossa","サラゴサ","萨拉戈萨","სარაგოსა","ساراگوسا","سرقسطة","saragosse","zaragoza","사라고사","saraqosa"]},{"id":3186886,"name":"Zagreb","names":{"en":"Zagreb","de":"Zagreb","es":"Zagreb","ar":"زغرب","bn":"জাগরেব","cs":"Záhřeb","fr":"Zagreb","id":"Zagreb","it":"Zagabria","ja":"ザグレブ","ko":"자그레브","nl":"Zagreb","pl":"Zagrzeb","pt":"Zagreb","ro":"Zagreb","ru":"Загреб","sv":"Zagreb","th":"ซาเกร็บ","tr":"Zagreb","el":"Ζάγκρεμπ","ka":"ზაგრები","tg":"Загреб","am":"ዛግሬብ","sw":"Zagreb","ta":"சாகிரேப்","mr":"झाग्रेब","tl":"Lungsod ng Zagreb","hy":"Զագրեբ","fa":"زاگرب","uk":"Загреб","ur":"زغرب","az":"Zaqreb","kk":"Загреб","zh":"萨格勒布","ky":"Загреб","tt":"Загреб"},"country":"HR","lat":45.81444,"lon":15.97798,"pop":663592,"search_terms":["lungsod ng zagreb","ザグレブ","զագրեբ","ซาเกร็บ","萨格勒布","ზაგრები","zagrep","zaqreb","zagrzeb","zagreb","záhřeb","झाग्रेब","জাগরেব","زغرب","загреб","자그레브","சாகிரேப்","زاگرب","zagabria","ዛግሬብ","ζάγκρεμπ"]},{"id":1785018,"name":"Zhangzhou","names":{"en":"Zhangzhou","fr":"Zhangzhou","de":"Zhangzhou","pt":"Zhangzhou","zh":"漳州市","ru":"Чжанчжоу","cs":"Čang-čou","ko":"장저우 시","ja":"ショウ州市","vi":"Chương Châu","fa":"جانگجاو","ur":"ژانگژو"},"country":"CN","lat":24.51333,"lon":117.65556,"pop":589831,"search_terms":["ژانگژو","čang-čou","zhangzhou","chương châu","جانگجاو","чжанчжоу","ショウ州市","漳州市","장저우 시"]},{"id":1159301,"name":"Zahedan","names":{"en":"Zahedan","ru":"Захедан","fa":"زاهدان","es":"Zahedán","ar":"زاهدان","bn":"জহেদন","cs":"Záhedán","hi":"ज़ाहेदान","ja":"ザーヘダーン","ka":"ზაჰედანი","kk":"Захедан","ko":"자헤단","tg":"Зоҳидон","uk":"Захедан","zh":"扎黑丹","de":"Zahedan","fr":"Zahedan","hy":"Զահեդան","ta":"சாகிதன்","ur":"زاہدان"},"country":"IR","lat":29.4963,"lon":60.8629,"pop":551980,"search_terms":["জহেদন","சாகிதன்","захедан","ザーヘダーン","زاهدان","扎黑丹","զահեդան","زاہدان","záhedán","zahedán","zahedan","ზაჰედანი","зоҳидон","자헤단","ज़ाहेदान"]},{"id":1785036,"name":"Zhangye","names":{"en":"Zhangye","zh":"张掖","ja":"張掖市","ko":"장예 시","vi":"Trương Dịch","ru":"Чжанъе","cs":"Čang-jie","hy":"Չժանիե","ur":"ژانگیے"},"country":"CN","lat":38.93417,"lon":100.45167,"pop":507433,"search_terms":["čang-jie","ژانگیے","张掖市","zhangye","장예 시","չժանիե","чжанъе","张掖","trương dịch","張掖市"]},{"id":1784130,"name":"Zhoukou","names":{"en":"Zhoukou","ru":"Чжоуко","cs":"Čou-kchou","ja":"周口市","ko":"저우커우 시","vi":"Chu Khẩu","zh":"周口市","ar":"زهوكو","ur":"ژووکوو"},"country":"CN","lat":33.63333,"lon":114.63333,"pop":505171,"search_terms":["저우커우 시","zhoukou","čou-kchou","chu khẩu","زهوكو","ژووکوو","чжоуко","чжоукоу","周口","周口市"]},{"id":1783988,"name":"Zhucheng","names":{"en":"Zhucheng","zh":"密州"},"country":"CN","lat":35.99472,"lon":119.3975,"pop":499285,"search_terms":["zhucheng","密州"]},{"id":1813171,"name":"Zhangjiajie","names":{"en":"Zhangjiajie","zh":"张家界","cs":"Čang-ťia-ťie","ja":"張家界市","ko":"장자제 시","vi":"Trương Gia Giới","ru":"Чжанцзяцзе","ar":"زانغجياجي","ur":"ژانگجیانیے"},"country":"CN","lat":29.12944,"lon":110.47833,"pop":441804,"search_terms":["장자제 시","张家界市","张家界","زانغجياجي","ژانگجیانیے","trương gia giới","張家界市","永定","čang-ťia-ťie","永定区","чжанцзяцзе","zhangjiajie"]},{"id":359493,"name":"Zagazig","names":{"en":"Zagazig","pl":"Zagazig","fr":"Zagazig","ar":"الزقازيق","pt":"Zagazig","zh":"宰加济格","ru":"Эз-Заказик","ko":"자가지그"},"country":"EG","lat":30.58768,"lon":31.502,"pop":430445,"search_terms":["эз-заказик","الزقازيق","자가지그","宰加济格","zagazig"]},{"id":2657896,"name":"Zuerich","names":{"en":"Zurich","de":"Zürich","es":"Zúrich","ar":"زيورخ","cs":"Curych","fr":"Zurich","hi":"ज़्यूरिख़","id":"Zürich","it":"Zurigo","ja":"チューリッヒ","ko":"취리히","nl":"Zürich","pl":"Zurych","pt":"Zurique","ro":"Zürich","ru":"Цюрих","sv":"Zürich","tl":"Zürich","tr":"Zürih","el":"Ζυρίχη","vi":"Zürich","am":"ዙሪክ","az":"Sürix","bn":"জুরিখ","fa":"زوریخ","hy":"Ցյուրիխ","ka":"ციურიხი","kk":"Цюрих","ky":"Цюрих","mr":"झ्युरिक","ps":"څوریخ","ta":"சூரிக்கு","th":"ซูริก","tt":"Tsürix","uk":"Цюрих","ur":"زیورخ","uz":"Syurix","zh":"苏黎世"},"country":"CH","lat":47.36667,"lon":8.55,"pop":415367,"search_terms":["zuerich","curych","ซูริก","ցյուրիխ","ዙሪክ","زوریخ","زيورخ","tsürix","苏黎世","zurich","zurigo","ციურიხი","zurique","சூரிக்கு","チューリッヒ","цюрих","취리히","څوریخ","زیورخ","zürih","झ्युरिक","zúrich","zürich","ज़्यूरिख़","জুরিখ","syurix","lungsod ng zürich","ζυρίχη","sürix","zurych"]},{"id":111453,"name":"Zanjan","names":{"en":"Zanjan","fa":"زنجان","ru":"Зенджан","az":"Zəncan","de":"Zandschan"},"country":"IR","lat":36.67642,"lon":48.49628,"pop":357471,"search_terms":["zəncan","زنجان","зенджан","zandschan","zanjan"]},{"id":2437798,"name":"Zinder","names":{"en":"Zinder","ru":"Зиндер","ar":"زيندر","ja":"ザンデール","ko":"잔데르","th":"ซินเดอร์","zh":"津德尔","uk":"Зіндер","ur":"زندر"},"country":"NE","lat":13.80716,"lon":8.9881,"pop":318874,"search_terms":["津德尔","ซินเดอร์","زندر","зіндер","zinder","잔데르","зиндер","زيندر","ザンデール"]},{"id":737071,"name":"Zeytinburnu","names":{"en":"Zeytinburnu"},"country":"TR","lat":40.99441,"lon":28.90417,"pop":288743,"search_terms":["zeytinburnu"]},{"id":3513966,"name":"Zumpango","names":{"en":"Zumpango","ru":"Зумпанго-де-Окампо"},"country":"MX","lat":19.7967,"lon":-99.09946,"pop":280455,"search_terms":["zumpango de ocampo","зумпанго-де-окампо","zumpango"]},{"id":1783633,"name":"Zoucheng","names":{"en":"Zoucheng","ja":"鄒城市","ko":"쩌우청 시","uk":"Цзоучен","vi":"Trâu Thành","ru":"Цзоучэн","zh":"邹城市"},"country":"CN","lat":35.40056,"lon":116.96556,"pop":277400,"search_terms":["邹城市","цзоучен","trâu thành","鄒城市","쩌우청 시","цзоучэн","zoucheng"]},{"id":686967,"name":"Zhytomyr","names":{"en":"Zhytomyr","de":"Schytomyr","ja":"ジトームィル","ko":"지토미르","pl":"Żytomierz","pt":"Zhytomyr","ru":"Житомир","uk":"Житомир","it":"Žytomyr","nl":"Zjytomyr","fr":"Jytomyr","tt":"Житомир","ar":"جيتومير","fa":"ژیتومیر","ro":"Jîtomîr","cs":"Žytomyr","ka":"ჟიტომირი","hy":"Ժիտոմիր","sv":"Zjytomyr","zh":"日托米尔"},"country":"UA","lat":50.26235,"lon":28.67913,"pop":261624,"search_terms":["zhytomyr","schytomyr","żytomierz","지토미르","житомир","jytomyr","zjytomyr","ژیتومیر","jîtomîr","ჟიტომირი","日托米尔","žytomyr","جيتومير","ժիտոմիր","ジトームィル"]},{"id":463829,"name":"Zelenograd","names":{"en":"Zelenograd","ru":"Зеленоград","de":"Selenograd","fr":"Zelenograd"},"country":"RU","lat":55.9825,"lon":37.18139,"pop":215727,"search_terms":["zelenograd","зеленоград","selenograd"]},{"id":2243940,"name":"Ziguinchor","names":{"en":"Ziguinchor","de":"Ziguinchor","es":"Ziguinchor","fr":"Ziguinchor","pl":"Ziguinchor","ja":"ジガンショール","pt":"Ziguinchor","sv":"Ziguinchor","ru":"Зигиншор","ko":"지긴쇼르","zh":"济金绍尔","ur":"زیگینچور"},"country":"SN","lat":12.56801,"lon":-16.27326,"pop":214874,"search_terms":["济金绍尔","지긴쇼르","ziguinchor","زیگینچور","ジガンショール","зигиншор"]},{"id":1783700,"name":"Zitong","names":{"en":"Zitong","zh":"梓潼"},"country":"CN","lat":30.1782,"lon":105.82991,"pop":212819,"search_terms":["梓潼街道","梓潼","zitong","潼南县"]},{"id":1677112,"name":"Zhubei","names":{"en":"Zhubei","zh":"竹北","vi":"Trúc Bắc","cs":"Ču-pej","ja":"竹北市","ko":"주베이 시","ru":"Чжубэй"},"country":"TW","lat":24.83833,"lon":121.00778,"pop":212695,"search_terms":["竹北","주베이 시","竹北市","чжубэй","trúc bắc","ču-pej","zhubei"]},{"id":2208485,"name":"Zliten","names":{"en":"Zliten","ar":"زليتن","zh":"兹利坦","ru":"Злитен","ja":"ズリテン","ko":"즐리텐","nl":"Zlitan","cs":"Zlitán","fa":"زلیتن","ka":"ზლიტენი","uk":"Злітен","ur":"زلیتن","pl":"Zalitan"},"country":"LY","lat":32.46739,"lon":14.56874,"pop":203790,"search_terms":["즐리텐","злитен","زلیتن","兹利坦","ზლიტენი","zlitan","zlitán","زليتن","zliten","ズリテン","злітен","zalitan"]},{"id":1784712,"name":"Zhengding","names":{"en":"Zhengding","zh":"正定"},"country":"CN","lat":38.14501,"lon":114.56556,"pop":193524,"search_terms":["正定","zhengding"]},{"id":3080985,"name":"Zabrze","names":{"en":"Zabrze","pl":"Zabrze","de":"Zabrze","fr":"Zabrze","id":"Zabrze","nl":"Zabrze","ro":"Zabrze","ru":"Забже","ko":"자브제","th":"ซาบเช","ja":"ザブジェ","fa":"زابژه","uk":"Забже","zh":"扎布热","uz":"Zabje","ar":"زابجه","hy":"Զաբժե","tt":"Забже","ur":"زبرزے"},"country":"PL","lat":50.32492,"lon":18.78576,"pop":192177,"search_terms":["զաբժե","자브제","zabrze","زابجه","زبرزے","扎布热","ザブジェ","zabje","زابژه","забже","ซาบเช"]},{"id":462444,"name":"Zlatoust","names":{"en":"Zlatoust","de":"Slatoust","pl":"Złatoust","ru":"Златоуст","fr":"Zlatooust","nl":"Zlato-oest","ko":"즐라토우스트","uk":"Златоуст","tt":"Златоуст","ar":"زلاتؤوست","fa":"زلاتوست","ja":"ズラトウースト","zh":"兹拉托乌斯特"},"country":"RU","lat":55.17182,"lon":59.65471,"pop":191366,"search_terms":["златоуст","兹拉托乌斯特","ズラトウースト","zlatoust","slatoust","زلاتوست","złatoust","زلاتؤوست","zlato-oest","즐라토우스트","zlatooust"]},{"id":2216885,"name":"Zawiya","names":{"en":"Zawiya","ar":"الزاوية"},"country":"LY","lat":32.75222,"lon":12.72778,"pop":186123,"search_terms":["الزاوية","zawiya"]},{"id":3979802,"name":"Zamora de Hidalgo","names":{"en":"Zamora de Hidalgo","de":"Zamora","es":"Zamora de Hidalgo","ru":"Самора-де-Идальго"},"country":"MX","lat":19.98404,"lon":-102.28634,"pop":186102,"search_terms":["самора-де-идальго","zamora de hidalgo","zamora"]},{"id":1785462,"name":"Zaoyang","names":{"en":"Zaoyang"},"country":"CN","lat":32.12722,"lon":112.75417,"pop":184509,"search_terms":["zaoyang"]},{"id":1784617,"name":"Zhenping","names":{"en":"Zhenping"},"country":"CN","lat":33.03457,"lon":112.22763,"pop":181528,"search_terms":["zhenping"]},{"id":1784580,"name":"Zhenzhou","names":{"en":"Zhenzhou","zh":"真州"},"country":"CN","lat":32.28034,"lon":119.16999,"pop":176006,"search_terms":["真州镇","真州","仪征市","zhenzhou"]},{"id":3186573,"name":"Zenica","names":{"en":"Zenica","de":"Zenica","cs":"Zenica","nl":"Zenica","pl":"Zenica","ru":"Зеница","fr":"Zenica","sv":"Zenica","ja":"ゼニツァ","fa":"زنیتسا","uk":"Зениця","ko":"제니차","th":"เซนีตซา","ar":"زينيتسا","zh":"泽尼察","hy":"Զենիցա","ka":"ზენიცა","tt":"Зеница","ur":"زینیتسا"},"country":"BA","lat":44.20169,"lon":17.90397,"pop":164423,"search_terms":["զենիցա","зениця","зеница","เซนีตซา","زنیتسا","제니차","ზენიცა","ゼニツァ","zenica","泽尼察","زینیتسا","زينيتسا"]},{"id":1784554,"name":"Zhicheng","names":{"en":"Zhicheng"},"country":"CN","lat":30.29556,"lon":111.50472,"pop":159383,"search_terms":["zhicheng"]},{"id":783920,"name":"Zemun","names":{"en":"Zemun","ru":"Земун","el":"Σεμλίνο","ko":"제문","ja":"ゼムン","zh":"泽蒙"},"country":"RS","lat":44.8458,"lon":20.40116,"pop":155591,"search_terms":["제문","zemun","泽蒙","ゼムン","земун","σεμλίνο"]},{"id":2033168,"name":"Zhaodong","names":{"en":"Zhaodong","zh":"肇东"},"country":"CN","lat":46.05223,"lon":125.9552,"pop":154406,"search_terms":["肇东市","肇东镇","肇东","zhaodong"]},{"id":13607718,"name":"Zarichnyi","names":{"en":"Zarichnyi","uk":"Зарічний район"},"country":"UA","lat":50.90376,"lon":34.80933,"pop":150694,"search_terms":["зарічний район","зарічний","zarichnyi rayon","zarichnyi"]},{"id":462745,"name":"Zhulebino","names":{"en":"Zhulebino","ru":"Жулебино"},"country":"RU","lat":55.7,"lon":37.85,"pop":150000,"search_terms":["zhulebino","жулебино"]},{"id":463355,"name":"Zheleznodorozhnyy","names":{"en":"Zheleznodorozhnyy","ru":"Железнодорожный"},"country":"RU","lat":55.744,"lon":38.01684,"pop":141648,"search_terms":["zheleznodorozhnyy","железнодорожный"]},{"id":2744114,"name":"Zaanstad","names":{"en":"Zaanstad","de":"Zaanstad","id":"Zaanstad","it":"Zaanstad","nl":"Zaanstad","pl":"Zaanstad","ro":"Zaanstad","sv":"Zaanstad","fr":"Zaanstad"},"country":"NL","lat":52.45313,"lon":4.81356,"pop":140085,"search_terms":["zaanstad"]},{"id":1848004,"name":"Zama","names":{"en":"Zama","ru":"Зама","ja":"座間","ar":"زاما","fa":"زاما، کاناگاوا","ko":"자마 시","tg":"Зама","th":"ซะมะ","tl":"Sama","uk":"Дзама","zh":"座間市"},"country":"JP","lat":35.4879,"lon":139.39101,"pop":132325,"search_terms":["sama","座間","зама","زاما، کاناگاوا","ซะมะ","zama","زاما","座間市","자마 시","дзама"]},{"id":2033225,"name":"Zhalantun","names":{"en":"Zhalantun","ru":"Чжаланьтунь","zh":"兴华街道"},"country":"CN","lat":48.00945,"lon":122.73651,"pop":132224,"search_terms":["兴华街道","чжаланьтунь","zhalantun","兴华"]},{"id":3665542,"name":"Zipaquira","names":{"en":"Zipaquira","es":"Zipaquirá","de":"Zipaquirá","ru":"Сипакира","zh":"錫帕基拉","fa":"سیپاگیرا","ka":"სიპაკირა","ko":"시파키라"},"country":"CO","lat":5.02208,"lon":-74.00481,"pop":130432,"search_terms":["錫帕基拉","zipaquirá","სიპაკირა","시파키라","сипакира","سیپاگیرا","zipaquira"]},{"id":3042430,"name":"Zuglo","names":{"en":"Zuglo","fr":"14e arrondissement de Budapest","vi":"Quận XIV","zh":"布达佩斯第十四区","de":"Lerchenfeld"},"country":"HU","lat":47.51758,"lon":19.10549,"pop":130000,"search_terms":["quận xiv","lerchenfeld","布达佩斯第十四区","14e arrondissement de budapest","zuglo"]},{"id":2743477,"name":"Zwolle","names":{"en":"Zwolle","de":"Zwolle","fr":"Zwolle","id":"Zwolle","it":"Zwolle","nl":"Zwolle","pl":"Zwolle","ro":"Zwolle","ru":"Зволле","sv":"Zwolle","es":"Zwolle","tr":"Zwolle","uk":"Зволле","hy":"Զվոլե","th":"ซโวลเลอ","mr":"झ्वोला","ja":"ズヴォレ","ka":"ზვოლე","fa":"زووله","ko":"즈볼러","ar":"زفوله","zh":"兹沃勒"},"country":"NL","lat":52.5125,"lon":6.09444,"pop":129840,"search_terms":["ซโวลเลอ","زووله","زفوله","ზვოლე","즈볼러","զվոլե","झ्वोला","兹沃勒","ズヴォレ","zwolle","зволле"]},{"id":3979844,"name":"Zacatecas","names":{"en":"Zacatecas","de":"Zacatecas","es":"Zacatecas","fr":"Zacatecas","it":"Zacatecas","nl":"Zacatecas","pl":"Zacatecas","sv":"Zacatecas","ja":"サカテカス","pt":"Zacatecas","ru":"Сакатекас","fa":"زاکاتکاس ٬زاکاتکاس","ka":"საკატეკასი","uk":"Сакатекас","zh":"萨卡特卡斯","ko":"사카테카스","ur":"زاکاٹیکاس","hy":"Սակատեկաս"},"country":"MX","lat":22.76843,"lon":-102.58141,"pop":129011,"search_terms":["zacatecas","زاکاتکاس ٬زاکاتکاس","زاکاٹیکاس","サカテカス","сакатекас","საკატეკასი","սակատեկաս","zacatecas city","萨卡特卡斯","사카테카스"]},{"id":461835,"name":"Zyablikovo","names":{"en":"Zyablikovo","ru":"Зябликово"},"country":"RU","lat":55.61667,"lon":37.76667,"pop":129000,"search_terms":["zyablikovo","зябликово"]},{"id":1784178,"name":"Zhoucun","names":{"en":"Zhoucun"},"country":"CN","lat":36.81667,"lon":117.81667,"pop":122402,"search_terms":["zhoucun"]},{"id":1113217,"name":"Zabol","names":{"en":"Zabol","ru":"Заболь","fa":"زابل"},"country":"IR","lat":31.0306,"lon":61.4949,"pop":121989,"search_terms":["zabol","زابل","заболь"]},{"id":461740,"name":"Zyuzino","names":{"en":"Zyuzino","ru":"Зюзино"},"country":"RU","lat":55.65608,"lon":37.56846,"pop":121000,"search_terms":["зюзино","zyuzino"]},{"id":1783903,"name":"Zhujing","names":{"en":"Zhujing"},"country":"CN","lat":30.901,"lon":121.15966,"pop":120084,"search_terms":["zhujing"]},{"id":1784953,"name":"Zhaoyuan","names":{"en":"Zhaoyuan","zh":"罗峰"},"country":"CN","lat":37.36497,"lon":120.40997,"pop":120000,"search_terms":["招远市","罗峰","zhaoyuan"]},{"id":923295,"name":"Zomba","names":{"en":"Zomba","de":"Zomba","pl":"Zomba","ja":"ゾンバ","sv":"Zomba","ru":"Зомба","ka":"ზომბა","ko":"좀바","uk":"Зомба","zh":"松巴","fa":"زومبا، مالاوی"},"country":"MW","lat":-15.38596,"lon":35.3188,"pop":118440,"search_terms":["ゾンバ","ზომბა","زومبا، مالاوی","松巴","zomba","зомба","좀바"]},{"id":3080165,"name":"Zielona Gora","names":{"en":"Zielona Gora","pl":"Zielona Góra","de":"Grünberg","fr":"Zielona Góra","cs":"Zielona Góra","id":"Zielona Góra","ja":"ジェロナ・グラ","nl":"Zielona Góra","ro":"Zielona Góra","sv":"Zielona Góra","ko":"지엘로나구라","el":"Ζιελόνα Γκόρα","fa":"ژلونا گورا","uk":"Зелена Гура","ru":"Зелёна-Гура","zh":"綠山城","ar":"جلونا غورا","hy":"Զիելոնա Գուրա","th":"แชลอนากูรา","tt":"Зелёна-Гура","ur":"ژیلونا گورا"},"country":"PL","lat":51.93548,"lon":15.50643,"pop":118433,"search_terms":["зелена гура","zielona gora","綠山城","зелёна-гура","جلونا غورا","ζιελόνα γκόρα","զիելոնա գուրա","แชลอนากูรา","ژیلونا گورا","zielona góra","지엘로나구라","ジェロナ・グラ","ژلونا گورا","grünberg"]},{"id":2743856,"name":"Zoetermeer","names":{"en":"Zoetermeer","de":"Zoetermeer","id":"Zoetermeer","it":"Zoetermeer","nl":"Zoetermeer","sv":"Zoetermeer","pl":"Zoetermeer","fr":"Zoetermeer"},"country":"NL","lat":52.0575,"lon":4.49306,"pop":115845,"search_terms":["zoetermeer"]},{"id":2033147,"name":"Zhaozhou","names":{"en":"Zhaozhou","ru":"Чжаочжоу","zh":"肇州"},"country":"CN","lat":45.70595,"lon":125.26606,"pop":114009,"search_terms":["zhaozhou","чжаочжоу","肇州"]},{"id":346030,"name":"Zefta","names":{"en":"Zefta","ru":"Зифта","ar":"زفتى"},"country":"EG","lat":30.7142,"lon":31.24425,"pop":111700,"search_terms":["zefta","زفتى","зифта"]},{"id":1783940,"name":"Zhuji","names":{"en":"Zhuji","zh":"诸暨"},"country":"CN","lat":29.71877,"lon":120.24233,"pop":110721,"search_terms":["zhuji","诸暨"]},{"id":1786546,"name":"Zhongxiang","names":{"en":"Zhongxiang"},"country":"CN","lat":31.16611,"lon":112.58306,"pop":108883,"search_terms":["zhongxiang"]},{"id":1784393,"name":"Zhonghe","names":{"en":"Zhonghe","zh":"中和"},"country":"CN","lat":28.45049,"lon":108.98901,"pop":105003,"search_terms":["中和镇","中和","秀山土家族苗族自治县","zhonghe"]},{"id":1516589,"name":"Zhezqazghan","names":{"en":"Zhezqazghan","de":"Schesqasghan","kk":"Zhezqazghan","ru":"Жезказган","uk":"Жезказган"},"country":"KZ","lat":47.79411,"lon":67.70628,"pop":104357,"search_terms":["zhezqazghan","schesqasghan","жезказган","жезқазған"],"_key":"z","dumk_id":38},{"id":607610,"name":"Zhanaozen","names":{"en":"Zhanaozen","kk":"Жаңаөзен","ru":"Жанаозен","de":"Schangaösen"},"country":"KZ","lat":43.34116,"lon":52.86192,"pop":103598,"search_terms":["zhangaözen","жаңаөзен","schangaösen","zhanaozen","жанаозен"],"_key":"z","dumk_id":50},{"id":737022,"name":"Zonguldak","names":{"en":"Zonguldak","ru":"Зонгулдак","ar":"زونغولداق","az":"Zonquldak","el":"Ζονγκουλντάκ","fa":"زونگولداغ","ja":"ゾングルダク","kk":"Зонгулдак","ko":"종굴다크","uk":"Зонгулдак","zh":"宗古爾達克","ka":"ზონგულდაქი","ur":"زانگولداک"},"country":"TR","lat":41.45139,"lon":31.79305,"pop":101749,"search_terms":["ზონგულდაქი","종굴다크","زونگولداغ","зонгулдак","zonquldak","ζονγκουλντάκ","زانگولداک","زونغولداق","宗古爾達克","ゾングルダク","zonguldak"]},{"id":463835,"name":"Zelenodolsk","names":{"en":"Zelenodolsk","ru":"Зеленодольск","de":"Selenodolsk","it":"Zelenodol'sk","ar":"زيلينودولسك","fa":"زلنودولسک، روسیه","ja":"ゼレノドリスク","ko":"젤레노돌스크","tt":"Яшел Үзән","uk":"Зеленодольськ","pl":"Zielonodolsk","zh":"泽列诺多尔斯克"},"country":"RU","lat":55.84376,"lon":48.51784,"pop":99600,"search_terms":["zelenodol'sk","泽列诺多尔斯克","зеленодольск","zielonodolsk","зеленодольськ","selenodolsk","젤레노돌스크","زلنودولسک، روسیه","زيلينودولسك","яшел үзән","zelenodolsk","ゼレノドリスク"]},{"id":3427213,"name":"Zarate","names":{"en":"Zarate","es":"Zárate","de":"Zárate","pl":"Zárate","fr":"Zárate","pt":"Zárate","ru":"Зарате","ar":"زاراتي، بوينس آيرس","fa":"سراته","ka":"სარატე","zh":"萨拉特"},"country":"AR","lat":-34.09584,"lon":-59.02423,"pop":99061,"search_terms":["зарате","zárate","萨拉特","სარატე","سراته","زاراتي، بوينس آيرس","zarate"]},{"id":2803560,"name":"Zwickau","names":{"en":"Zwickau","de":"Zwickau","es":"Zwickau","cs":"Zwickau","fa":"تسویکاو","fr":"Zwickau","id":"Zwickau","it":"Zwickau","ja":"ツヴィッカウ","nl":"Zwickau","pl":"Zwickau","pt":"Zwickau","sv":"Zwickau","ru":"Цвиккау","tr":"Zwickau","uk":"Цвікау","ko":"츠비카우","zh":"茨维考","ar":"اتسوكو"},"country":"DE","lat":50.72724,"lon":12.48839,"pop":98796,"search_terms":["цвиккау","ツヴィッカウ","zwickau","اتسوكو","تسویکاو","цвікау","تسفيكاو","茨维考","츠비카우"]},{"id":463343,"name":"Zheleznogorsk","names":{"en":"Zheleznogorsk","ru":"Железногорск","de":"Schelesnogorsk"},"country":"RU","lat":52.34198,"lon":35.35917,"pop":97900,"search_terms":["железногорск","zheleznogorsk","schelesnogorsk"]},{"id":462755,"name":"Zhukovsky","names":{"en":"Zhukovsky","ru":"Жуковский","de":"Schukowski"},"country":"RU","lat":55.59528,"lon":38.12028,"pop":97200,"search_terms":["zhukovsky","жуковский","schukowski"]},{"id":1677053,"name":"Zhudong","names":{"en":"Zhudong","zh":"竹東"},"country":"TW","lat":24.73167,"lon":121.09083,"pop":96518,"search_terms":["竹東","zhudong"]},{"id":6989891,"name":"Zerakpur","names":{"en":"Zerakpur"},"country":"IN","lat":30.65622,"lon":76.82093,"pop":95553,"search_terms":["zerakpur"]},{"id":89570,"name":"Zaxo","names":{"en":"Zaxo","de":"Zaxo","fa":"زاخو","ku":"Zaxo","ru":"Заху","ar":"Zākhū"},"country":"IQ","lat":37.14871,"lon":42.68591,"pop":95052,"search_terms":["زاخۆ","zaxo","заху","zakho","zākhū","zaxu","زاخو"]},{"id":1784417,"name":"Zhongduo","names":{"en":"Zhongduo","zh":"钟多"},"country":"CN","lat":28.8466,"lon":108.76416,"pop":93928,"search_terms":["钟多","钟多镇","酉阳土家族苗族自治县","zhongduo"]},{"id":1538635,"name":"Zheleznogorsk","names":{"en":"Zheleznogorsk","ru":"Железногорск","de":"Schelesnogorsk"},"country":"RU","lat":56.25109,"lon":93.53142,"pop":93834,"search_terms":["железногорск","zheleznogorsk","schelesnogorsk"]},{"id":2033149,"name":"Zhaoyuan","names":{"en":"Zhaoyuan","zh":"肇源"},"country":"CN","lat":45.51971,"lon":125.07633,"pop":93505,"search_terms":["肇源","zhaoyuan"]},{"id":1784310,"name":"Zhongshu","names":{"en":"Zhongshu","ru":"Чжуншу","zh":"中枢"},"country":"CN","lat":24.51667,"lon":103.76667,"pop":91750,"search_terms":["zhongshu","чжуншу","中枢"]},{"id":325579,"name":"Ziway","names":{"en":"Ziway"},"country":"ET","lat":7.93333,"lon":38.71667,"pop":90500,"search_terms":["ziway"]},{"id":8403611,"name":"Zhoujiaba","names":{"en":"Zhoujiaba","zh":"周家坝"},"country":"CN","lat":30.84349,"lon":108.36642,"pop":88494,"search_terms":["周家坝街道","周家坝","zhoujiaba"]},{"id":1784929,"name":"Zhaogezhuang","names":{"en":"Zhaogezhuang","zh":"赵各庄"},"country":"CN","lat":39.76538,"lon":118.41191,"pop":86555,"search_terms":["赵各庄","zhaogezhuang"]},{"id":8403614,"name":"Zhonggulou","names":{"en":"Zhonggulou","zh":"钟鼓楼"},"country":"CN","lat":30.82491,"lon":108.38413,"pop":85873,"search_terms":["zhonggulou","钟鼓楼","钟鼓楼街道"]},{"id":3056508,"name":"Zilina","names":{"en":"Zilina","de":"Sillein","cs":"Žilina","fr":"Žilina","pl":"Żylina","ro":"Žilina","ru":"Жилина","sv":"Žilina","ar":"جيلينا","uk":"Жиліна","ko":"질리나","ja":"ジリナ","zh":"日利納","az":"Jilina","fa":"ژیلینا","ka":"ჟილინა","tt":"Жилина","ur":"ژیلینا"},"country":"SK","lat":49.22315,"lon":18.73941,"pop":81219,"search_terms":["ジリナ","żylina","жиліна","ჟილინა","sillein","jilina","zilina","жилина","질리나","ژیلینا","جيلينا","日利納","žilina"]},{"id":1784055,"name":"Zhuanghe","names":{"en":"Zhuanghe"},"country":"CN","lat":39.70083,"lon":122.99111,"pop":80384,"search_terms":["zhuanghe"]},{"id":783814,"name":"Zrenjanin","names":{"en":"Zrenjanin","pl":"Zrenjanin","de":"Zrenjanin","es":"Zrenjanin","it":"Zrenjanin","ro":"Becicherecul Mare","ru":"Зренянин","sv":"Zrenjanin","el":"Ζρένιανιν","ko":"즈레냐닌","ja":"ズレニャニン","fa":"زرنجانین","zh":"兹雷尼亚宁","tt":"Зренянин","ur":"زرینیانین"},"country":"RS","lat":45.38361,"lon":20.38194,"pop":79773,"search_terms":["زرنجانین","ζρένιανιν","ズレニャニン","zrenjanin","زرینیانین","зренянин","becicherecu mare","becicherecul mare","兹雷尼亚宁","즈레냐닌"]},{"id":2470173,"name":"Zarzis","names":{"en":"Zarzis","fr":"Zarzis","de":"Zarzis","ar":"جرجيس","fa":"جرجیس","ja":"ザルジス","ko":"자르지스","uk":"Зарзіс","ur":"جرجیس","pl":"Dżardżis","ru":"Зарзис","zh":"傑爾吉斯"},"country":"TN","lat":33.50398,"lon":11.11215,"pop":79316,"search_terms":["ザルジス","зарзис","자르지스","dżardżis","傑爾吉斯","зарзіс","جرجيس","zarzis","جرجیس"]},{"id":1797438,"name":"Zhuangyuan","names":{"en":"Zhuangyuan","zh":"庄园"},"country":"CN","lat":37.30553,"lon":120.82747,"pop":79106,"search_terms":["zhuangyuan","庄园","栖霞市"]},{"id":266045,"name":"Zahle","names":{"en":"Zahle","de":"Zahlé","fr":"Zahlé","nl":"Zahleh","tr":"Zahle","ar":"زحلة","it":"Zahle","el":"Ζάχλε","fa":"زحله، لبنان","ja":"ザーレ","ko":"자흘레","uk":"Захла","ur":"زحلہ","pl":"Zahla","ru":"Захла","sv":"Zahle","zh":"扎赫勒","hy":"Զահլե","az":"Zəhlə"},"country":"LB","lat":33.84675,"lon":35.90203,"pop":78145,"search_terms":["захла","자흘레","زحله، لبنان","ザーレ","zahla","զահլե","zəhlə","zahleh","zahlé","زحلة","扎赫勒","zahle","زحلہ","ζάχλε"]},{"id":618806,"name":"Zhlobin","names":{"en":"Zhlobin","ru":"Жлобин"},"country":"BY","lat":52.8926,"lon":30.024,"pop":76844,"search_terms":["жлобин","zhlobin"]},{"id":1784939,"name":"Zhaodun","names":{"en":"Zhaodun"},"country":"CN","lat":34.3027,"lon":117.85699,"pop":76691,"search_terms":["zhaodun"]},{"id":1785022,"name":"Zhangzhai","names":{"en":"Zhangzhai"},"country":"CN","lat":34.61667,"lon":116.95,"pop":74433,"search_terms":["zhangzhai"]},{"id":1549743,"name":"Zhangzhuang","names":{"en":"Zhangzhuang"},"country":"CN","lat":34.51944,"lon":117.00556,"pop":74114,"search_terms":["zhangzhuang"]},{"id":3625066,"name":"Zaraza","names":{"en":"Zaraza","ru":"Зараза","zh":"薩拉薩"},"country":"VE","lat":9.35029,"lon":-65.32452,"pop":74017,"search_terms":["зараза","薩拉薩","zaraza"]},{"id":3061370,"name":"Zlin","names":{"en":"Zlin","pl":"Zlín","de":"Zlín","fr":"Zlín","cs":"Zlín","el":"Ζλιν","id":"Zlín","ru":"Злин","sv":"Zlín"},"country":"CZ","lat":49.22645,"lon":17.67065,"pop":72973,"search_terms":["ζλιν","zlin","zlín","злин"]},{"id":1920772,"name":"Zhoucheng","names":{"en":"Zhoucheng"},"country":"CN","lat":35.91222,"lon":116.31167,"pop":72070,"search_terms":["zhoucheng"]},{"id":2744118,"name":"Zaandam","names":{"en":"Zaandam","ru":"Зандам","ja":"ザーンダム","zh":"赞丹","hy":"Զանդամ","ko":"잔담","ur":"زان دم"},"country":"NL","lat":52.43854,"lon":4.82643,"pop":71708,"search_terms":["зандам","잔담","زان دم","զանդամ","赞丹","ザーンダム","заандам","zaandam"]},{"id":1488253,"name":"Zelenogorsk","names":{"en":"Zelenogorsk","ru":"Зеленогорск","de":"Selenogorsk","ar":"زيلينوغورسك","fa":"زلنوگورسک، کراسنویارسک","ko":"젤레노고르스크","tt":"Зеленогорск","pl":"Zielenogorsk","zh":"泽列诺戈尔斯克"},"country":"RU","lat":56.10921,"lon":94.58698,"pop":71354,"search_terms":["젤레노고르스크","selenogorsk","zelenogorsk","زيلينوغورسك","泽列诺戈尔斯克","زلنوگورسک، کراسنویارسک","зеленогорск","zielenogorsk"]},{"id":1252699,"name":"Zahirabad","names":{"en":"Zahirabad"},"country":"IN","lat":17.68138,"lon":77.60743,"pop":71166,"search_terms":["zahirabad"]},{"id":8358544,"name":"Zografos","names":{"en":"Zografos","el":"Ζωγράφος"},"country":"GR","lat":37.97574,"lon":23.76911,"pop":71026,"search_terms":["zográfos","zografou","zografos","ζωγράφου","ζωγράφος"]},{"id":13157010,"name":"Ziauddin Pur","names":{"en":"Ziauddin Pur"},"country":"IN","lat":28.70873,"lon":77.27654,"pop":68993,"search_terms":["ziauddin pur"]},{"id":2033128,"name":"Zhenlai","names":{"en":"Zhenlai","zh":"镇赉"},"country":"CN","lat":45.84963,"lon":123.19791,"pop":67760,"search_terms":["zhenlai","镇赉"]},{"id":3186952,"name":"Zadar","names":{"en":"Zadar","pl":"Zadar","fr":"Zadar","cs":"Zadar","el":"Ζαντάρ","it":"Zara","ja":"ザダル","ko":"자다르","nl":"Zadar","pt":"Zadar","ro":"Zadar","ru":"Задар","sv":"Zadar","es":"Zadar","fa":"زادار","uk":"Задар","ar":"زادار","am":"ዛዳር","zh":"扎達爾","ka":"ზადარი","tt":"Задар","ur":"زدار","de":"Zadar"},"country":"HR","lat":44.11578,"lon":15.22514,"pop":67309,"search_terms":["자다르","扎達爾","زادار","ザダル","زدار","zadar","ზადარი","ζαντάρ","zara","задар","ዛዳር"]},{"id":753866,"name":"Zamosc","names":{"en":"Zamosc","pl":"Zamość","fr":"Zamość","de":"Zamość","id":"Zamość","it":"Zamość","nl":"Zamość","pt":"Zamość","ro":"Zamość","ru":"Замосць","sv":"Zamość","uk":"Замостя","th":"ซามอชช์","el":"Ζάμοστς","ko":"자모시치","ka":"ზამოსცი","ja":"ザモシチ","zh":"扎莫希奇","tt":"Замосць","hy":"Զամոշչ"},"country":"PL","lat":50.72314,"lon":23.25196,"pop":66034,"search_terms":["ზამოსცი","замосць","ザモシチ","zamość","ซามอชช์","자모시치","զամոշչ","扎莫希奇","замостя","ζάμοστς","zamosc"]},{"id":1784553,"name":"Zhicheng","names":{"en":"Zhicheng","zh":"长兴县"},"country":"CN","lat":31.00751,"lon":119.90851,"pop":63753,"search_terms":["长兴县","雉城镇","zhicheng"]},{"id":464625,"name":"Zarechnyy","names":{"en":"Zarechnyy","ru":"Заречный"},"country":"RU","lat":53.20356,"lon":45.19227,"pop":63579,"search_terms":["zarechnyy","заречный"]},{"id":291580,"name":"Zayed City","names":{"en":"Zayed City","ar":"مدينة زايد","de":"Madīnat Zāyid"},"country":"AE","lat":23.65416,"lon":53.70522,"pop":63482,"search_terms":["madīnat zāyid","zayed city","مدينة زايد"]},{"id":2279526,"name":"Zagne","names":{"en":"Zagne"},"country":"CI","lat":6.21016,"lon":-7.48284,"pop":63341,"search_terms":["zagne"]},{"id":3080004,"name":"Zory","names":{"en":"Zory","pl":"Żory","de":"Sohrau","id":"Żory","nl":"Żory","ro":"Żory","cs":"Žory","ru":"Жоры","ja":"ジョルィ","ko":"조리","ms":"Zory","th":"ชอรือ","uk":"Жори","zh":"若雷","tt":"Жоры"},"country":"PL","lat":50.04523,"lon":18.70062,"pop":63174,"search_terms":["조리","жори","ชอรือ","жоры","若雷","žory","ジョルィ","zory","żory","sohrau"]},{"id":1785212,"name":"Zhangjiachuan","names":{"en":"Zhangjiachuan","zh":"张家川"},"country":"CN","lat":34.98756,"lon":106.20902,"pop":62497,"search_terms":["张家川","zhangjiachuan","张家川回族自治县"]},{"id":831165,"name":"Zarechnyy","names":{"en":"Zarechnyy","ru":"Заречный"},"country":"RU","lat":53.13333,"lon":46.58333,"pop":62139,"search_terms":["zarechnyy","заречный"]},{"id":1784647,"name":"Zhaobaoshan","names":{"en":"Zhaobaoshan","zh":"招宝山"},"country":"CN","lat":29.9695,"lon":121.68753,"pop":61979,"search_terms":["镇海","zhaobaoshan","招宝山","招宝山街道"]},{"id":1785222,"name":"Zhangji","names":{"en":"Zhangji"},"country":"CN","lat":34.1375,"lon":117.37556,"pop":61929,"search_terms":["zhangji"]},{"id":3042638,"name":"Zalaegerszeg","names":{"en":"Zalaegerszeg","de":"Zalaegerszeg","pl":"Zalaegerszeg","ro":"Zalaegerszeg","sv":"Zalaegerszeg","it":"Zalaegerszeg","pt":"Zalaegerszeg","ru":"Залаэгерсег","cs":"Zalaegerszeg","nl":"Zalaegerszeg","fa":"زالائگرسگ","ja":"ザラエゲルセグ","ka":"ზალაეგერსეგი","ko":"절러에게르세그","uk":"Залаеґерсеґ","zh":"佐洛埃格塞格"},"country":"HU","lat":46.83695,"lon":16.84401,"pop":61898,"search_terms":["절러에게르세그","佐洛埃格塞格","zalaegerszeg","залаеґерсеґ","ザラエゲルセグ","ზალაეგერსეგი","egersee","زالائگرسگ","залаэгерсег"]},{"id":3104342,"name":"Zamora","names":{"en":"Zamora","es":"Zamora","de":"Zamora","pl":"Zamora","ar":"زامورا","bn":"থামোরা","it":"Zamora","nl":"Zamora","pt":"Zamora","ja":"サモラ","fr":"Zamora","ru":"Самора"},"country":"ES","lat":41.50633,"lon":-5.74456,"pop":61827,"search_terms":["サモラ","самора","থামোরা","zamora","زامورا"]},{"id":2743977,"name":"Zeist","names":{"en":"Zeist","de":"Zeist","id":"Zeist","it":"Zeist","nl":"Zeist","ro":"Zeist","sv":"Zeist","fr":"Zeist","fa":"زایست","hy":"Զեյստ","ja":"ザイスト","uk":"Зейст","ru":"Зейст","zh":"宰斯特","ar":"زايست","ko":"제이스트","pt":"Zeist","ms":"Zeist","el":"Ζέιστ","es":"Zeist","vi":"Zeist","sw":"Zeist","cs":"Zeist","pl":"Zeist","tr":"Zeist"},"country":"NL","lat":52.09,"lon":5.23333,"pop":60949,"search_terms":["زایست","ζέιστ","제이스트","զեյստ","宰斯特","зейст","zeist","ザイスト","زايست"]},{"id":3587587,"name":"Zacapa","names":{"en":"Zacapa","ru":"Сакапа"},"country":"GT","lat":14.96867,"lon":-89.52732,"pop":60424,"search_terms":["zacapa","сакапа"]},{"id":1801455,"name":"Zhijiang","names":{"en":"Zhijiang"},"country":"CN","lat":30.42139,"lon":111.75333,"pop":60169,"search_terms":["zhijiang"]},{"id":1847968,"name":"Zushi","names":{"en":"Zushi","ja":"逗子"},"country":"JP","lat":35.29483,"lon":139.57812,"pop":60055,"search_terms":["逗子","ずし","ズシ","zushi"]},{"id":1783920,"name":"Zhujiajiao","names":{"en":"Zhujiajiao","ru":"Чжуцзяцзяо"},"country":"CN","lat":31.10757,"lon":121.05696,"pop":60000,"search_terms":["чжуцзяцзяо","zhujiajiao"]},{"id":878549,"name":"Zvishavane","names":{"en":"Zvishavane"},"country":"ZW","lat":-20.32674,"lon":30.06648,"pop":59717,"search_terms":["zvishavane"]},{"id":111421,"name":"Zarand","names":{"en":"Zarand","fa":"زرند"},"country":"IR","lat":30.81271,"lon":56.56399,"pop":58983,"search_terms":["زرند","zarand"]},{"id":3061412,"name":"Zizkov","names":{"en":"Zizkov","fa":"ژیژکوف","uk":"Жижков","ru":"Жижков"},"country":"CZ","lat":50.08333,"lon":14.45,"pop":58267,"search_terms":["ژیژکوف","жижков","zizkov"]},{"id":1783802,"name":"Zhutuo","names":{"en":"Zhutuo","zh":"朱沱"},"country":"CN","lat":29.0184,"lon":105.84877,"pop":58262,"search_terms":["zhutuo","朱沱镇","朱沱"]},{"id":3080251,"name":"Zgierz","names":{"en":"Zgierz","pl":"Zgierz","fr":"Zgierz","de":"Zgierz","id":"Zgierz","nl":"Zgierz","ro":"Zgierz","ru":"Згеж","ko":"즈기에시","th":"เซอเกียร์ช","ja":"ズギェシ","el":"Ζγκιες","uk":"Згеж","zh":"兹盖日","tt":"Згеж"},"country":"PL","lat":51.85561,"lon":19.40623,"pop":58036,"search_terms":["즈기에시","ζγκιες","згеж","兹盖日","zgierz","เซอเกียร์ช","ズギェシ"]},{"id":1784253,"name":"Zhongxing","names":{"en":"Zhongxing"},"country":"CN","lat":33.70389,"lon":118.67917,"pop":57338,"search_terms":["zhongxing"]},{"id":463082,"name":"Zhigulevsk","names":{"en":"Zhigulevsk","ru":"Жигулёвск"},"country":"RU","lat":53.40332,"lon":49.51055,"pop":57094,"search_terms":["zhigulevsk","жигулёвск","zhigulëvsk"]},{"id":1549804,"name":"Zhuzhai","names":{"en":"Zhuzhai"},"country":"CN","lat":34.76111,"lon":116.81389,"pop":56908,"search_terms":["zhuzhai"]},{"id":1279553,"name":"Zibihu","names":{"en":"Zibihu","zh":"玉湖"},"country":"CN","lat":26.1143,"lon":99.95267,"pop":56246,"search_terms":["玉湖","zibihu"]},{"id":699553,"name":"Zvyahel","names":{"en":"Zvyahel","ru":"Звягель","uk":"Звягель","de":"Swjahel","pl":"Zwiahel","cs":"Zvjahel","es":"Zviáhel","fr":"Zviahel","hy":"Զվյահել","fa":"زویاهل","ka":"ზვიაჰელი","tr":"Zviahel","zh":"兹维亚赫尔","ja":"ズヴィアゲル"},"country":"UA","lat":50.59141,"lon":27.60884,"pop":55925,"search_terms":["новоград-волынский","звягель","զվյահել","новоград-волинський","zwiahel","zvyahel","兹维亚赫尔","ზვიაჰელი","swjahel","ズヴィアゲル","ノヴォグラード・ヴォルィンスキー","zviáhel","zvjahel","zviahel","زویاهل"]},{"id":418418,"name":"Zarrin Shahr","names":{"en":"Zarrin Shahr","fa":"زرّین شهر"},"country":"IR","lat":32.39057,"lon":51.37654,"pop":55817,"search_terms":["زرّین شهر","zarrin shahr"]},{"id":737054,"name":"Zile","names":{"en":"Zile","ru":"Зил"},"country":"TR","lat":40.30306,"lon":35.88639,"pop":55680,"search_terms":["зил","zile"]},{"id":12358614,"name":"Zhuyi","names":{"en":"Zhuyi"},"country":"CN","lat":31.02543,"lon":109.38562,"pop":55627,"search_terms":["zhuyi"]},{"id":2375558,"name":"Zouerat","names":{"en":"Zouerat","fr":"Zouerate","es":"Zuérate","pl":"Zuwirat","nl":"Zouérat","sv":"Zouérat","ja":"ズエラット","ar":"ازويرات"},"country":"MR","lat":22.73542,"lon":-12.47134,"pop":55183,"search_terms":["zouerat","zuérate","الزويرات","ازويرات","zuwirat","ズエラット","zouérat","zouerate"]},{"id":465057,"name":"Zamoskvorech'ye","names":{"en":"Zamoskvorech'ye","ru":"Замоскворечье"},"country":"RU","lat":55.73333,"lon":37.63333,"pop":55000,"search_terms":["zamoskvorech'ye","замоскворечье"]},{"id":2805059,"name":"Zehlendorf","names":{"en":"Zehlendorf","ru":"Целендорф","sv":"Zehlendorf","de":"Zehlendorf","nl":"Zehlendorf"},"country":"DE","lat":52.43333,"lon":13.25,"pop":54328,"search_terms":["целендорф","zehlendorf"]},{"id":6295533,"name":"Zuerich (Kreis 11)","names":{"en":"Zuerich (Kreis 11)"},"country":"CH","lat":47.42326,"lon":8.52166,"pop":54260,"search_terms":["zuerich (kreis 11)"]},{"id":3518221,"name":"Zinacantepec","names":{"en":"Zinacantepec"},"country":"MX","lat":19.28428,"lon":-99.73394,"pop":54220,"search_terms":["zinacantepec"]},{"id":1279485,"name":"Zhangfeng","names":{"en":"Zhangfeng","zh":"章凤"},"country":"CN","lat":24.19064,"lon":97.80191,"pop":53370,"search_terms":["zhangfeng","章凤"]},{"id":1549810,"name":"Zhaozhuang","names":{"en":"Zhaozhuang"},"country":"CN","lat":34.73889,"lon":116.45556,"pop":53193,"search_terms":["zhaozhuang"]},{"id":3080526,"name":"Zawiercie","names":{"en":"Zawiercie","pl":"Zawiercie","de":"Zawiercie","id":"Zawiercie","nl":"Zawiercie","ro":"Zawiercie","ru":"Заверце","uk":"Заверце","zh":"扎维尔切","tt":"Заверце"},"country":"PL","lat":50.48766,"lon":19.41679,"pop":53159,"search_terms":["zawiercie","заверце","扎维尔切"]},{"id":1679397,"name":"Zaragoza","names":{"en":"Zaragoza"},"country":"PH","lat":15.44903,"lon":120.79627,"pop":53090,"search_terms":["zaragoza"]},{"id":69500,"name":"Zabid","names":{"en":"Zabid","ru":"Забид","ar":"زبيد"},"country":"YE","lat":14.1951,"lon":43.31518,"pop":52590,"search_terms":["забид","zabid","زبيد"]},{"id":662334,"name":"Zalau","names":{"en":"Zalau","de":"Zalău","nl":"Zalău","ro":"Zalău","es":"Zalău","pl":"Zalău","cs":"Zalău","fr":"Zalău","ru":"Залэу","el":"Ζαλάου","ko":"잘러우","ar":"زالاو","tg":"Залэу","vi":"Zalau","uk":"Залеу","fa":"زلئو","zh":"札勒烏","ka":"ზალეუ","tt":"Залыу","ur":"زالیو"},"country":"RO","lat":47.2,"lon":23.05,"pop":52359,"search_terms":["zalău","залеу","залэу","잘러우","زالیو","ზალეუ","زلئو","زالاو","札勒烏","залыу","ζαλάου","zalau"]},{"id":1485439,"name":"Zarinsk","names":{"en":"Zarinsk","ru":"Заринск","de":"Sarinsk","ar":"زارينسك","fa":"زارینسک","zh":"扎林斯克","tt":"Заринск"},"country":"RU","lat":53.70821,"lon":84.94307,"pop":52209,"search_terms":["扎林斯克","زارينسك","sarinsk","zarinsk","заринская","زارینسک","заринск"]},{"id":12450873,"name":"Zhawa","names":{"en":"Zhawa","zh":"扎瓦"},"country":"CN","lat":37.21421,"lon":79.62897,"pop":52165,"search_terms":["zhawa","扎瓦"]},{"id":1549693,"name":"Zizhuang","names":{"en":"Zizhuang"},"country":"CN","lat":34.36152,"lon":117.48816,"pop":52063,"search_terms":["zizhuang"]},{"id":1784272,"name":"Zhongxin","names":{"en":"Zhongxin","zh":"中心"},"country":"CN","lat":26.61667,"lon":101.27154,"pop":51866,"search_terms":["zhongxin","中心"]},{"id":1279501,"name":"Zepu","names":{"en":"Zepu"},"country":"CN","lat":38.18867,"lon":77.27075,"pop":51691,"search_terms":["zepu"]},{"id":1279471,"name":"Zhefang","names":{"en":"Zhefang"},"country":"CN","lat":24.26667,"lon":98.28333,"pop":51477,"search_terms":["zhefang"]},{"id":753142,"name":"Zoliborz","names":{"en":"Zoliborz","de":"Żoliborz","ru":"Жолибож","fr":"Żoliborz","uk":"Жолібож","ka":"ჟოლიბოჟი","sv":"Żoliborz","el":"Ζολίμπος","it":"Żoliborz","es":"Żoliborz","zh":"若利博日区","cs":"Żoliborz","vi":"Żoliborz","ja":"ジョリボルシェ","fa":"ژولیبوژ","pl":"Żoliborz","nl":"Żoliborz"},"country":"PL","lat":52.26896,"lon":20.98644,"pop":50934,"search_terms":["жолібож","zoliborz","若利博日区","ژولیبوژ","żoliborz","ჟოლიბოჟი","жолибож","ジョリボルシェ","ζολίμπος"]},{"id":1162105,"name":"Zhob","names":{"en":"Zhob"},"country":"PK","lat":31.34082,"lon":69.4493,"pop":50537,"search_terms":["zhob"]},{"id":3979846,"name":"Zacapu","names":{"en":"Zacapu","ru":"Сакапу","es":"Zacapu"},"country":"MX","lat":19.81523,"lon":-101.79198,"pop":50112,"search_terms":["zacapu","сакапу"]},{"id":1784595,"name":"Zhenxi","names":{"en":"Zhenxi","zh":"珍溪"},"country":"CN","lat":29.89929,"lon":107.46452,"pop":50017,"search_terms":["珍溪","zhenxi","珍溪镇"]},{"id":1120985,"name":"Zaranj","names":{"en":"Zaranj","ru":"Зарани","fa":"زرنج","de":"Sarandsch","fr":"Zarandj","ar":"زرنج","hi":"ज़रंज","ro":"Sarandsch","tr":"Zerenc","pl":"Zarandż","zh":"扎兰季","az":"Zərənc","ps":"زرنج","tg":"Заранҷ","ur":"زرنج"},"country":"AF","lat":30.95962,"lon":61.86037,"pop":49851,"search_terms":["zarandż","ज़रंज","заранҷ","زرنج","зарандж","扎兰季","zerenc","zarandj","зарани","sarandsch","zərənc","zaranj"]},{"id":784024,"name":"Zajecar","names":{"en":"Zajecar","ru":"Заечар","ro":"Zaiciar","ar":"زاييتشار","ja":"ザイェチャル","ko":"자예차르","fa":"زایچار","zh":"扎耶查尔","el":"Ζάγετσαρ","ka":"ზაეჩარი","ur":"زایئچار"},"country":"RS","lat":43.90358,"lon":22.26405,"pop":49800,"search_terms":["ザイェチャル","زایچار","zaicear","扎耶查尔","ζάγετσαρ","zajecar","زاييتشار","زایئچار","zaiciar","ზაეჩარი","заечар","자예차르"]},{"id":2310763,"name":"Zongo","names":{"en":"Zongo"},"country":"CD","lat":4.34283,"lon":18.59447,"pop":48658,"search_terms":["zongo"]},{"id":346201,"name":"Zaafarana","names":{"en":"Zaafarana"},"country":"EG","lat":29.11007,"lon":32.66012,"pop":46993,"search_terms":["zaafarana"]},{"id":6295532,"name":"Zuerich (Kreis 3)","names":{"en":"Zuerich (Kreis 3)"},"country":"CH","lat":47.35785,"lon":8.50296,"pop":46018,"search_terms":["zuerich (kreis 3)"]},{"id":2743493,"name":"Zwijndrecht","names":{"en":"Zwijndrecht","de":"Zwijndrecht","fr":"Zwijndrecht","id":"Zwijndrecht","it":"Zwijndrecht","nl":"Zwijndrecht","sv":"Zwijndrecht","ru":"Звейндрехте","ar":"زفايندريخت","hy":"Զվայնդրեխտ","zh":"兹韦恩德雷赫特"},"country":"NL","lat":51.8175,"lon":4.63333,"pop":45696,"search_terms":["zwijndrecht","զվայնդրեխտ","兹韦恩德雷赫特","звейндрехте","звейндрехт","زفايندريخت"]},{"id":1549554,"name":"Zouzhuang","names":{"en":"Zouzhuang"},"country":"CN","lat":34.6,"lon":118.05,"pop":45461,"search_terms":["zouzhuang"]},{"id":6295534,"name":"Zuerich (Kreis 9)","names":{"en":"Zuerich (Kreis 9)"},"country":"CH","lat":47.38245,"lon":8.47993,"pop":44878,"search_terms":["zuerich (kreis 9)"]},{"id":3080414,"name":"Zdunska Wola","names":{"en":"Zdunska Wola","uk":"Здунська Воля","ru":"Здуньская-Воля","zh":"茲敦斯卡沃拉"},"country":"PL","lat":51.59915,"lon":18.93974,"pop":44515,"search_terms":["здуньская-воля","здунська воля","zdunska wola","茲敦斯卡沃拉"]},{"id":2472833,"name":"Zouila","names":{"en":"Zouila"},"country":"TN","lat":35.50056,"lon":11.06056,"pop":44349,"search_terms":["zouila"]},{"id":2279172,"name":"Zuenoula","names":{"en":"Zuenoula"},"country":"CI","lat":7.43027,"lon":-6.05054,"pop":44097,"search_terms":["zuenoula"]},{"id":1677099,"name":"Zhushan","names":{"en":"Zhushan","zh":"竹山"},"country":"TW","lat":23.75551,"lon":120.68203,"pop":44083,"search_terms":["zhushan","竹山"]},{"id":2526452,"name":"Zagora","names":{"en":"Zagora","ru":"Загора"},"country":"MA","lat":30.33241,"lon":-5.8384,"pop":43752,"search_terms":["zagora","загора"]},{"id":1784388,"name":"Zhonghe","names":{"en":"Zhonghe","zh":"中和"},"country":"CN","lat":31.17664,"lon":108.13155,"pop":43318,"search_terms":["中和镇","中和","zhonghe"]},{"id":1784527,"name":"Zhigou","names":{"en":"Zhigou"},"country":"CN","lat":35.91667,"lon":119.21667,"pop":43152,"search_terms":["zhigou"]},{"id":1516601,"name":"Zhitikara","names":{"en":"Zhitikara","kk":"Zhetiqara","ru":"Житикара"},"country":"KZ","lat":52.19019,"lon":61.19894,"pop":43104,"search_terms":["жітіқара","zhetikara","zhitikara","zhetiqara","джетыгара","житикара","zhitiqara"],"_key":"z","dumk_id":168},{"id":1784697,"name":"Zhengji","names":{"en":"Zhengji"},"country":"CN","lat":34.43722,"lon":117.03889,"pop":43021,"search_terms":["zhengji"]},{"id":464101,"name":"Zavolzh'ye","names":{"en":"Zavolzh'ye","ru":"Заволжье"},"country":"RU","lat":56.64051,"lon":43.39446,"pop":42900,"search_terms":["zavolzh'ye","заволжье"]},{"id":12495684,"name":"Zhuhai","names":{"en":"Zhuhai","zh":"茶山"},"country":"CN","lat":29.36937,"lon":105.88323,"pop":42383,"search_terms":["茶山","竹海","zhuhai"]},{"id":3815392,"name":"Zacatelco","names":{"en":"Zacatelco"},"country":"MX","lat":19.21583,"lon":-98.23972,"pop":42150,"search_terms":["zacatelco"]},{"id":687196,"name":"Zhovti Vody","names":{"en":"Zhovti Vody","uk":"Жовті Води","de":"Schowti Wody","fr":"Jovti Vody","ar":"جوفتي فودي","cs":"Žovti Vody","fa":"ژوفتی وودی","hy":"Ժյոլտիե Վոդի","ja":"ジョーウチ・ヴォーディ","ro":"Jovti Vodî","tr":"Jovti Vodi","pl":"Żółte Wody","ru":"Жёлтые Воды","ka":"ჟოლტიე-ვოდი","tt":"Жёлтые Воды"},"country":"UA","lat":48.34518,"lon":33.49743,"pop":42052,"search_terms":["ジョーウチ・ヴォーディ","ჟოლტიე-ვოდი","ژوفتی وودی","jovti vodî","jovti vodi","jovti vody","żółte wody","жёлтые воды","جوفتي فودي","žovti vody","zhovti vody","schowti wody","жовті води","ժյոլտիե վոդի"]},{"id":465543,"name":"Zainsk","names":{"en":"Zainsk","ru":"Заинск","de":"Sainsk","es":"Zaínsk","fr":"Zaïnsk","ar":"زاينسك","az":"Zəy","fa":"زاینسک","ja":"ザインスク","ko":"자인스크","tt":"Зәй шәһәре","zh":"扎因斯克"},"country":"RU","lat":55.3195,"lon":52.06942,"pop":42044,"search_terms":["ザインスク","자인스크","زاینسک","zaïnsk","зәй шәһәре","扎因斯克","zaínsk","zəy","zainsk","زاينسك","sainsk","заинск"]},{"id":463824,"name":"Zelenokumsk","names":{"en":"Zelenokumsk","ru":"Зеленокумск","de":"Selenokumsk","fr":"Zelenokoumsk","ar":"زيلينوكومسك","fa":"زلنوکومسک","uk":"Зеленокумськ","pl":"Zielenokumsk","zh":"澤列諾庫姆斯克","nl":"Zelenokoemsk"},"country":"RU","lat":44.41044,"lon":43.88007,"pop":41306,"search_terms":["zelenokoumsk","зеленокумск","zielenokumsk","zelenokoemsk","زيلينوكومسك","зеленокумськ","زلنوکومسک","selenokumsk","澤列諾庫姆斯克","zelenokumsk"]},{"id":752967,"name":"Zyrardow","names":{"en":"Zyrardow","pl":"Żyrardów","fr":"Żyrardów","de":"Żyrardów","it":"Żyrardów","nl":"Żyrardów","ro":"Żyrardów","uk":"Жирардув","ru":"Жирардув","zh":"日拉爾杜夫"},"country":"PL","lat":52.0488,"lon":20.44599,"pop":41179,"search_terms":["zyrardow","жирардув","日拉爾杜夫","żyrardów"]},{"id":6318970,"name":"Ze Doca","names":{"en":"Ze Doca"},"country":"BR","lat":-3.27472,"lon":-45.65833,"pop":40801,"search_terms":["ze doca"]},{"id":610824,"name":"Zugdidi","names":{"en":"Zugdidi","es":"Zugdidi","de":"Sugdidi","pl":"Zugdidi","pt":"Zugdidi","ro":"Zugdidi","ru":"Зугдиди","tr":"Zugdidi","ka":"Zugdidi"},"country":"GE","lat":42.5084,"lon":41.86796,"pop":40067,"search_terms":["zugdidi","ზუგდიდი","зугдиди","sugdidi"]},{"id":1942226,"name":"Zhaojia","names":{"en":"Zhaojia","zh":"赵家"},"country":"CN","lat":31.08125,"lon":108.41164,"pop":39910,"search_terms":["赵家镇","zhaojia","赵家"]},{"id":3056459,"name":"Zvolen","names":{"en":"Zvolen","de":"Altsohl","pl":"Zwoleń","cs":"Zvolen","ro":"Zvolen","ru":"Зволен","sv":"Zvolen"},"country":"SK","lat":48.57442,"lon":19.15324,"pop":39844,"search_terms":["зволен","zvolen","zwoleń","altsohl"]},{"id":3582805,"name":"Zacatecoluca","names":{"en":"Zacatecoluca"},"country":"SV","lat":13.50872,"lon":-88.87017,"pop":39613,"search_terms":["zacatecoluca"]},{"id":1783771,"name":"Zhuyuan","names":{"en":"Zhuyuan","zh":"竹园"},"country":"CN","lat":31.30216,"lon":109.25806,"pop":39338,"search_terms":["zhuyuan","竹园坪","竹园","竹园镇"]},{"id":2526435,"name":"Zaio","names":{"en":"Zaio"},"country":"MA","lat":34.94282,"lon":-2.7329,"pop":39099,"search_terms":["zaio"]},{"id":3080644,"name":"Zary","names":{"en":"Zary","ru":"Жара","uk":"Жари","zh":"扎雷"},"country":"PL","lat":51.64205,"lon":15.13727,"pop":38779,"search_terms":["жары","扎雷","жара","жари","zary"]},{"id":2272491,"name":"Zwedru","names":{"en":"Zwedru","ru":"Зведру"},"country":"LR","lat":6.06846,"lon":-8.13559,"pop":38269,"search_terms":["zwedru","зведру"]},{"id":1785345,"name":"Zhancheng","names":{"en":"Zhancheng"},"country":"CN","lat":34.17501,"lon":117.76291,"pop":38164,"search_terms":["zhancheng"]},{"id":9988213,"name":"Zhonghe","names":{"en":"Zhonghe","zh":"中河"},"country":"CN","lat":25.05575,"lon":98.39993,"pop":37682,"search_terms":["中河","zhonghe"]},{"id":7645176,"name":"Zira","names":{"en":"Zira","ur":"زیرا، بھارت","zh":"齐拉","de":"Zira","hi":"ज़ीरा","ru":"Зира","pt":"Zira","fr":"Zira","bn":"জিরা","sv":"Zira","ko":"지라","ms":"Zira","it":"Zira","ta":"ஜிரா","es":"Zira","te":"జీరా","vi":"Zira","ja":"ジラ","nl":"Zira"},"country":"IN","lat":30.96853,"lon":74.99106,"pop":37498,"search_terms":["জিরা","지라","ஜிரா","zira","ज़ीरा","зира","زیرا، بھارت","齐拉","ジラ","జీరా"]},{"id":2537538,"name":"Zeghanghane","names":{"en":"Zeghanghane"},"country":"MA","lat":35.15561,"lon":-3.00236,"pop":37154,"search_terms":["zeghanghane"]},{"id":8421919,"name":"Zhiping","names":{"en":"Zhiping","zh":"支坪"},"country":"CN","lat":29.25831,"lon":106.35856,"pop":36680,"search_terms":["zhiping","支坪"]},{"id":1524385,"name":"Zhetysay","names":{"en":"Zhetysay","kk":"Жетісай","ru":"Джетысай"},"country":"KZ","lat":40.77631,"lon":68.32774,"pop":36494,"search_terms":["джетысай","жетісай","zhetysay","жетысай"],"_key":"z","dumk_id":54},{"id":6295539,"name":"Zuerich (Kreis 10)","names":{"en":"Zuerich (Kreis 10)"},"country":"CH","lat":47.40773,"lon":8.5005,"pop":36216,"search_terms":["zuerich (kreis 10)"]},{"id":2743608,"name":"Zutphen","names":{"en":"Zutphen","de":"Zutphen","es":"Zutphen","it":"Zutphen","nl":"Zutphen","ro":"Zutphen","sv":"Zutphen","fr":"Zutphen","ru":"Зютфен","pt":"Zutphen","hy":"Զուտֆեն","uk":"Зютфен","id":"Zutphen","ur":"زوتفن","ms":"Zutphen","el":"Ζούτφεν","zh":"聚特芬","ar":"زوتفن","vi":"Zutphen","ja":"ズトフェン","fa":"زوتفن","ko":"쥣펀","ku":"Zutphen","cs":"Zutphen","pl":"Zutphen","tr":"Zutphen"},"country":"NL","lat":52.13833,"lon":6.20139,"pop":36188,"search_terms":["زوتفن","zutphen","聚特芬","ズトフェン","զուտֆեն","ζούτφεν","зютфен","쥣펀"]},{"id":12358511,"name":"Zhutang","names":{"en":"Zhutang"},"country":"CN","lat":22.7152,"lon":99.80715,"pop":35766,"search_terms":["zhutang"]},{"id":1783682,"name":"Ziyang Chengguanzhen","names":{"en":"Ziyang Chengguanzhen","zh":"紫阳城关镇"},"country":"CN","lat":32.51917,"lon":108.53232,"pop":35496,"search_terms":["ziyang chengguanzhen","紫阳城关镇","紫阳县"]},{"id":2353197,"name":"Zorgo","names":{"en":"Zorgo"},"country":"BF","lat":12.24922,"lon":-0.61527,"pop":35398,"search_terms":["zorgo"]},{"id":3061344,"name":"Znojmo","names":{"en":"Znojmo","de":"Znaim","pl":"Znojmo","fr":"Znojmo","cs":"Znojmo","it":"Znojmo","nl":"Znojmo","ru":"Зноймо","ja":"ズノイモ","ko":"즈노이모","tr":"Znaym","fa":"زنیمو","uk":"Зноймо","zh":"茲諾伊莫","kk":"Зноймо","ar":"زنويمو"},"country":"CZ","lat":48.8555,"lon":16.0488,"pop":35280,"search_terms":["زنیمو","茲諾伊莫","زنويمو","znaym","ズノイモ","즈노이모","znaim","зноймо","znojmo"]},{"id":3062152,"name":"Zabehlice","names":{"en":"Zabehlice","de":"Sabechlitz"},"country":"CZ","lat":50.0573,"lon":14.5038,"pop":35228,"search_terms":["sabechlitz","zabehlice"]},{"id":2803620,"name":"Zweibruecken","names":{"en":"Zweibrücken","fr":"Deux-Ponts","de":"Zweibrücken","pl":"Zweibrücken","id":"Zweibrücken","ja":"ツヴァイブリュッケン","nl":"Zweibrücken","sv":"Zweibrücken","es":"Dos Puentes","fa":"تسوایبروکن","ru":"Цвайбрюккен","zh":"茨魏布吕肯"},"country":"DE","lat":49.24686,"lon":7.36977,"pop":35221,"search_terms":["two bridges","zweibruecken","dos puentes","ツヴァイブリュッケン","茨魏布吕肯","deux-ponts","تسوایبروکن","цвайбрюккен","zweibrücken"]},{"id":363533,"name":"Zalinjay","names":{"en":"Zalinjay","ru":"Залингее","ar":"زالنجي (مدينة)","de":"Zalingi","pl":"Zalindżi"},"country":"SD","lat":12.90918,"lon":23.47058,"pop":35061,"search_terms":["زالنجي (مدينة)","زالنجي","zalinjay","zalingei","zalinguei","zalingi","залингее","zalindżi"]},{"id":687116,"name":"Zhmerynka","names":{"en":"Zhmerynka","uk":"Жмеринка","ru":"Жмеринка","fr":"Jmérynka","ro":"Şmerinca","de":"Schmerynka"},"country":"UA","lat":49.03523,"lon":28.11405,"pop":34498,"search_terms":["şmerinca","жмеринка","schmerynka","jmérynka","zhmerynka"]},{"id":1520253,"name":"Zharkent","names":{"en":"Zharkent","ru":"Жаркент","kk":"Жаркент","de":"Scharkent"},"country":"KZ","lat":44.16619,"lon":80.00736,"pop":34422,"search_terms":["zharkent","панфилов","жаркент","scharkent"],"_key":"z","dumk_id":70},{"id":1784750,"name":"Zhelou","names":{"en":"Zhelou"},"country":"CN","lat":24.96667,"lon":105.81667,"pop":34250,"search_terms":["zhelou"]},{"id":1162275,"name":"Zahir Pir","names":{"en":"Zahir Pir"},"country":"PK","lat":28.81284,"lon":70.52341,"pop":34121,"search_terms":["zahir pir"]},{"id":1783793,"name":"Zhuxi","names":{"en":"Zhuxi","zh":"朱溪"},"country":"CN","lat":29.53614,"lon":105.66685,"pop":34113,"search_terms":["朱溪","zhuxi","朱溪镇","赵家院子"]},{"id":2208425,"name":"Zuwarah","names":{"en":"Zuwarah","ru":"Зуара","ar":"زُوارة","fr":"Zouara","uk":"Зуара","zh":"祖瓦拉","ko":"주와라","fa":"زواره"},"country":"LY","lat":32.9312,"lon":12.08199,"pop":33887,"search_terms":["зувара","زواره","zouara","زوارة","주와라","zuwarah","祖瓦拉","зуара","زُوارة"]},{"id":6295548,"name":"Zuerich (Kreis 7)","names":{"en":"Zuerich (Kreis 7)"},"country":"CH","lat":47.37328,"lon":8.58038,"pop":33820,"search_terms":["zuerich (kreis 7)"]},{"id":3514148,"name":"Zacatlan","names":{"en":"Zacatlan","ru":"Сакатлан"},"country":"MX","lat":19.9355,"lon":-97.96125,"pop":33736,"search_terms":["zacatlan","сакатлан"]},{"id":1516788,"name":"Zhangatas","names":{"en":"Zhangatas","kk":"Zhangatas","ru":"Жанатас"},"country":"KZ","lat":43.56274,"lon":69.73209,"pop":33492,"search_terms":["zhangatas","жаңатас","жанатас"],"_key":"z","dumk_id":8053},{"id":1252698,"name":"Zaidpur","names":{"en":"Zaidpur","hi":"ज़ैदपुर","sv":"Zaidpur","ms":"Zaidpur","it":"Zaidpur","bn":"জায়েদপুর","zh":"宰德普尔","es":"Zaidpur","vi":"Zaidpur","fa":"زیدپور","pl":"Zaidpur","ur":"زید پور","nl":"Zaidpur"},"country":"IN","lat":26.83093,"lon":81.32929,"pop":33397,"search_terms":["ज़ैदपुर","জায়েদপুর","زیدپور","宰德普尔","زید پور","zaidpur"]},{"id":2012484,"name":"Zima","names":{"en":"Zima","ru":"Зима","de":"Sima","ar":"زيما","fa":"زیما","zh":"济马"},"country":"RU","lat":53.9202,"lon":102.0442,"pop":33323,"search_terms":["زيما","sima","زیما","zima","济马","зима"]},{"id":2353257,"name":"Ziniare","names":{"en":"Ziniare","fr":"Ziniaré","de":"Ziniaré"},"country":"BF","lat":12.58236,"lon":-1.29753,"pop":33296,"search_terms":["ziniare","ziniaré"]},{"id":3080231,"name":"Zgorzelec","names":{"en":"Zgorzelec","pl":"Zgorzelec","de":"Zgorzelec","fr":"Zgorzelec","cs":"Zgorzelec","id":"Zgorzelec","it":"Zgorzelec","nl":"Zgorzelec","ro":"Zgorzelec","sv":"Zgorzelec","ru":"Згожелец","ja":"ズゴジェレツ","uk":"Зґожелець","ko":"즈고젤레츠","zh":"茲戈熱萊茨","ar":"غورلتس"},"country":"PL","lat":51.14942,"lon":15.00835,"pop":33247,"search_terms":["згожелец","غورلتس","зґожелець","ズゴジェレツ","茲戈熱萊茨","zgorzelec","즈고젤레츠"]},{"id":2218963,"name":"Zintan","names":{"en":"Zintan","ar":"الزنتان‎","fa":"الزنتان، لیبی","ru":"Эз-Зинтан","de":"As-Sintan","fr":"Zentan","es":"Zintan"},"country":"LY","lat":31.93155,"lon":12.25291,"pop":33000,"search_terms":["as-sintan","эз-зинтан","zentan","zintan","الزنتان‎","الزنتان، لیبی"]},{"id":1784157,"name":"Zhoujia","names":{"en":"Zhoujia","zh":"周嘉"},"country":"CN","lat":30.41908,"lon":107.53848,"pop":32562,"search_terms":["周嘉镇","zhoujia","周嘉"]},{"id":3979717,"name":"Zapotlanejo","names":{"en":"Zapotlanejo"},"country":"MX","lat":20.62268,"lon":-103.06813,"pop":32376,"search_terms":["zapotlanejo"]},{"id":584596,"name":"Zaqatala","names":{"en":"Zaqatala","ru":"Загатала","de":"Zaqatala","fr":"Zaqatala"},"country":"AZ","lat":41.6316,"lon":46.64479,"pop":32171,"search_terms":["загатала","zaqatala","закаталы"]},{"id":3079855,"name":"Zywiec","names":{"en":"Zywiec","de":"Żywiec","pl":"Żywiec","fr":"Żywiec","it":"Żywiec","nl":"Żywiec","ro":"Żywiec","uk":"Живець","ja":"ジヴィエツ","ru":"Живец","zh":"日維茨","ko":"지비에츠"},"country":"PL","lat":49.68529,"lon":19.19243,"pop":32132,"search_terms":["живець","지비에츠","ジヴィエツ","日維茨","живец","zywiec","żywiec"]},{"id":1252692,"name":"Zamania","names":{"en":"Zamania"},"country":"IN","lat":25.41961,"lon":83.55786,"pop":32008,"search_terms":["zamania"]},{"id":831130,"name":"Znamensk","names":{"en":"Znamensk","ru":"Знаменск","de":"Snamensk","es":"Známensk","ar":"زنامينسك","fa":"زنامنسک، اوبلاست آستراخان","ko":"즈나멘스크","pl":"Znamiensk","zh":"兹纳缅斯克"},"country":"RU","lat":48.5842,"lon":45.7338,"pop":31922,"search_terms":["знаменск","znamiensk","زنامنسک، اوبلاست آستراخان","znamensk","兹纳缅斯克","즈나멘스크","زنامينسك","капустин яр","snamensk","známensk"]},{"id":1885400,"name":"Zhonghe","names":{"en":"Zhonghe"},"country":"CN","lat":19.74276,"lon":109.34492,"pop":31646,"search_terms":["zhonghe"]},{"id":1847983,"name":"Zentsujicho","names":{"en":"Zentsujicho","ja":"善通寺町"},"country":"JP","lat":34.22699,"lon":133.77791,"pop":31631,"search_terms":["善通寺","zentsujicho","善通寺町"]},{"id":2448322,"name":"Zegoua","names":{"en":"Zegoua"},"country":"ML","lat":10.48804,"lon":-5.64943,"pop":31593,"search_terms":["zegoua"]},{"id":3832132,"name":"Zapala","names":{"en":"Zapala","fa":"ساپالا","uk":"Сапала","ru":"Сапала","zh":"薩帕拉","hy":"Սապալա"},"country":"AR","lat":-38.90056,"lon":-70.06674,"pop":31534,"search_terms":["сапала","薩帕拉","zapala","ساپالا","սապալա"]},{"id":12252444,"name":"Zhakou","names":{"en":"Zhakou","zh":"闸口社区"},"country":"CN","lat":21.70656,"lon":109.47502,"pop":31173,"search_terms":["闸口社区","zhakou"]},{"id":1784475,"name":"Zhong'ao","names":{"en":"Zhong'ao","zh":"中敖"},"country":"CN","lat":29.765,"lon":105.66645,"pop":31118,"search_terms":["中敖镇","中敖","zhong'ao"]},{"id":1222175,"name":"Zarhalol","names":{"en":"Zarhalol","tg":"Kommunizm"},"country":"TJ","lat":37.46471,"lon":68.16947,"pop":30689,"search_terms":["kommunizm","зарҳалол","zarhalol"]},{"id":2657908,"name":"Zug","names":{"en":"Zug","de":"Zug","fr":"Zoug","es":"Zug","pl":"Zug","id":"Zug","it":"Zugo","nl":"Zug","pt":"Zugo","ro":"Zug","sv":"Zug","ru":"Цуг"},"country":"CH","lat":47.17242,"lon":8.51745,"pop":30542,"search_terms":["zoug","цуг","zug","zugo"]},{"id":6418201,"name":"Zagor'ye","names":{"en":"Zagor'ye","ru":"Загорье"},"country":"RU","lat":55.57657,"lon":37.66709,"pop":30000,"search_terms":["zagor'ye","загорье"]},{"id":6295550,"name":"Zuerich (Kreis 6)","names":{"en":"Zuerich (Kreis 6)"},"country":"CH","lat":47.39223,"lon":8.54381,"pop":29951,"search_terms":["zuerich (kreis 6)"]},{"id":2279235,"name":"Zouan-Hounien","names":{"en":"Zouan-Hounien"},"country":"CI","lat":6.91937,"lon":-8.2065,"pop":29649,"search_terms":["zouan-hounien"]},{"id":1252653,"name":"Zunheboto","names":{"en":"Zunheboto"},"country":"IN","lat":25.96667,"lon":94.51667,"pop":29499,"search_terms":["zunheboto"]},{"id":2804922,"name":"Zeitz","names":{"en":"Zeitz","de":"Zeitz","fa":"تسایتس","kk":"Цайц","ru":"Цайц","zh":"蔡茨","uk":"Цайц","ar":"تسایتز"},"country":"DE","lat":51.04962,"lon":12.1369,"pop":29469,"search_terms":["تسایتس","تسایتز","цайц","蔡茨","zeitz"]},{"id":463637,"name":"Zernograd","names":{"en":"Zernograd","ru":"Зерноград","de":"Sernograd","ar":"زيرنوغراد","az":"Zernoqrad","fa":"زرنوگراد","hy":"Զերնոգրադ","zh":"澤爾諾格勒","pl":"Ziernograd"},"country":"RU","lat":46.84862,"lon":40.31164,"pop":29268,"search_terms":["zernograd","зерноград","zernoqrad","sernograd","زرنوگراد","զերնոգրադ","زيرنوغراد","澤爾諾格勒","ziernograd"]},{"id":6295540,"name":"Zuerich (Kreis 2)","names":{"en":"Zuerich (Kreis 2)"},"country":"CH","lat":47.33756,"lon":8.5211,"pop":29215,"search_terms":["zuerich (kreis 2)"]},{"id":2474399,"name":"Zighout Youcef","names":{"en":"Zighout Youcef"},"country":"DZ","lat":36.53307,"lon":6.71237,"pop":28764,"search_terms":["zighout youcef"]},{"id":3665559,"name":"Zarzal","names":{"en":"Zarzal"},"country":"CO","lat":4.39462,"lon":-76.0715,"pop":28761,"search_terms":["zarzal"]},{"id":697576,"name":"Zlatopil","names":{"en":"Zlatopil","ru":"Златополь","uk":"Златопіль","de":"Slatopil","fr":"Zlatopil","es":"Zlatopil","pl":"Złatopil","ro":"Zlatopil"},"country":"UA","lat":49.37646,"lon":36.21848,"pop":28510,"search_terms":["zlatopil","златополь","złatopil","златопіль","slatopil"]},{"id":8418559,"name":"Zhifeng","names":{"en":"Zhifeng","zh":"智凤"},"country":"CN","lat":29.6544,"lon":105.78416,"pop":28467,"search_terms":["智凤","zhifeng","智凤镇"]},{"id":2012557,"name":"Zheleznogorsk-Ilimskiy","names":{"en":"Zheleznogorsk-Ilimskiy","ru":"Железногорск-Илимский"},"country":"RU","lat":56.57665,"lon":104.12968,"pop":28456,"search_terms":["zheleznogorsk-ilimskiy","железногорск-илимский"]},{"id":12324260,"name":"Zheshan","names":{"en":"Zheshan"},"country":"CN","lat":36.14877,"lon":118.95135,"pop":28333,"search_terms":["zheshan"]},{"id":6295513,"name":"Zuerich (Kreis 9) / Altstetten","names":{"en":"Zuerich (Kreis 9) / Altstetten"},"country":"CH","lat":47.38946,"lon":8.48533,"pop":28307,"search_terms":["zuerich (kreis 9) / altstetten"]},{"id":6295523,"name":"Zuerich (Kreis 12)","names":{"en":"Zuerich (Kreis 12)"},"country":"CH","lat":47.40372,"lon":8.57608,"pop":28189,"search_terms":["zuerich (kreis 12)"]},{"id":2783310,"name":"Zaventem","names":{"en":"Zaventem","fa":"زوانتم","uk":"Завентем","ru":"Завентем","zh":"扎芬特姆"},"country":"BE","lat":50.88365,"lon":4.47298,"pop":28188,"search_terms":["زوانتم","扎芬特姆","завентем","zaventem"]},{"id":426423,"name":"Zanandore","names":{"en":"Zanandore","de":"Zanandore","nl":"Zanandore"},"country":"BI","lat":-3.2548,"lon":30.11404,"pop":27867,"search_terms":["zanandore"]},{"id":686875,"name":"Zolotonosha","names":{"en":"Zolotonosha","fr":"Zolotonocha","ru":"Золотоноша","uk":"Золотоноша","de":"Solotonoscha","ja":"ゾロトノシャ","ar":"زولوتونوشا","zh":"佐洛托諾沙","ka":"ზოლოტონოშა","hy":"Զոլոտոնոշա"},"country":"UA","lat":49.66926,"lon":32.03637,"pop":27818,"search_terms":["zolotonocha","solotonoscha","zolotonosha","佐洛托諾沙","золотоноша","ゾロトノシャ","ზოლოტონოშა","زولوتونوشا","զոլոտոնոշա"]},{"id":1784669,"name":"Zhengxing","names":{"en":"Zhengxing","zh":"正兴"},"country":"CN","lat":29.45741,"lon":106.12926,"pop":27804,"search_terms":["正兴镇","正兴","zhengxing"]},{"id":1485445,"name":"Zarechnyy","names":{"en":"Zarechnyy","ru":"Заречный"},"country":"RU","lat":56.811,"lon":61.3254,"pop":27758,"search_terms":["zarechnyy","заречный"]},{"id":2526359,"name":"Zawyat ech Cheikh","names":{"en":"Zawyat ech Cheikh","ru":"Завийя аш Шейх"},"country":"MA","lat":32.64445,"lon":-5.91826,"pop":27723,"search_terms":["zawyat ech cheikh","завийя аш шейх"]},{"id":2661666,"name":"Zuerich (Kreis 4) / Aussersihl","names":{"en":"Zuerich (Kreis 4) / Aussersihl","de":"Zürich (Kreis 4)"},"country":"CH","lat":47.37752,"lon":8.52127,"pop":27273,"search_terms":["zuerich (kreis 4) / aussersihl","zürich (kreis 4)"]},{"id":3080866,"name":"Zakopane","names":{"en":"Zakopane","pl":"Zakopane","de":"Zakopane","fr":"Zakopane","es":"Zakopane","it":"Zakopane","ja":"ザコパネ","nl":"Zakopane","ro":"Zakopane","ru":"Закопане","sv":"Zakopane","ko":"자코파네","kk":"Закопане","ar":"زكوبن","uk":"Закопане","zh":"扎科帕內","fa":"زکوپانا","ka":"ზაკოპანე"},"country":"PL","lat":49.29899,"lon":19.94885,"pop":27266,"search_terms":["закопане","扎科帕內","ზაკოპანე","zakopane","ザコパネ","زكوبن","자코파네","زکوپانا"]},{"id":1908018,"name":"Zhongshan","names":{"en":"Zhongshan","zh":"中山"},"country":"CN","lat":34.93806,"lon":105.8775,"pop":27147,"search_terms":["zhongshan","中山"]},{"id":1215694,"name":"Zomin Shaharchasi","names":{"en":"Zomin Shaharchasi","ru":"Зомин","uz":"Zomin Shaharchasi"},"country":"UZ","lat":39.96056,"lon":68.39583,"pop":27077,"search_terms":["zomin shaharchasi","зомин"]},{"id":2279495,"name":"Zaliohouan","names":{"en":"Zaliohouan"},"country":"CI","lat":6.79519,"lon":-6.2355,"pop":27050,"search_terms":["zaliohouan"]},{"id":1783626,"name":"Zuitai","names":{"en":"Zuitai"},"country":"CN","lat":33.33083,"lon":105.60467,"pop":27027,"search_terms":["zuitai"]},{"id":7117880,"name":"Zarya","names":{"en":"Zarya","ru":"Заря"},"country":"RU","lat":55.75533,"lon":38.09578,"pop":27000,"search_terms":["zarya","заря"]},{"id":2012593,"name":"Zeya","names":{"en":"Zeya","ru":"Зея"},"country":"RU","lat":53.73586,"lon":127.25598,"pop":26999,"search_terms":["зея","zeya"]},{"id":895953,"name":"Zambezi","names":{"en":"Zambezi","fr":"Zambèze","pl":"Zambezi","de":"Zambezi","cs":"Zambezi","it":"Zambesi","ja":"ザンベジ川","nl":"Zambezi","pt":"Rio Zambeze","ru":"Замбези","sv":"Zambesi","sw":"Zambezi","uk":"Замбезі","zh":"赞比西河"},"country":"ZM","lat":-13.54323,"lon":23.10467,"pop":26885,"search_terms":["rio zambeze","zambezi","zambèze","zambesi","赞比西河","замбезі","замбези","ザンベジ川"]},{"id":1162261,"name":"Zaida","names":{"en":"Zaida"},"country":"PK","lat":34.0595,"lon":72.4669,"pop":26787,"search_terms":["zaida"]},{"id":2744102,"name":"Zaltbommel","names":{"en":"Zaltbommel","ja":"ザルトボメル","zh":"扎爾特博默爾"},"country":"NL","lat":51.81,"lon":5.24444,"pop":26383,"search_terms":["zaltbommel","扎爾特博默爾","ザルトボメル"]},{"id":1783782,"name":"Zhuyang","names":{"en":"Zhuyang","zh":"朱杨"},"country":"CN","lat":29.06423,"lon":105.94487,"pop":26335,"search_terms":["朱杨镇","zhuyang","朱杨"]},{"id":4267336,"name":"Zionsville","names":{"en":"Zionsville"},"country":"US","lat":39.95087,"lon":-86.26194,"pop":26296,"search_terms":["zionsville"]},{"id":2743949,"name":"Zevenaar","names":{"en":"Zevenaar","ru":"Зевенар"},"country":"NL","lat":51.93,"lon":6.07083,"pop":26063,"search_terms":["zevenaar","зевенар"]},{"id":1942248,"name":"Zouma","names":{"en":"Zouma","zh":"走马"},"country":"CN","lat":30.5696,"lon":108.43752,"pop":26017,"search_terms":["zouma","走马","走马镇"]},{"id":2541210,"name":"Zawyat an Nwacer","names":{"en":"Zawyat an Nwacer"},"country":"MA","lat":33.37981,"lon":-7.61932,"pop":25991,"search_terms":["zawyat an nwacer"]},{"id":2804008,"name":"Zittau","names":{"en":"Zittau","de":"Zittau","cs":"Žitava","fr":"Zittau","it":"Zittau","ja":"ツィッタウの","nl":"Zittau","pl":"Żytawa","so":"Žitawa","sv":"Zittau","ru":"Циттау","fa":"تسیتا","zh":"齐陶","uk":"Циттау","ar":"تسيتاو","el":"Τσιτάου"},"country":"DE","lat":50.89772,"lon":14.80764,"pop":25785,"search_terms":["zittau","تسيتاو","تسیتا","ツィッタウの","циттау","żytawa","齐陶","ツィッタウ","žitava","τσιτάου","žitawa"]},{"id":2804034,"name":"Zirndorf","names":{"en":"Zirndorf","kk":"Цирндорф","fa":"تسیندورف","ru":"Цирндорф","sv":"Zimdorf","zh":"齐尔恩多夫","ar":"تسيرندورف","hy":"Ցիրնդորֆ","uk":"Цирндорф"},"country":"DE","lat":49.4424,"lon":10.95414,"pop":25734,"search_terms":["цирндорф","ցիրնդորֆ","zimdorf","齐尔恩多夫","تسيرندورف","تسیندورف","zirndorf"]},{"id":3080944,"name":"Zagan","names":{"en":"Zagan","de":"Sagan","pl":"Żagań","fr":"Żagań","es":"Żagań","cs":"Zaháň","it":"Żagań","ja":"ジャガン","nl":"Żagań","pt":"Żagań","ro":"Żagań","ru":"Жагань","sv":"Żagań","tr":"Żagań","tt":"Jaganʻ","uk":"Жагань","el":"Ζάγκαν","ar":"زاجان","az":"Jaqan","hi":"ज़ागान","id":"Zagan","fa":"زاگان","zh":"薩根","ur":"زاگان"},"country":"PL","lat":51.61759,"lon":15.31486,"pop":25731,"search_terms":["жагань","ज़ागान","زاگان","jaganʻ","żagań","sagan","jaqan","薩根","zagan","ジャガン","жаґань","ζάγκαν","زاجان","zaháň"]},{"id":1485357,"name":"Zavodoukovsk","names":{"en":"Zavodoukovsk","ru":"Заводоуковск","de":"Sawodoukowsk","fr":"Zavodooukovsk","nl":"Zavodo-oekovsk","ar":"زافودوكوفسك","fa":"زاوودوکوفسک","tg":"Заводоуковск","tt":"Заводоуковск","pl":"Zawodoukowsk","zh":"扎沃多烏科夫斯克"},"country":"RU","lat":56.50328,"lon":66.54672,"pop":25682,"search_terms":["zavodoukovsk","زاوودوکوفسک","扎沃多烏科夫斯克","زافودوكوفسك","zavodo-oekovsk","заводоуковск","деревня уковская","zavodooukovsk","sawodoukowsk","zawodoukowsk"]},{"id":7601921,"name":"Zhongxing New Village","names":{"en":"Zhongxing New Village"},"country":"TW","lat":23.95908,"lon":120.68516,"pop":25549,"search_terms":["zhongxing new village"]},{"id":4528923,"name":"Zanesville","names":{"en":"Zanesville","fa":"زنسویل، اوهایو","kk":"Зэйнсвилл","ar":"زانيسفيل","zh":"曾斯維爾","ja":"ゼインズビル"},"country":"US","lat":39.94035,"lon":-82.01319,"pop":25498,"search_terms":["زانيسفيل","zanesville","曾斯維爾","ゼインズビル","зэйнсвилл","زنسویل، اوهایو"]},{"id":783926,"name":"Zelino","names":{"en":"Zelino"},"country":"MK","lat":41.98028,"lon":21.06417,"pop":25422,"search_terms":["zelino"]},{"id":2279240,"name":"Zou","names":{"en":"Zou"},"country":"CI","lat":6.97647,"lon":-7.79834,"pop":25210,"search_terms":["zou"]},{"id":8408335,"name":"Zhoubai","names":{"en":"Zhoubai","zh":"舟白"},"country":"CN","lat":29.52949,"lon":108.82267,"pop":25147,"search_terms":["舟白","zhoubai","舟白街道"]},{"id":461910,"name":"Zverevo","names":{"en":"Zverevo","ru":"Зверево","de":"Swerewo","ar":"زفيريفو","fa":"زوروفو","uk":"Звєрево","pl":"Zwieriewo","zh":"兹韦列沃"},"country":"RU","lat":48.02708,"lon":40.12305,"pop":24978,"search_terms":["zverevo","兹韦列沃","swerewo","звєрево","zwieriewo","زوروفو","زفيريفو","зверево"]},{"id":1463081,"name":"Zee Kone","names":{"en":"Zee Kone"},"country":"MM","lat":16.94964,"lon":96.10227,"pop":24948,"search_terms":["zee kone"]},{"id":662284,"name":"Zarnesti","names":{"en":"Zarnesti"},"country":"RO","lat":45.56093,"lon":25.31787,"pop":24926,"search_terms":["zarnesti"]},{"id":1512287,"name":"Zafar","names":{"en":"Zafar","ru":"Зафар"},"country":"UZ","lat":40.98333,"lon":68.9,"pop":24781,"search_terms":["зафар","zafar"]},{"id":3513967,"name":"Zumpango del Rio","names":{"en":"Zumpango del Rio","ru":"Зумпанго-дель-Рио","de":"Zumpango del Río","sv":"Zumpango del Río","pt":"Zumpango del Río","it":"Zumpango del Río","fr":"Zumpango del Río","es":"Zumpango del Río","pl":"Zumpango del Río","nl":"Zumpango del Río"},"country":"MX","lat":17.65437,"lon":-99.52725,"pop":24719,"search_terms":["zumpango del río","зумпанго-дель-рио","zumpango del rio"]},{"id":464687,"name":"Zaraysk","names":{"en":"Zaraysk","ru":"Зарайск"},"country":"RU","lat":54.76327,"lon":38.88076,"pop":24637,"search_terms":["зарайск","zaraysk"]},{"id":463340,"name":"Zheleznovodsk","names":{"en":"Zheleznovodsk","ru":"Железноводск"},"country":"RU","lat":44.14318,"lon":43.00475,"pop":24632,"search_terms":["zheleznovodsk","железноводск"]},{"id":687432,"name":"Zdolbuniv","names":{"en":"Zdolbuniv","pl":"Zdołbunów","uk":"Здолбунів","ru":"Здолбунов","de":"Sdolbuniw"},"country":"UA","lat":50.52205,"lon":26.24823,"pop":24501,"search_terms":["zdołbunów","здолбунів","здолбунов","sdolbuniw","zdolbuniv"]},{"id":2317569,"name":"Zungeru","names":{"en":"Zungeru","de":"Zungeru","pt":"Zungeru","id":"Zungeru","ms":"Zungeru","it":"Zungeru","es":"Zungeru","zh":"宗盖鲁","vi":"Zungeru","ja":"ズンゲル","ro":"Zungeru","nl":"Zungeru","ru":"Зунгеру","fr":"Zungeru","sv":"Zungeru","sw":"Zungeru","cs":"Zungeru","ha":"Zungeru","pl":"Zungeru","tr":"Zungeru"},"country":"NG","lat":9.80726,"lon":6.15238,"pop":24447,"search_terms":["зунгеру","ズンゲル","zungeru","宗盖鲁"]},{"id":2783175,"name":"Zottegem","names":{"en":"Zottegem","ru":"Зоттегем","fa":"زتژم","zh":"佐特海姆"},"country":"BE","lat":50.86955,"lon":3.81052,"pop":24434,"search_terms":["佐特海姆","زتژم","зоттегем","zottegem"]},{"id":2317548,"name":"Zuru","names":{"en":"Zuru"},"country":"NG","lat":11.43522,"lon":5.23494,"pop":24338,"search_terms":["zuru"]},{"id":4917358,"name":"Zion","names":{"en":"Zion","ru":"Сион","zh":"宰恩","ar":"زيون","fa":"زیون، ایلینوی","ko":"자이언","ur":"زائن، الینوائے","tt":"Зайон","de":"Zion","pt":"Zion","fr":"Zion","uk":"Зайон","sv":"Zion","uz":"Zion","it":"Zion","es":"Zion","vi":"Zion","ja":"ザイオン","pl":"Zion","nl":"Zion","tr":"Zion"},"country":"US","lat":42.44613,"lon":-87.83285,"pop":24117,"search_terms":["сион","зайон","zion","宰恩","زيون","زیون، ایلینوی","자이언","زائن، الینوائے","ザイオン"]},{"id":3665566,"name":"Zaragoza","names":{"en":"Zaragoza"},"country":"CO","lat":7.48971,"lon":-74.86919,"pop":24067,"search_terms":["zaragoza"]},{"id":3587543,"name":"Zaragoza","names":{"en":"Zaragoza"},"country":"GT","lat":14.64968,"lon":-90.89034,"pop":24022,"search_terms":["zaragoza"]},{"id":1821294,"name":"Zhuojiacun","names":{"en":"Zhuojiacun","zh":"卓家村"},"country":"MO","lat":22.16139,"lon":113.55639,"pop":24000,"search_terms":["zhuojiacun","卓家村"]},{"id":1784994,"name":"Zhanhe","names":{"en":"Zhanhe","zh":"战河"},"country":"CN","lat":26.8589,"lon":100.914,"pop":23854,"search_terms":["zhanhe","战河"]},{"id":754351,"name":"Zabki","names":{"en":"Zabki","ru":"Зомбки","uk":"Зомбки","zh":"宗布基","ur":"زوبکی"},"country":"PL","lat":52.29271,"lon":21.10539,"pop":23473,"search_terms":["宗布基","ząbki","زوبکی","zabki","зомбки"]},{"id":2783089,"name":"Zwevegem","names":{"en":"Zwevegem","de":"Zwevegem","es":"Zwevegem","fr":"Zwevegem","nl":"Zwevegem","fa":"زوئووژم","ru":"Звевегем","zh":"兹韦弗海姆"},"country":"BE","lat":50.81268,"lon":3.33848,"pop":23358,"search_terms":["звевегем","兹韦弗海姆","زوئووژم","zwevegem"]},{"id":293067,"name":"Zikhron Ya'aqov","names":{"en":"Zikhron Ya'aqov","de":"Zichron Ja’akow"},"country":"IL","lat":32.56645,"lon":34.95628,"pop":23206,"search_terms":["zichron ja’akow","zikhron ya'aqov","zikhron ya‘aqov"]},{"id":2474506,"name":"Zeribet el Oued","names":{"en":"Zeribet el Oued"},"country":"DZ","lat":34.68284,"lon":6.51109,"pop":23187,"search_terms":["zeribet el oued"]},{"id":3514134,"name":"Zacualtipan","names":{"en":"Zacualtipan"},"country":"MX","lat":20.65002,"lon":-98.65628,"pop":23125,"search_terms":["zacualtipan"]},{"id":1162285,"name":"Zafarwal","names":{"en":"Zafarwal","fa":"ظفروال","fr":"Zafarwal","ur":"ظفروال","nl":"Zafarwāl"},"country":"PK","lat":32.34464,"lon":74.8999,"pop":23078,"search_terms":["ظفروال","zafarwal","zafarwāl"]},{"id":8400151,"name":"Zhuxi","names":{"en":"Zhuxi","zh":"竹溪"},"country":"CN","lat":31.12443,"lon":108.29065,"pop":22900,"search_terms":["竹溪镇","竹溪","zhuxi"]},{"id":753895,"name":"Zambrow","names":{"en":"Zambrow","uk":"Замбрув","ru":"Замбрув","zh":"贊布魯夫"},"country":"PL","lat":52.9855,"lon":22.24319,"pop":22857,"search_terms":["贊布魯夫","замбрув","zambrów","zambrow"]},{"id":3979727,"name":"Zapotiltic","names":{"en":"Zapotiltic","es":"Zapotiltic"},"country":"MX","lat":19.62749,"lon":-103.41752,"pop":22833,"search_terms":["zapotiltic"]},{"id":3104316,"name":"Zarautz","names":{"en":"Zarautz","es":"Zarauz","fr":"Zarautz","de":"Zarautz","it":"Zarautz","nl":"Zarautz","pt":"Zarautz"},"country":"ES","lat":43.28444,"lon":-2.16992,"pop":22627,"search_terms":["zarauz","zarautz"]},{"id":686896,"name":"Zolochiv","names":{"en":"Zolochiv","pl":"Złoczów","uk":"Золочів","ru":"Золочев","de":"Solotschiw","fr":"Zolotchiv","ar":"زولوتشيف","ja":"ゾーロチウ","ro":"Zolociv","fa":"تسلوکتسوف","ko":"졸로치우","cs":"Zoločiv","sv":"Zolotjiv","zh":"佐洛乔夫","it":"Zolochiv","hy":"Զոլոչև","ka":"ზოლოჩევი","es":"Zolochiv","nl":"Zolochiv","tt":"Золочив","vi":"Zolochiv"},"country":"UA","lat":49.8074,"lon":24.90376,"pop":22608,"search_terms":["золочев","zolochiv","zolotchiv","zolociv","զոլոչև","zoločiv","złoczów","золочів","ゾーロチウ","졸로치우","золочив","زولوتشيف","ზოლოჩევი","zolotjiv","solotschiw","佐洛乔夫","تسلوکتسوف"]},{"id":737081,"name":"Zekeriya","names":{"en":"Zekeriya"},"country":"TR","lat":41.19806,"lon":29.03028,"pop":22558,"search_terms":["zekeriya"]},{"id":686919,"name":"Znamyanka","names":{"en":"Znamyanka","fr":"Znamianka","ru":"Знаменка","uk":"Знам’янка","de":"Snamjanka"},"country":"UA","lat":48.72066,"lon":32.65822,"pop":22444,"search_terms":["znamyanka","snamjanka","znamianka","знаменка","знам’янка"]},{"id":1784452,"name":"Zhongchao","names":{"en":"Zhongchao"},"country":"CN","lat":26.1375,"lon":109.22,"pop":22129,"search_terms":["zhongchao"]},{"id":1784074,"name":"Zhouzhuang","names":{"en":"Zhouzhuang","ru":"Чжоучжуан","zh":"周庄镇"},"country":"CN","lat":31.11788,"lon":120.84427,"pop":22000,"search_terms":["zhouzhuang","周庄镇","чжоучжуан"]},{"id":2783308,"name":"Zedelgem","names":{"en":"Zedelgem","fr":"Zedelgem","nl":"Zedelgem","pt":"Zedelgem","sv":"Zedelgem","pl":"Zedelgem","ru":"Зедельгем","fa":"زودلژم","zh":"泽德尔海姆"},"country":"BE","lat":51.14236,"lon":3.1368,"pop":21968,"search_terms":["زودلژم","泽德尔海姆","zedelgem","зедельгем"]},{"id":1783956,"name":"Zhouqu Chengguanzhen","names":{"en":"Zhouqu Chengguanzhen","zh":"舟曲城关镇"},"country":"CN","lat":33.78417,"lon":104.36278,"pop":21967,"search_terms":["舟曲县","舟曲","舟曲城关镇","zhouqu chengguanzhen"]},{"id":1284225,"name":"Zalun","names":{"en":"Zalun"},"country":"MM","lat":17.47941,"lon":95.55924,"pop":21947,"search_terms":["zalun"]},{"id":2474638,"name":"Zemoura","names":{"en":"Zemoura"},"country":"DZ","lat":35.72251,"lon":0.75509,"pop":21770,"search_terms":["zemoura"]},{"id":2353436,"name":"Zabre","names":{"en":"Zabre"},"country":"BF","lat":11.1825,"lon":-0.63222,"pop":21726,"search_terms":["zabre"]},{"id":3514163,"name":"Zacatepec","names":{"en":"Zacatepec","es":"Zacatepec de Hidalgo"},"country":"MX","lat":18.65409,"lon":-99.18981,"pop":21586,"search_terms":["zacatepec","zacatepec de hidalgo"]},{"id":584614,"name":"Zabrat","names":{"en":"Zabrat","ru":"Забрат","az":"Zabrat","sv":"Zabrat","fr":"Zabrat","ja":"ザブラト","fa":"زبرات","pl":"Zabrat","ur":"زبرت","nl":"Zabrat"},"country":"AZ","lat":40.47746,"lon":49.94174,"pop":21396,"search_terms":["زبرت","زبرات","забрат","ザブラト","zabrat"]},{"id":1517323,"name":"Zhangaqorghan","names":{"en":"Zhangaqorghan","kk":"Zhangaqorghan","ru":"Яныкурган"},"country":"KZ","lat":43.90652,"lon":67.24637,"pop":21339,"search_terms":["zhangaqorghan","жаңақорған","жанакорган","яныкурган"],"_key":"z","dumk_id":9295},{"id":463885,"name":"Zelenchukskaya","names":{"en":"Zelenchukskaya","ru":"Зеленчукская"},"country":"RU","lat":43.85495,"lon":41.59019,"pop":21117,"search_terms":["zelenchukskaya","зеленчукская"]},{"id":2783274,"name":"Zemst","names":{"en":"Zemst","ru":"Земст","fa":"زامست","zh":"泽姆斯特"},"country":"BE","lat":50.98318,"lon":4.46079,"pop":21096,"search_terms":["земст","زامست","泽姆斯特","zemst"]},{"id":12489819,"name":"Zhuantang","names":{"en":"Zhuantang","zh":"篆塘镇"},"country":"CN","lat":28.8963,"lon":106.66835,"pop":21048,"search_terms":["篆塘","zhuantang","篆塘镇"]},{"id":2463941,"name":"Zaouiet Sousse","names":{"en":"Zaouiet Sousse"},"country":"TN","lat":35.78553,"lon":10.62725,"pop":20992,"search_terms":["zaouiet sousse"]},{"id":6295498,"name":"Zuerich (Kreis 3) / Sihlfeld","names":{"en":"Zuerich (Kreis 3) / Sihlfeld"},"country":"CH","lat":47.37382,"lon":8.51164,"pop":20977,"search_terms":["zuerich (kreis 3) / sihlfeld"]},{"id":2464041,"name":"Zaghouan","names":{"en":"Zaghouan","ar":"زغوان","el":"Ζαγκουάν","fa":"زغوان","ko":"자구완","tr":"Zağvan","uk":"Загуан","zh":"宰格萬"},"country":"TN","lat":36.40291,"lon":10.14292,"pop":20798,"search_terms":["زغوان","자구완","ζαγκουάν","zaghouan","загуан","宰格萬","zağvan"]},{"id":12450950,"name":"Zhongshan","names":{"en":"Zhongshan","zh":"中山"},"country":"CN","lat":28.85541,"lon":106.33602,"pop":20509,"search_terms":["zhongshan","中山"]},{"id":3061695,"name":"Zgar nad Sazavou","names":{"en":"Zgar nad Sazavou","fa":"ژدار ناد سازاوو","uk":"Ждяр-над-Сазавою","pl":"Zdziar nad Sazawą","ru":"Ждяр-над-Сазавоу","zh":"薩扎瓦河畔日賈爾","ar":"جديار ناد سازافو"},"country":"CZ","lat":49.56263,"lon":15.93924,"pop":20404,"search_terms":["薩扎瓦河畔日賈爾","zdziar nad sazawą","ждяр-над-сазавою","جديار ناد سازافو","zdar","ждяр-над-сазавоу","zgar nad sazavou","ژدار ناد سازاوو"]},{"id":1783701,"name":"Zishui","names":{"en":"Zishui","zh":"紫水"},"country":"CN","lat":31.41281,"lon":108.31465,"pop":20396,"search_terms":["zishui","紫水乡","紫水"]},{"id":1783858,"name":"Zhuoshui","names":{"en":"Zhuoshui","zh":"濯水"},"country":"CN","lat":29.30309,"lon":108.7702,"pop":20386,"search_terms":["濯水","zhuoshui","濯水镇"]},{"id":2783293,"name":"Zele","names":{"en":"Zele","ru":"Зеле","fa":"زل","uk":"Зеле","zh":"泽莱"},"country":"BE","lat":51.06566,"lon":4.0403,"pop":20236,"search_terms":["zele","زل","зеле","泽莱"]},{"id":2803723,"name":"Zuelpich","names":{"en":"Zulpich","de":"Zülpich","fr":"Tolbiac","nl":"Tolbiac","sv":"Zülpich","ru":"Цюльпих"},"country":"DE","lat":50.69447,"lon":6.65414,"pop":20208,"search_terms":["slaget vid tulpiacum","zülpich","zulpich","tolbiac","zuelpich","цюльпих"]},{"id":610864,"name":"Zestaponi","names":{"en":"Zestaponi","ru":"Зестафони","ka":"Zestaponi"},"country":"GE","lat":42.10752,"lon":43.03291,"pop":20183,"search_terms":["zetaponi","zest’aponi","zestaponi","zestap'oni","ზესთაფონი","ზესტაფონი","зестафони"]},{"id":1516519,"name":"Zhosaly","names":{"en":"Zhosaly","kk":"Zhosaly","ru":"Джусалы"},"country":"KZ","lat":45.48778,"lon":64.07806,"pop":20065,"search_terms":["жосалы","zhosaly","джусалы"],"_key":"z","dumk_id":9358},{"id":6295504,"name":"Zuerich (Kreis 6) / Unterstrass","names":{"en":"Zuerich (Kreis 6) / Unterstrass"},"country":"CH","lat":47.3953,"lon":8.53721,"pop":20045,"search_terms":["zuerich (kreis 6) / unterstrass"]},{"id":464176,"name":"Zavety Il'icha","names":{"en":"Zavety Il'icha","ru":"Заветы Ильича"},"country":"RU","lat":56.04284,"lon":37.85153,"pop":20000,"search_terms":["заветы ильича","zavety il'icha"]},{"id":6723020,"name":"Zhuravlivka","names":{"en":"Zhuravlivka","uk":"Dal’nya Zhuravlivka"},"country":"UA","lat":50.0125,"lon":36.27214,"pop":20000,"search_terms":["zhuravlivka","дальня журавлівка","журавлівка","dal’nya zhuravlivka"]},{"id":2783188,"name":"Zonhoven","names":{"en":"Zonhoven","fr":"Zonhoven","nl":"Zonhoven","fa":"زونووان","th":"โซนโฮเฟิน","ru":"Зонховен","zh":"宗霍芬"},"country":"BE","lat":50.99064,"lon":5.36819,"pop":19922,"search_terms":["зонховен","zonhoven","زونووان","โซนโฮเฟิน","宗霍芬"]},{"id":69426,"name":"Zinjibar","names":{"en":"Zinjibar","ar":"زنجبار"},"country":"YE","lat":13.12871,"lon":45.38073,"pop":19879,"search_terms":["zinjibar","زنجبار"]},{"id":462822,"name":"Zhukovka","names":{"en":"Zhukovka","ru":"Жуковка","de":"Schukowka"},"country":"RU","lat":53.53381,"lon":33.73075,"pop":19690,"search_terms":["schukowka","жуковка","zhukovka"]},{"id":2353332,"name":"Zinguedesse","names":{"en":"Zinguedesse"},"country":"BF","lat":12.24661,"lon":-1.58402,"pop":19648,"search_terms":["zinguedesse"]},{"id":1784207,"name":"Zhongzhai","names":{"en":"Zhongzhai","zh":"中寨"},"country":"CN","lat":33.19133,"lon":104.42009,"pop":19641,"search_terms":["zhongzhai","中寨"]},{"id":3062119,"name":"Zabovresky","names":{"en":"Zabovresky","cs":"Brno-Žabovřesky"},"country":"CZ","lat":49.21395,"lon":16.57253,"pop":19387,"search_terms":["brno-žabovřesky","zabovresky"]},{"id":937136,"name":"Zeerust","names":{"en":"Zeerust"},"country":"ZA","lat":-25.53695,"lon":26.07512,"pop":19154,"search_terms":["zeerust"]},{"id":2743997,"name":"Zeewolde","names":{"en":"Zeewolde"},"country":"NL","lat":52.33,"lon":5.54167,"pop":19022,"search_terms":["zeewolde"]},{"id":2509305,"name":"Zubia","names":{"en":"Zubia","es":"La Zubia"},"country":"ES","lat":37.11906,"lon":-3.584,"pop":18995,"search_terms":["zubia","la zubia"]},{"id":3061822,"name":"Zatec","names":{"en":"Zatec","de":"Saaz","pl":"Žatec","cs":"Žatec","ja":"ジャテツ","ru":"Жатец","zh":"扎泰茨","kk":"Жатец"},"country":"CZ","lat":50.32717,"lon":13.54577,"pop":18959,"search_terms":["ジャテツ","saaz","扎泰茨","žatec","zatec","жатец"]},{"id":3061473,"name":"Zidenice","names":{"en":"Zidenice","de":"Schimitz","cs":"Brno-Židenice"},"country":"CZ","lat":49.19654,"lon":16.64738,"pop":18920,"search_terms":["schimitz","zidenice","brno-židenice"]},{"id":8400142,"name":"Zhendong","names":{"en":"Zhendong","zh":"镇东"},"country":"CN","lat":31.18517,"lon":108.39544,"pop":18819,"search_terms":["镇东街道","镇东","zhendong"]},{"id":3186781,"name":"Zapresic","names":{"en":"Zapresic","fa":"زاپرشیچ","uk":"Запрешич","ja":"ザプレシチ","ru":"Запрешич","zh":"扎普雷希奇","ar":"زابرشيتش","cs":"Zaprešić","de":"Zaprešić","es":"Zaprešić","fr":"Zaprešić","it":"Zaprešić","ko":"자프레시치","nl":"Zaprešić","pl":"Zaprešić","ro":"Zaprešić","sv":"Zaprešić","tr":"Zaprešić","ur":"زاپریشیچ","vi":"Zaprešić"},"country":"HR","lat":45.85639,"lon":15.80778,"pop":18768,"search_terms":["запрешич","زاپرشیچ","zapresic","zaprešić","زابرشيتش","زاپریشیچ","ザプレシチ","扎普雷希奇","자프레시치"]},{"id":937246,"name":"Zastron","names":{"en":"Zastron"},"country":"ZA","lat":-30.30225,"lon":27.08395,"pop":18699,"search_terms":["zastron"]},{"id":162560,"name":"Zakiyah","names":{"en":"Zakiyah","ar":"زاكية"},"country":"SY","lat":33.33406,"lon":36.1588,"pop":18553,"search_terms":["زاكية","zakiyah"]},{"id":3080071,"name":"Zlotow","names":{"en":"Zlotow","uk":"Злотув","ru":"Злотув","zh":"茲沃圖夫","de":"Flatow","sv":"Flatow","nl":"Flatow"},"country":"PL","lat":53.36346,"lon":17.04082,"pop":18395,"search_terms":["flatow","茲沃圖夫","злотув","zlotow"]},{"id":2783081,"name":"Zwijndrecht","names":{"en":"Zwijndrecht","fa":"زوئیژندرکت","uk":"Звейндрехт","ru":"Звейндрехт","zh":"兹韦恩德雷赫特"},"country":"BE","lat":51.21979,"lon":4.32664,"pop":18249,"search_terms":["兹韦恩德雷赫特","zwijndrecht","звейндрехт","زوئیژندرکت"]},{"id":3979822,"name":"Zacoalco de Torres","names":{"en":"Zacoalco de Torres","es":"Capilla del Cerrito"},"country":"MX","lat":20.22627,"lon":-103.56981,"pop":18172,"search_terms":["capilla del cerrito","zacoalco de torres"]},{"id":2390731,"name":"Zinvie","names":{"en":"Zinvie"},"country":"BJ","lat":6.61738,"lon":2.35776,"pop":18157,"search_terms":["zinvie"]},{"id":13546522,"name":"Zhulyany","names":{"en":"Zhulyany","uk":"Жуляни"},"country":"UA","lat":50.39428,"lon":30.44057,"pop":18000,"search_terms":["zhulyany","жуляни"]},{"id":2659310,"name":"Zuerich (Kreis 11) / Oerlikon","names":{"en":"Zuerich (Kreis 11) / Oerlikon"},"country":"CH","lat":47.40823,"lon":8.54258,"pop":17922,"search_terms":["zuerich (kreis 11) / oerlikon"]},{"id":462984,"name":"Zhirnovsk","names":{"en":"Zhirnovsk","ru":"Жирновск"},"country":"RU","lat":50.97879,"lon":44.77894,"pop":17887,"search_terms":["zhirnovsk","жирновск"]},{"id":686818,"name":"Zuhres","names":{"en":"Zuhres","ru":"Зугрэс","uk":"Зугрес","cs":"Zuhres","de":"Suhres","fa":"زوهرس","fr":"Zouhres","hy":"Զուգրես","it":"Zuhres","ka":"ზუგრესი","pl":"Zuhres","ro":"Zuhres","sv":"Zuhres","tt":"Зуһрес","vi":"Zuhres","zh":"祖赫雷斯"},"country":"UA","lat":48.01428,"lon":38.26599,"pop":17871,"search_terms":["зуһрес","зугрес","زوهرس","zouhres","suhres","ზუგრესი","зугрэс","祖赫雷斯","զուգրես","zuhres"]},{"id":2658656,"name":"Zuerich (Kreis 11) / Seebach","names":{"en":"Zuerich (Kreis 11) / Seebach"},"country":"CH","lat":47.42181,"lon":8.54779,"pop":17851,"search_terms":["zuerich (kreis 11) / seebach"]},{"id":235826,"name":"Zemio","names":{"en":"Zemio","fr":"Zémio","de":"Zémio","sv":"Zémio","it":"Zemio","ja":"ゼミオ","fa":"زمیو","pl":"Zemio","nl":"Zemio"},"country":"CF","lat":5.03144,"lon":25.13614,"pop":17829,"search_terms":["زمیو","zémio","zemio","ゼミオ"]},{"id":464790,"name":"Zapolyarnyy","names":{"en":"Zapolyarnyy","ru":"Заполярный"},"country":"RU","lat":69.426,"lon":30.811,"pop":17789,"search_terms":["zapolyarnyy","заполярный"]},{"id":462522,"name":"Zimovniki","names":{"en":"Zimovniki","ru":"Зимовники"},"country":"RU","lat":47.14623,"lon":42.47044,"pop":17678,"search_terms":["зимовники","zimovniki"]},{"id":1517060,"name":"Zaysan","names":{"en":"Zaysan","kk":"Zaysan","ru":"Зайсан","tt":"Зәйсән","de":"Saissan","pt":"Zaysan","fr":"Zaïssan","uk":"Зайсан","sv":"Zaysan","el":"Ζαϊσάν","zh":"斋桑","ar":"زايسان","ja":"ザイサン","az":"Zaysan","fa":"زایسان","pl":"Zajsan","nl":"Zaysan"},"country":"KZ","lat":47.46657,"lon":84.87144,"pop":17600,"search_terms":["ζαϊσάν","زایسان","saissan","زايسان","zajsan","ザイサン","zaïssan","зәйсән","zaysan","зайсан","斋桑"],"_key":"z","dumk_id":95},{"id":2474583,"name":"Zeralda","names":{"en":"Zeralda"},"country":"DZ","lat":36.71169,"lon":2.84244,"pop":17563,"search_terms":["zeralda"]},{"id":753276,"name":"Zielonka","names":{"en":"Zielonka","ru":"Зеленка","uk":"Зельонка","zh":"傑隆卡"},"country":"PL","lat":52.30376,"lon":21.16018,"pop":17518,"search_terms":["zielonka","зеленка","傑隆卡","зелёнка","зельонка"]},{"id":2279513,"name":"Zaibo","names":{"en":"Zaibo"},"country":"CI","lat":6.9893,"lon":-6.66673,"pop":17406,"search_terms":["zaibo"]},{"id":619066,"name":"Zaslawye","names":{"en":"Zaslawye","ru":"Заславль","de":"Saslauje","ja":"ザスラーウエ","uk":"Заславль","pl":"Zasław","sv":"Zaslaŭje","zh":"扎斯拉夫爾"},"country":"BY","lat":54.0114,"lon":27.2695,"pop":17404,"search_terms":["заславль","zaslawye","zasław","zaslaŭje","saslauje","ザスラーウエ","扎斯拉夫爾"]},{"id":2783197,"name":"Zolder","names":{"en":"Zolder","es":"Zolder","de":"Zolder","it":"Zolder","ja":"ゾルダー・サーキット","nl":"Zolder","sv":"Zolder"},"country":"BE","lat":51.02455,"lon":5.30983,"pop":17289,"search_terms":["zolder","ゾルダー・サーキット"]},{"id":6295484,"name":"Zuerich (Kreis 11) / Affoltern","names":{"en":"Zuerich (Kreis 11) / Affoltern"},"country":"CH","lat":47.41814,"lon":8.5122,"pop":17241,"search_terms":["zuerich (kreis 11) / affoltern"]},{"id":2803870,"name":"Zossen","names":{"en":"Zossen","fa":"سوزه","kk":"Цоссен","ru":"Цоссен","zh":"措森","hy":"Ցոսեն"},"country":"DE","lat":52.216,"lon":13.44909,"pop":17138,"search_terms":["سوزه","цоссен","zossen","措森","ցոսեն"]},{"id":2660306,"name":"Zuerich (Kreis 10) / Hoengg","names":{"en":"Zuerich (Kreis 10) / Hoengg"},"country":"CH","lat":47.40313,"lon":8.4971,"pop":17117,"search_terms":["zuerich (kreis 10) / hoengg"]},{"id":13580320,"name":"Zvirynets","names":{"en":"Zvirynets","uk":"Звіринець"},"country":"UA","lat":50.41626,"lon":30.5492,"pop":17000,"search_terms":["zvirynets","звіринець"]},{"id":783770,"name":"Zvecan","names":{"en":"Zvecan"},"country":"XK","lat":42.9075,"lon":20.84028,"pop":17000,"search_terms":["zvecan"]},{"id":3056523,"name":"Ziar nad Hronom","names":{"en":"Ziar nad Hronom"},"country":"SK","lat":48.59184,"lon":18.84958,"pop":16955,"search_terms":["ziar nad hronom"]},{"id":7648817,"name":"Zuunmod","names":{"en":"Zuunmod"},"country":"MN","lat":47.70693,"lon":106.95276,"pop":16953,"search_terms":["zuunmod"]},{"id":3818398,"name":"Zarumilla","names":{"en":"Zarumilla"},"country":"PE","lat":-3.50306,"lon":-80.27306,"pop":16907,"search_terms":["zarumilla"]},{"id":2390740,"name":"Ze","names":{"en":"Ze"},"country":"BJ","lat":6.78333,"lon":2.3,"pop":16903,"search_terms":["ze"]},{"id":2744042,"name":"Zandvoort","names":{"en":"Zandvoort","pl":"Zandvoort","fr":"Zandvoort","id":"Zandvoort","it":"Zandvoort","nl":"Zandvoort","sv":"Zandvoort","ru":"Зандвоорт","de":"Zandvoort"},"country":"NL","lat":52.37125,"lon":4.53306,"pop":16868,"search_terms":["зандвоорт","zandvoort"]},{"id":1784089,"name":"Zhouxi","names":{"en":"Zhouxi"},"country":"CN","lat":26.48333,"lon":107.91667,"pop":16859,"search_terms":["zhouxi"]},{"id":2472838,"name":"Zeramedine","names":{"en":"Zeramedine","fr":"Zéramdine","ar":"زرمدين"},"country":"TN","lat":35.57525,"lon":10.73456,"pop":16806,"search_terms":["زرمدين","zeramedine","zéramdine"]},{"id":13308748,"name":"Zhuzilin","names":{"en":"Zhuzilin"},"country":"CN","lat":22.53811,"lon":114.01504,"pop":16800,"search_terms":["zhuzilin"]},{"id":3514051,"name":"Zaragoza","names":{"en":"Zaragoza"},"country":"MX","lat":19.77097,"lon":-97.55506,"pop":16752,"search_terms":["zaragoza"]},{"id":1906095,"name":"Zhaoxing","names":{"en":"Zhaoxing"},"country":"CN","lat":25.91083,"lon":109.17639,"pop":16737,"search_terms":["zhaoxing"]},{"id":8406675,"name":"Zhongling","names":{"en":"Zhongling","zh":"钟灵"},"country":"CN","lat":28.29675,"lon":108.95841,"pop":16530,"search_terms":["钟灵","钟灵乡","zhongling","马路口"]},{"id":686803,"name":"Zvenyhorodka","names":{"en":"Zvenyhorodka","fr":"Zvényhorodka","ru":"Звенигородка","uk":"Звенигородка","de":"Swenyhorodka","ar":"زفينيهورودكا","fa":"زونیهورودکا","hy":"Զվենիգորոդկա","ka":"ზვეინიგოროდკა","ro":"Zvenîhorodka","pl":"Zwinogródka","zh":"茲韋尼戈羅德卡"},"country":"UA","lat":49.07765,"lon":30.96074,"pop":16490,"search_terms":["زفينيهورودكا","զվենիգորոդկա","茲韋尼戈羅德卡","zwinogródka","звенигородка","zvenyhorodka","swenyhorodka","ზვეინიგოროდკა","zvényhorodka","zvenîhorodka","زونیهورودکا"]},{"id":6295512,"name":"Zuerich (Kreis 9) / Albisrieden","names":{"en":"Zuerich (Kreis 9) / Albisrieden"},"country":"CH","lat":47.37398,"lon":8.49007,"pop":16480,"search_terms":["zuerich (kreis 9) / albisrieden"]},{"id":4346788,"name":"Zachary","names":{"en":"Zachary","tt":"Закари","de":"Zachary","ru":"Закари","pt":"Zachary","fr":"Zachary","uk":"Закарі","sv":"Zachary","ko":"재커리","uz":"Zachary","it":"Zachary","es":"Zachary","zh":"扎卡里","ar":"زاكاري","ja":"ザカリー","fa":"زکری، لوئیزیانا","pl":"Zachary","nl":"Zachary","tr":"Zachary"},"country":"US","lat":30.64852,"lon":-91.1565,"pop":16448,"search_terms":["재커리","закари","扎卡里","zachary","ザカリー","زاكاري","زکری، لوئیزیانا","закарі"]},{"id":2509377,"name":"Zafra","names":{"en":"Zafra","ja":"サフラ","uk":"Сафра","ar":"صفراء، بطليوس","ru":"Сафра","zh":"萨夫拉"},"country":"ES","lat":38.42539,"lon":-6.41734,"pop":16424,"search_terms":["萨夫拉","صفراء، بطليوس","сафра","zafra","サフラ"]},{"id":461920,"name":"Zvenigorod","names":{"en":"Zvenigorod","ru":"Звенигород","es":"Zvenígorod","ko":"즈베니고로드","ja":"ズヴェニゴロド","az":"Zveniqorod","fa":"زونیگورود","ar":"زفينيغورود","tg":"Звенигород","zh":"兹韦尼哥罗德","pl":"Zwienigorod","tt":"Звенигород","uk":"Звенигород"},"country":"RU","lat":55.73401,"lon":36.85918,"pop":16395,"search_terms":["zvenígorod","zveniqorod","زفينيغورود","zwienigorod","ズヴェニゴロド","زونیگورود","兹韦尼哥罗德","zvenigorod","즈베니고로드","звенигород"]},{"id":8403620,"name":"Zhushan","names":{"en":"Zhushan","zh":"柱山"},"country":"CN","lat":30.73294,"lon":108.27419,"pop":16331,"search_terms":["zhushan","柱山乡","柱山"]},{"id":1679360,"name":"Zumarraga","names":{"en":"Zumarraga"},"country":"PH","lat":11.6388,"lon":124.8417,"pop":16279,"search_terms":["zumarraga"]},{"id":11725,"name":"Zir Ab","names":{"en":"Zir Ab","fa":"بالا زيراب"},"country":"IR","lat":36.1797,"lon":52.97348,"pop":16191,"search_terms":["zir ab","بالا زيراب","زير آب"]},{"id":7326411,"name":"Zhongba","names":{"en":"Zhongba","zh":"中坝"},"country":"CN","lat":34.03511,"lon":105.03286,"pop":16160,"search_terms":["中坝","zhongba"]},{"id":6295495,"name":"Zuerich (Kreis 2) / Wollishofen","names":{"en":"Zuerich (Kreis 2) / Wollishofen"},"country":"CH","lat":47.3401,"lon":8.53134,"pop":16073,"search_terms":["zuerich (kreis 2) / wollishofen"]},{"id":463217,"name":"Zherdevka","names":{"en":"Zherdevka","ru":"Жердевка"},"country":"RU","lat":51.85429,"lon":41.45488,"pop":16019,"search_terms":["zherdevka","жердевка","zherdëvka"]},{"id":3163853,"name":"Zola Predosa","names":{"en":"Zola Predosa"},"country":"IT","lat":44.48967,"lon":11.21831,"pop":15965,"search_terms":["zola predosa"]},