[{"id":90000020,"name":"Bayyldyr","names":{"kk":"Байылдыр","ru":"Байылдыр","en":"Bayyldyr"},"country":"KZ","lat":43.551853,"lon":68.484386,"pop":0,"dumk_id":11285,"search_terms":["bayyldyr","байылдыр"]},{"id":90000035,"name":"Bayyrqum","names":{"kk":"Байырқұм","ru":"Байыркум","en":"Bayyrqum"},"country":"KZ","lat":42.118038,"lon":68.144652,"pop":0,"dumk_id":11303,"search_terms":["bayyrqum","байырқұм","байыркум"]},{"id":90000037,"name":"Beksol","names":{"kk":"Бексөл","ru":"Бексол","en":"Beksol"},"country":"KZ","lat":46.173857,"lon":81.098835,"pop":0,"dumk_id":11306,"search_terms":["бексөл","бексол","beksol"]},{"id":90000049,"name":"Baqyrsha","names":{"kk":"Бақырша","ru":"Бакырша","en":"Baqyrsha"},"country":"KZ","lat":42.174861,"lon":68.840568,"pop":0,"dumk_id":11324,"search_terms":["бақырша","baqyrsha","бакырша"]},{"id":90000052,"name":"Baytoghay","names":{"kk":"Байтоғай","ru":"Байтогай","en":"Baytoghay"},"country":"KZ","lat":41.911292,"lon":68.139065,"pop":0,"dumk_id":11327,"search_terms":["байтогай","baytoghay","байтоғай"]},{"id":90000055,"name":"Bulaq","names":{"kk":"Бұлақ","ru":"Булак","en":"Bulaq"},"country":"KZ","lat":41.879975,"lon":68.740173,"pop":0,"dumk_id":11330,"search_terms":["бұлақ","булак","bulaq"]},{"id":90000059,"name":"Beregovoe","names":{"kk":"Береговое","ru":"Береговое","en":"Beregovoe"},"country":"KZ","lat":53.132622,"lon":75.877602,"pop":0,"dumk_id":11333,"search_terms":["береговое","beregovoe"]},{"id":90000074,"name":"Beyisterek","names":{"kk":"Бейистерек","ru":"Бейистерек","en":"Beyisterek"},"country":"KZ","lat":49.917349,"lon":50.012014,"pop":0,"dumk_id":11266,"search_terms":["beyisterek","бейистерек"]},{"id":90000090,"name":"Besqaraghay","names":{"kk":"Бесқарағай","ru":"Бескарагай","en":"Besqaraghay"},"country":"KZ","lat":51.373691,"lon":77.899799,"pop":0,"dumk_id":11336,"search_terms":["besqaraghay","бесқарағай","бескарагай"]},{"id":90000094,"name":"Bostandyq (Qarasu a.o.)","names":{"kk":"Бостандық (Қарасу а.о.)","ru":"Бостандык (Карасу а.о.)","en":"Bostandyq (Qarasu a.o.)"},"country":"KZ","lat":49.437238,"lon":49.692749,"pop":0,"dumk_id":11354,"search_terms":["бостандык (карасу а.о.)","бостандық (қарасу а.о.)","bostandyq (qarasu a.o.)"]},{"id":90000105,"name":"Birlik","names":{"kk":"Бірлік","ru":"Бирлик","en":"Birlik"},"country":"KZ","lat":54.140458,"lon":67.68069,"pop":0,"dumk_id":11363,"search_terms":["бирлик","бірлік","birlik"]},{"id":90000110,"name":"Bayqongyr","names":{"kk":"Байқоңыр","ru":"Байконыр","en":"Bayqongyr"},"country":"KZ","lat":45.966111,"lon":63.307778,"pop":0,"dumk_id":44,"search_terms":["bayqongyr","байқоңыр","байконыр"]},{"id":90000138,"name":"Bulaev","names":{"kk":"Булаев","ru":"Булаев","en":"Bulaev"},"country":"KZ","lat":54.896056,"lon":70.448157,"pop":0,"dumk_id":171,"search_terms":["булаев","bulaev"]},{"id":90000142,"name":"BESTOBE auyly","names":{"kk":"БЕСТӨБЕ ауылы","ru":"БЕСТОБЕ ауылы","en":"BESTOBE auyly"},"country":"KZ","lat":52.499766,"lon":73.099292,"pop":0,"dumk_id":5732,"search_terms":["bestobe auyly","бестөбе ауылы","бестобе ауылы"]},{"id":90000149,"name":"Borly","names":{"kk":"Борлы","ru":"Борлы","en":"Borly"},"country":"KZ","lat":49.661641,"lon":80.009726,"pop":0,"dumk_id":5759,"search_terms":["borly","борлы"]},{"id":90000165,"name":"Bayqoshqar","names":{"kk":"Байқошқар","ru":"Байкошкар","en":"Bayqoshqar"},"country":"KZ","lat":48.394896,"lon":78.752184,"pop":0,"dumk_id":5775,"search_terms":["bayqoshqar","байкошкар","байқошқар"]},{"id":90000166,"name":"Barshatas","names":{"kk":"Баршатас","ru":"Баршатас","en":"Barshatas"},"country":"KZ","lat":48.173318,"lon":78.665766,"pop":0,"dumk_id":5776,"search_terms":["barshatas","баршатас"]},{"id":90000167,"name":"Bidayyq","names":{"kk":"Бидайық","ru":"Бидайык","en":"Bidayyq"},"country":"KZ","lat":47.824992,"lon":78.705274,"pop":0,"dumk_id":5777,"search_terms":["bidayyq","бидайык","бидайық"]},{"id":90000177,"name":"Batpaq","names":{"kk":"Батпақ","ru":"Батпак","en":"Batpaq"},"country":"KZ","lat":47.876013,"lon":80.063122,"pop":0,"dumk_id":5787,"search_terms":["батпак","батпақ","batpaq"]},{"id":90000178,"name":"Bozay","names":{"kk":"Бозай","ru":"Бозай","en":"Bozay"},"country":"KZ","lat":47.875421,"lon":80.17339,"pop":0,"dumk_id":5788,"search_terms":["бозай","bozay"]},{"id":90000188,"name":"Biesimas","names":{"kk":"Биесімас","ru":"Биесимас","en":"Biesimas"},"country":"KZ","lat":48.149061,"lon":81.138738,"pop":0,"dumk_id":5798,"search_terms":["биесимас","биесімас","biesimas"]},{"id":90000205,"name":"Bokenshi","names":{"kk":"Бөкенші","ru":"Бокенши","en":"Bokenshi"},"country":"KZ","lat":50.487885,"lon":79.720343,"pop":0,"dumk_id":5815,"search_terms":["бөкенші","бокенши","bokenshi"]},{"id":90000229,"name":"Bashkul","names":{"kk":"Башкүл","ru":"Башкул","en":"Bashkul"},"country":"KZ","lat":51.189737,"lon":79.300653,"pop":0,"dumk_id":5839,"search_terms":["башкүл","bashkul","башкул"]},{"id":90000231,"name":"Begen","names":{"kk":"Беген","ru":"Беген","en":"Begen"},"country":"KZ","lat":51.185537,"lon":79.045674,"pop":0,"dumk_id":5841,"search_terms":["беген","begen"]},{"id":90000232,"name":"Besqaraghay","names":{"kk":"Бесқарағай","ru":"Бескарагай","en":"Besqaraghay"},"country":"KZ","lat":50.886017,"lon":79.480935,"pop":0,"dumk_id":5842,"search_terms":["besqaraghay","бесқарағай","бескарагай"]},{"id":90000233,"name":"Birlik","names":{"kk":"Бірлік","ru":"Бирлик","en":"Birlik"},"country":"KZ","lat":50.514328,"lon":79.70785,"pop":0,"dumk_id":5843,"search_terms":["бирлик","бірлік","birlik"]},{"id":90000255,"name":"Bekovka","names":{"kk":"Бековка","ru":"Бековка","en":"Bekovka"},"country":"KZ","lat":50.844888,"lon":80.73499,"pop":0,"dumk_id":5865,"search_terms":["bekovka","бековка"]},{"id":90000256,"name":"Bel-aghach","names":{"kk":"Бел-ағач","ru":"Бел-агач","en":"Bel-aghach"},"country":"KZ","lat":50.768137,"lon":80.66596,"pop":0,"dumk_id":5866,"search_terms":["бел-агач","бел-ағач","bel-aghach"]},{"id":90000259,"name":"Baryshovka","names":{"kk":"Барышовка","ru":"Барышовка","en":"Baryshovka"},"country":"KZ","lat":50.555074,"lon":80.944217,"pop":0,"dumk_id":5869,"search_terms":["baryshovka","барышовка"]},{"id":90000260,"name":"Borodulikha","names":{"kk":"Бородулиха","ru":"Бородулиха","en":"Borodulikha"},"country":"KZ","lat":50.713574,"lon":80.936258,"pop":0,"dumk_id":5870,"search_terms":["borodulikha","бородулиха"]},{"id":90000265,"name":"Borovlyanka","names":{"kk":"Боровлянка","ru":"Боровлянка","en":"Borovlyanka"},"country":"KZ","lat":50.479323,"lon":81.234355,"pop":0,"dumk_id":5875,"search_terms":["боровлянка","borovlyanka"]},{"id":90000268,"name":"Baytanat","names":{"kk":"Байтанат","ru":"Байтанат","en":"Baytanat"},"country":"KZ","lat":50.847544,"lon":80.196917,"pop":0,"dumk_id":5878,"search_terms":["baytanat","байтанат"]},{"id":90000277,"name":"Berezovka sharua qozhalyghy","names":{"kk":"Березовка шаруа қожалығы","ru":"Березовка шаруа кожалыгы","en":"Berezovka sharua qozhalyghy"},"country":"KZ","lat":50.841982,"lon":81.013441,"pop":0,"dumk_id":5887,"search_terms":["березовка шаруа қожалығы","berezovka sharua qozhalyghy","березовка шаруа кожалыгы"]},{"id":90000278,"name":"Berezovka","names":{"kk":"Березовка","ru":"Березовка","en":"Berezovka"},"country":"KZ","lat":50.852986,"lon":80.991801,"pop":0,"dumk_id":5888,"search_terms":["berezovka","березовка"]},{"id":90000302,"name":"Bogomolovo","names":{"kk":"Богомолово","ru":"Богомолово","en":"Bogomolovo"},"country":"KZ","lat":50.735619,"lon":81.49192,"pop":0,"dumk_id":5912,"search_terms":["bogomolovo","богомолово"]},{"id":90000303,"name":"Burkotovo","names":{"kk":"Буркотово","ru":"Буркотово","en":"Burkotovo"},"country":"KZ","lat":50.743343,"lon":81.520809,"pop":0,"dumk_id":5913,"search_terms":["буркотово","burkotovo"]},{"id":90000310,"name":"Balyqtykol","names":{"kk":"Балықтыкөл","ru":"Балыктыкол","en":"Balyqtykol"},"country":"KZ","lat":49.159613,"lon":80.891172,"pop":0,"dumk_id":5920,"search_terms":["балыктыкол","balyqtykol","балықтыкөл"]},{"id":90000311,"name":"Belterek","names":{"kk":"Белтерек","ru":"Белтерек","en":"Belterek"},"country":"KZ","lat":49.216979,"lon":80.730193,"pop":0,"dumk_id":5921,"search_terms":["belterek","белтерек"]},{"id":90000313,"name":"Birlik","names":{"kk":"Бірлік","ru":"Бирлик","en":"Birlik"},"country":"KZ","lat":49.406175,"lon":81.44448,"pop":0,"dumk_id":5923,"search_terms":["бирлик","бірлік","birlik"]},{"id":90000329,"name":"Balyqtykol","names":{"kk":"Балықтыкөл","ru":"Балыктыкол","en":"Balyqtykol"},"country":"KZ","lat":49.128823,"lon":80.925064,"pop":0,"dumk_id":5940,"search_terms":["балыктыкол","balyqtykol","балықтыкөл"]},{"id":90000344,"name":"Bighash","names":{"kk":"Біғаш","ru":"Бигаш","en":"Bighash"},"country":"KZ","lat":48.63829,"lon":82.009933,"pop":0,"dumk_id":5955,"search_terms":["bighash","біғаш","бигаш"]},{"id":90000368,"name":"Baqty","names":{"kk":"Бақты","ru":"Бакты","en":"Baqty"},"country":"KZ","lat":46.658117,"lon":82.725612,"pop":0,"dumk_id":5980,"search_terms":["бақты","бакты","baqty"]},{"id":90000377,"name":"Barlyq-arasan","names":{"kk":"Барлық-арасан","ru":"Барлык-арасан","en":"Barlyq-arasan"},"country":"KZ","lat":46.106385,"lon":82.31793,"pop":0,"dumk_id":5989,"search_terms":["барлык-арасан","barlyq-arasan","барлық-арасан"]},{"id":90000378,"name":"Bughybay","names":{"kk":"Бұғыбай","ru":"Бугыбай","en":"Bughybay"},"country":"KZ","lat":46.714478,"lon":82.563736,"pop":0,"dumk_id":5990,"search_terms":["бугыбай","бұғыбай","bughybay"]},{"id":90000381,"name":"Beket","names":{"kk":"Бекет","ru":"Бекет","en":"Beket"},"country":"KZ","lat":46.77231,"lon":82.046674,"pop":0,"dumk_id":5993,"search_terms":["beket","бекет"]},{"id":90000389,"name":"Barqytbel","names":{"kk":"Барқытбел","ru":"Баркытбел","en":"Barqytbel"},"country":"KZ","lat":47.193925,"lon":81.514126,"pop":0,"dumk_id":6001,"search_terms":["баркытбел","барқытбел","barqytbel"]},{"id":90000390,"name":"Batpaqty","names":{"kk":"Батпақты","ru":"Батпакты","en":"Batpaqty"},"country":"KZ","lat":47.245072,"lon":81.484518,"pop":0,"dumk_id":6002,"search_terms":["батпақты","батпакты","batpaqty"]},{"id":90000392,"name":"Besterek","names":{"kk":"Бестерек","ru":"Бестерек","en":"Besterek"},"country":"KZ","lat":47.165652,"lon":81.618798,"pop":0,"dumk_id":6004,"search_terms":["besterek","бестерек"]},{"id":90000408,"name":"Burgon","names":{"kk":"Бургон","ru":"Бургон","en":"Burgon"},"country":"KZ","lat":47.180176,"lon":81.865107,"pop":0,"dumk_id":6020,"search_terms":["бургон","burgon"]},{"id":90000420,"name":"Bukebay","names":{"kk":"Букебай","ru":"Букебай","en":"Bukebay"},"country":"KZ","lat":51.052286,"lon":79.472758,"pop":0,"dumk_id":6032,"search_terms":["букебай","bukebay"]},{"id":90000421,"name":"Begenskiy leskhoz","names":{"kk":"Бегенский лесхоз","ru":"Бегенский лесхоз","en":"Begenskiy leskhoz"},"country":"KZ","lat":51.188994,"lon":78.999445,"pop":0,"dumk_id":6033,"search_terms":["бегенский лесхоз","begenskiy leskhoz"]},{"id":90000425,"name":"Bodene","names":{"kk":"Бөдене","ru":"Бодене","en":"Bodene"},"country":"KZ","lat":50.616714,"lon":79.11513,"pop":0,"dumk_id":6037,"search_terms":["бөдене","бодене","bodene"]},{"id":90000426,"name":"Belokamenka","names":{"kk":"Белокаменка","ru":"Белокаменка","en":"Belokamenka"},"country":"KZ","lat":50.557277,"lon":79.600696,"pop":0,"dumk_id":6038,"search_terms":["belokamenka","белокаменка"]},{"id":90000457,"name":"Baydala","names":{"kk":"Байдала","ru":"Байдала","en":"Baydala"},"country":"KZ","lat":50.638993,"lon":72.155846,"pop":0,"dumk_id":6069,"search_terms":["baydala","байдала"]},{"id":90000458,"name":"Bersuat","names":{"kk":"Берсуат","ru":"Берсуат","en":"Bersuat"},"country":"KZ","lat":50.663596,"lon":72.120623,"pop":0,"dumk_id":6070,"search_terms":["bersuat","берсуат"]},{"id":90000460,"name":"Bulaqsay","names":{"kk":"Бұлақсай","ru":"Булаксай","en":"Bulaqsay"},"country":"KZ","lat":51.287807,"lon":72.093655,"pop":0,"dumk_id":6072,"search_terms":["бұлақсай","bulaqsay","булаксай"]},{"id":90000462,"name":"Bereke","names":{"kk":"Береке","ru":"Береке","en":"Bereke"},"country":"KZ","lat":51.17982,"lon":71.998856,"pop":0,"dumk_id":6074,"search_terms":["береке","bereke"]},{"id":90000467,"name":"Beloyarka","names":{"kk":"Белоярка","ru":"Белоярка","en":"Beloyarka"},"country":"KZ","lat":50.966677,"lon":72.953334,"pop":0,"dumk_id":6079,"search_terms":["белоярка","beloyarka"]},{"id":90000478,"name":"Babatay","names":{"kk":"Бабатай","ru":"Бабатай","en":"Babatay"},"country":"KZ","lat":50.970304,"lon":71.847387,"pop":0,"dumk_id":6090,"search_terms":["бабатай","babatay"]},{"id":90000489,"name":"Besbidayyq","names":{"kk":"Бесбидайық","ru":"Бесбидайык","en":"Besbidayyq"},"country":"KZ","lat":51.207721,"lon":69.338612,"pop":0,"dumk_id":6101,"search_terms":["бесбидайық","бесбидайык","besbidayyq"]},{"id":90000511,"name":"Bulaqty","names":{"kk":"Бұлақты","ru":"Булакты","en":"Bulaqty"},"country":"KZ","lat":51.409238,"lon":69.305518,"pop":0,"dumk_id":6123,"search_terms":["bulaqty","бұлақты","булакты"]},{"id":90000514,"name":"Bastau","names":{"kk":"Бастау","ru":"Бастау","en":"Bastau"},"country":"KZ","lat":51.785557,"lon":68.846829,"pop":0,"dumk_id":6126,"search_terms":["бастау","bastau"]},{"id":90000515,"name":"Borisovka","names":{"kk":"Борисовка","ru":"Борисовка","en":"Borisovka"},"country":"KZ","lat":51.888259,"lon":68.540046,"pop":0,"dumk_id":6127,"search_terms":["борисовка","borisovka"]},{"id":90000520,"name":"Beyis khaziret","names":{"kk":"Бейис хазирет","ru":"Бейис хазирет","en":"Beyis khaziret"},"country":"KZ","lat":51.772797,"lon":69.051762,"pop":0,"dumk_id":6132,"search_terms":["бейис хазирет","beyis khaziret"]},{"id":90000544,"name":"Baymyrza","names":{"kk":"Баймырза","ru":"Баймырза","en":"Baymyrza"},"country":"KZ","lat":52.471188,"lon":70.749704,"pop":0,"dumk_id":6156,"search_terms":["баймырза","baymyrza"]},{"id":90000546,"name":"Birsuat","names":{"kk":"Бірсуат","ru":"Бирсуат","en":"Birsuat"},"country":"KZ","lat":52.704612,"lon":70.969863,"pop":0,"dumk_id":6158,"search_terms":["birsuat","бірсуат","бирсуат"]},{"id":90000560,"name":"Bulandy","names":{"kk":"Бұланды","ru":"Буланды","en":"Bulandy"},"country":"KZ","lat":52.650089,"lon":70.47711,"pop":0,"dumk_id":6172,"search_terms":["bulandy","буланды","бұланды"]},{"id":90000571,"name":"Baysuat","names":{"kk":"Байсуат","ru":"Байсуат","en":"Baysuat"},"country":"KZ","lat":52.54867,"lon":70.275938,"pop":0,"dumk_id":6183,"search_terms":["baysuat","байсуат"]},{"id":90000583,"name":"Baluan sholaq","names":{"kk":"Балуан шолақ","ru":"Балуан шолак","en":"Baluan sholaq"},"country":"KZ","lat":52.215603,"lon":70.184793,"pop":0,"dumk_id":6195,"search_terms":["балуан шолак","балуан шолақ","baluan sholaq"]},{"id":90000590,"name":"Boyarka","names":{"kk":"Боярка","ru":"Боярка","en":"Boyarka"},"country":"KZ","lat":52.373455,"lon":70.612576,"pop":0,"dumk_id":6202,"search_terms":["боярка","boyarka"]},{"id":90000595,"name":"Budenovka","names":{"kk":"Буденовка","ru":"Буденовка","en":"Budenovka"},"country":"KZ","lat":52.095079,"lon":69.629841,"pop":0,"dumk_id":6207,"search_terms":["budenovka","буденовка"]},{"id":90000609,"name":"Bayanbay","names":{"kk":"Баянбай","ru":"Баянбай","en":"Bayanbay"},"country":"KZ","lat":53.020998,"lon":69.953141,"pop":0,"dumk_id":6221,"search_terms":["bayanbay","баянбай"]},{"id":90000610,"name":"Brusilovka","names":{"kk":"Брусиловка","ru":"Брусиловка","en":"Brusilovka"},"country":"KZ","lat":52.972236,"lon":69.856626,"pop":0,"dumk_id":6222,"search_terms":["brusilovka","брусиловка"]},{"id":90000611,"name":"Burabay","names":{"kk":"Бурабай","ru":"Бурабай","en":"Burabay"},"country":"KZ","lat":53.082337,"lon":70.306888,"pop":0,"dumk_id":6223,"search_terms":["burabay","бурабай"]},{"id":90000661,"name":"Baumanskoe","names":{"kk":"Бауманское","ru":"Бауманское","en":"Baumanskoe"},"country":"KZ","lat":51.111992,"lon":68.914212,"pop":0,"dumk_id":6273,"search_terms":["baumanskoe","бауманское"]},{"id":90000662,"name":"Burevestnik","names":{"kk":"Буревестник","ru":"Буревестник","en":"Burevestnik"},"country":"KZ","lat":51.020869,"lon":69.851326,"pop":0,"dumk_id":6274,"search_terms":["burevestnik","буревестник"]},{"id":90000671,"name":"Baysary","names":{"kk":"Байсары","ru":"Байсары","en":"Baysary"},"country":"KZ","lat":51.960472,"lon":72.660376,"pop":0,"dumk_id":6283,"search_terms":["байсары","baysary"]},{"id":90000672,"name":"Bestoghay","names":{"kk":"Бестоғай","ru":"Бестогай","en":"Bestoghay"},"country":"KZ","lat":51.976576,"lon":72.643639,"pop":0,"dumk_id":6284,"search_terms":["bestoghay","бестогай","бестоғай"]},{"id":90000674,"name":"Boztal","names":{"kk":"Бозтал","ru":"Бозтал","en":"Boztal"},"country":"KZ","lat":51.537127,"lon":73.810186,"pop":0,"dumk_id":6286,"search_terms":["бозтал","boztal"]},{"id":90000688,"name":"Balyqty","names":{"kk":"Балықты","ru":"Балыкты","en":"Balyqty"},"country":"KZ","lat":51.629696,"lon":72.725628,"pop":0,"dumk_id":6300,"search_terms":["балықты","balyqty","балыкты"]},{"id":90000707,"name":"Buzylyq","names":{"kk":"Бұзылық","ru":"Бузылык","en":"Buzylyq"},"country":"KZ","lat":51.900464,"lon":66.218376,"pop":0,"dumk_id":6319,"search_terms":["бұзылық","бузылык","buzylyq"]},{"id":90000710,"name":"Belagash","names":{"kk":"Белагаш","ru":"Белагаш","en":"Belagash"},"country":"KZ","lat":51.844475,"lon":67.369218,"pop":0,"dumk_id":6322,"search_terms":["белагаш","belagash"]},{"id":90000711,"name":"Belovodskoy","names":{"kk":"Беловодской","ru":"Беловодской","en":"Belovodskoy"},"country":"KZ","lat":51.811356,"lon":67.918277,"pop":0,"dumk_id":6323,"search_terms":["беловодской","belovodskoy"]},{"id":90000730,"name":"Birsuat","names":{"kk":"Бірсуат","ru":"Бирсуат","en":"Birsuat"},"country":"KZ","lat":50.787672,"lon":66.916143,"pop":0,"dumk_id":6342,"search_terms":["birsuat","бірсуат","бирсуат"]},{"id":90000749,"name":"Bayterek","names":{"kk":"Бәйтерек","ru":"Байтерек","en":"Bayterek"},"country":"KZ","lat":52.907498,"lon":68.949246,"pop":0,"dumk_id":6362,"search_terms":["байтерек","бәйтерек","bayterek"]},{"id":90000755,"name":"Bogenbay bi","names":{"kk":"Бөгенбай би","ru":"Богенбай би","en":"Bogenbay bi"},"country":"KZ","lat":52.750811,"lon":69.183401,"pop":0,"dumk_id":6368,"search_terms":["бөгенбай би","bogenbay bi","богенбай би"]},{"id":90000761,"name":"Birlestik","names":{"kk":"Бірлестік","ru":"Бирлестик","en":"Birlestik"},"country":"KZ","lat":53.538376,"lon":69.237839,"pop":0,"dumk_id":6374,"search_terms":["бірлестік","birlestik","бирлестик"]},{"id":90000789,"name":"Baratay","names":{"kk":"Баратай","ru":"Баратай","en":"Baratay"},"country":"KZ","lat":53.413014,"lon":68.597754,"pop":0,"dumk_id":6402,"search_terms":["baratay","баратай"]},{"id":90000811,"name":"Bektesin","names":{"kk":"Бектесін","ru":"Бектесин","en":"Bektesin"},"country":"KZ","lat":53.48139,"lon":68.935188,"pop":0,"dumk_id":6424,"search_terms":["бектесін","bektesin","бектесин"]},{"id":90000819,"name":"Bulaq","names":{"kk":"Бұлақ","ru":"Булак","en":"Bulaq"},"country":"KZ","lat":53.35869,"lon":68.954376,"pop":0,"dumk_id":6432,"search_terms":["бұлақ","булак","bulaq"]},{"id":90000836,"name":"Balkashino","names":{"kk":"Балкашино","ru":"Балкашино","en":"Balkashino"},"country":"KZ","lat":52.520621,"lon":68.753369,"pop":0,"dumk_id":6449,"search_terms":["balkashino","балкашино"]},{"id":90000838,"name":"Baraqpay","names":{"kk":"Барақпай","ru":"Баракпай","en":"Baraqpay"},"country":"KZ","lat":52.242177,"lon":67.939962,"pop":0,"dumk_id":6451,"search_terms":["баракпай","baraqpay","барақпай"]},{"id":90000840,"name":"Belgorodskoe","names":{"kk":"Белгородское","ru":"Белгородское","en":"Belgorodskoe"},"country":"KZ","lat":52.480914,"lon":69.17184,"pop":0,"dumk_id":6453,"search_terms":["белгородское","belgorodskoe"]},{"id":90000850,"name":"Bogoslovka","names":{"kk":"Богословка","ru":"Богословка","en":"Bogoslovka"},"country":"KZ","lat":52.344408,"lon":68.788232,"pop":0,"dumk_id":6463,"search_terms":["bogoslovka","богословка"]},{"id":90000852,"name":"Bystrimovka","names":{"kk":"Быстримовка","ru":"Быстримовка","en":"Bystrimovka"},"country":"KZ","lat":52.48274,"lon":68.510931,"pop":0,"dumk_id":6465,"search_terms":["bystrimovka","быстримовка"]},{"id":90000864,"name":"Bogorodka","names":{"kk":"Богородка","ru":"Богородка","en":"Bogorodka"},"country":"KZ","lat":52.24054,"lon":68.773698,"pop":0,"dumk_id":6477,"search_terms":["bogorodka","богородка"]},{"id":90000868,"name":"Baydaly","names":{"kk":"Байдалы","ru":"Байдалы","en":"Baydaly"},"country":"KZ","lat":52.347808,"lon":68.323022,"pop":0,"dumk_id":6481,"search_terms":["байдалы","baydaly"]},{"id":90000900,"name":"Birlik","names":{"kk":"Бірлік","ru":"Бирлик","en":"Birlik"},"country":"KZ","lat":50.944833,"lon":70.834235,"pop":0,"dumk_id":6513,"search_terms":["бирлик","бірлік","birlik"]},{"id":90000929,"name":"Bektau","names":{"kk":"Бектау","ru":"Бектау","en":"Bektau"},"country":"KZ","lat":51.772791,"lon":71.223503,"pop":0,"dumk_id":6542,"search_terms":["bektau","бектау"]},{"id":90000932,"name":"Bozayghyr","names":{"kk":"Бозайғыр","ru":"Бозайгыр","en":"Bozayghyr"},"country":"KZ","lat":51.47198,"lon":71.206835,"pop":0,"dumk_id":6545,"search_terms":["bozayghyr","бозайгыр","бозайғыр"]},{"id":90000954,"name":"Bayqonys","names":{"kk":"Байқоныс","ru":"Байконыс","en":"Bayqonys"},"country":"KZ","lat":52.165271,"lon":72.522254,"pop":0,"dumk_id":6567,"search_terms":["bayqonys","байқоныс","байконыс"]},{"id":90000955,"name":"Bestobe","names":{"kk":"Бестөбе","ru":"Бестобе","en":"Bestobe"},"country":"KZ","lat":52.499765,"lon":73.099296,"pop":0,"dumk_id":6568,"search_terms":["бестобе","бестөбе","bestobe"]},{"id":90000957,"name":"Bogenbay","names":{"kk":"Бөгенбай","ru":"Богенбай","en":"Bogenbay"},"country":"KZ","lat":52.442732,"lon":72.320594,"pop":0,"dumk_id":6570,"search_terms":["bogenbay","богенбай","бөгенбай"]},{"id":90000972,"name":"Bayzhankol","names":{"kk":"Байжанкөл","ru":"Байжанкол","en":"Bayzhankol"},"country":"KZ","lat":50.23699,"lon":61.631435,"pop":0,"dumk_id":6585,"search_terms":["bayzhankol","байжанкол","байжанкөл"]},{"id":90000976,"name":"Belqopa","names":{"kk":"Белқопа","ru":"Белкопа","en":"Belqopa"},"country":"KZ","lat":50.071269,"lon":59.601728,"pop":0,"dumk_id":6589,"search_terms":["белқопа","belqopa","белкопа"]},{"id":90000994,"name":"Bestamaq","names":{"kk":"Бестамақ","ru":"Бестамак","en":"Bestamaq"},"country":"KZ","lat":50.047084,"lon":57.349822,"pop":0,"dumk_id":6607,"search_terms":["bestamaq","бестамак","бестамақ"]},{"id":90001008,"name":"Bulgharqa","names":{"kk":"Бұлғарқа","ru":"Булгарка","en":"Bulgharqa"},"country":"KZ","lat":49.647323,"lon":56.530541,"pop":0,"dumk_id":6621,"search_terms":["булгарка","бұлғарқа","bulgharqa"]},{"id":90001032,"name":"Bulaqtykol","names":{"kk":"Бұлақтыкөл","ru":"Булактыкол","en":"Bulaqtykol"},"country":"KZ","lat":48.228399,"lon":56.643899,"pop":0,"dumk_id":6645,"search_terms":["булактыкол","бұлақтыкөл","bulaqtykol"]},{"id":90001035,"name":"Besbay","names":{"kk":"Бесбай","ru":"Бесбай","en":"Besbay"},"country":"KZ","lat":47.210602,"lon":55.474275,"pop":0,"dumk_id":6648,"search_terms":["besbay","бесбай"]},{"id":90001039,"name":"Barshakum","names":{"kk":"Баршакум","ru":"Баршакум","en":"Barshakum"},"country":"KZ","lat":48.083422,"lon":55.575955,"pop":0,"dumk_id":6652,"search_terms":["barshakum","баршакум"]},{"id":90001054,"name":"Belsher","names":{"kk":"Белшер","ru":"Белшер","en":"Belsher"},"country":"KZ","lat":48.778902,"lon":62.28487,"pop":0,"dumk_id":6667,"search_terms":["belsher","белшер"]},{"id":90001060,"name":"Bogenbay","names":{"kk":"Бөгенбай","ru":"Богенбай","en":"Bogenbay"},"country":"KZ","lat":50.941627,"lon":58.207839,"pop":0,"dumk_id":6673,"search_terms":["bogenbay","богенбай","бөгенбай"]},{"id":90001064,"name":"Boztobe","names":{"kk":"Бозтөбе","ru":"Бозтобе","en":"Boztobe"},"country":"KZ","lat":50.881234,"lon":58.508299,"pop":0,"dumk_id":6677,"search_terms":["бозтөбе","бозтобе","boztobe"]},{"id":90001066,"name":"Badamsha","names":{"kk":"Бадамша","ru":"Бадамша","en":"Badamsha"},"country":"KZ","lat":50.562267,"lon":58.279048,"pop":0,"dumk_id":6679,"search_terms":["badamsha","бадамша"]},{"id":90001087,"name":"Baynassay","names":{"kk":"Байнассай","ru":"Байнассай","en":"Baynassay"},"country":"KZ","lat":50.513273,"lon":56.096852,"pop":0,"dumk_id":6700,"search_terms":["baynassay","байнассай"]},{"id":90001089,"name":"Baytorysay","names":{"kk":"Байторысай","ru":"Байторысай","en":"Baytorysay"},"country":"KZ","lat":50.9592,"lon":56.780515,"pop":0,"dumk_id":6702,"search_terms":["байторысай","baytorysay"]},{"id":90001104,"name":"Borte","names":{"kk":"Бөрте","ru":"Борте","en":"Borte"},"country":"KZ","lat":50.97185,"lon":57.299103,"pop":0,"dumk_id":6717,"search_terms":["бөрте","borte","борте"]},{"id":90001127,"name":"Bulaqty","names":{"kk":"Бұлақты","ru":"Булакты","en":"Bulaqty"},"country":"KZ","lat":49.180575,"lon":58.419536,"pop":0,"dumk_id":6740,"search_terms":["bulaqty","бұлақты","булакты"]},{"id":90001149,"name":"Birlik","names":{"kk":"Бірлік","ru":"Бирлик","en":"Birlik"},"country":"KZ","lat":49.49351,"lon":56.189253,"pop":0,"dumk_id":6762,"search_terms":["бирлик","бірлік","birlik"]},{"id":90001155,"name":"Babatay","names":{"kk":"Бабатай","ru":"Бабатай","en":"Babatay"},"country":"KZ","lat":49.298037,"lon":55.637346,"pop":0,"dumk_id":6768,"search_terms":["бабатай","babatay"]},{"id":90001159,"name":"Bashenkol","names":{"kk":"Башенкөл","ru":"Башенкол","en":"Bashenkol"},"country":"KZ","lat":48.43556,"lon":57.175567,"pop":0,"dumk_id":6772,"search_terms":["bashenkol","башенкөл","башенкол"]},{"id":90001176,"name":"Bestamaq","names":{"kk":"Бестамақ","ru":"Бестамак","en":"Bestamaq"},"country":"KZ","lat":49.719248,"lon":55.064553,"pop":0,"dumk_id":6789,"search_terms":["bestamaq","бестамак","бестамақ"]},{"id":90001187,"name":"Besqudyq","names":{"kk":"Бесқұдық","ru":"Бескудык","en":"Besqudyq"},"country":"KZ","lat":49.975995,"lon":55.361338,"pop":0,"dumk_id":6800,"search_terms":["besqudyq","бесқұдық","бескудык"]},{"id":90001188,"name":"Bestau","names":{"kk":"Бестау","ru":"Бестау","en":"Bestau"},"country":"KZ","lat":50.321512,"lon":56.014719,"pop":0,"dumk_id":6801,"search_terms":["бестау","bestau"]},{"id":90001190,"name":"Bulaq","names":{"kk":"Бұлақ","ru":"Булак","en":"Bulaq"},"country":"KZ","lat":50.095049,"lon":56.114684,"pop":0,"dumk_id":6803,"search_terms":["бұлақ","булак","bulaq"]},{"id":90001199,"name":"Baytaq","names":{"kk":"Байтақ","ru":"Байтак","en":"Baytaq"},"country":"KZ","lat":50.104664,"lon":55.7776,"pop":0,"dumk_id":6812,"search_terms":["байтак","baytaq","байтақ"]},{"id":90001214,"name":"Begaly","names":{"kk":"Бегалы","ru":"Бегалы","en":"Begaly"},"country":"KZ","lat":49.83055,"lon":55.223142,"pop":0,"dumk_id":6827,"search_terms":["begaly","бегалы"]},{"id":90001221,"name":"Bogetsay","names":{"kk":"Бөгетсай","ru":"Богетсай","en":"Bogetsay"},"country":"KZ","lat":50.125309,"lon":59.09444,"pop":0,"dumk_id":6834,"search_terms":["богетсай","бөгетсай","bogetsay"]},{"id":90001242,"name":"Begimbet","names":{"kk":"Бегімбет","ru":"Бегимбет","en":"Begimbet"},"country":"KZ","lat":47.09212,"lon":59.068066,"pop":0,"dumk_id":6855,"search_terms":["бегімбет","бегимбет","begimbet"]},{"id":90001248,"name":"Bozoy","names":{"kk":"Бозой","ru":"Бозой","en":"Bozoy"},"country":"KZ","lat":46.222064,"lon":58.818702,"pop":0,"dumk_id":6861,"search_terms":["бозой","bozoy"]},{"id":90001252,"name":"Bayqadam","names":{"kk":"Байқадам","ru":"Байкадам","en":"Bayqadam"},"country":"KZ","lat":47.353615,"lon":59.231658,"pop":0,"dumk_id":6865,"search_terms":["байкадам","байқадам","bayqadam"]},{"id":90001269,"name":"Besqospa","names":{"kk":"Бесқоспа","ru":"Бескоспа","en":"Besqospa"},"country":"KZ","lat":50.010273,"lon":57.437776,"pop":0,"dumk_id":6882,"search_terms":["бесқоспа","бескоспа","besqospa"]},{"id":90001288,"name":"Baqanas","names":{"kk":"Бақанас","ru":"Баканас","en":"Baqanas"},"country":"KZ","lat":44.806724,"lon":76.274244,"pop":0,"dumk_id":6901,"search_terms":["бақанас","baqanas","баканас"]},{"id":90001289,"name":"Boyauly","names":{"kk":"Бояулы","ru":"Бояулы","en":"Boyauly"},"country":"KZ","lat":44.835884,"lon":76.182301,"pop":0,"dumk_id":6902,"search_terms":["boyauly","бояулы"]},{"id":90001291,"name":"Baqbaqty","names":{"kk":"Бақбақты","ru":"Бакбакты","en":"Baqbaqty"},"country":"KZ","lat":44.565315,"lon":76.718155,"pop":0,"dumk_id":6904,"search_terms":["baqbaqty","бакбакты","бақбақты"]},{"id":90001292,"name":"Balatopar","names":{"kk":"Балатопар","ru":"Балатопар","en":"Balatopar"},"country":"KZ","lat":45.050341,"lon":74.617301,"pop":0,"dumk_id":6905,"search_terms":["балатопар","balatopar"]},{"id":90001293,"name":"Bereke","names":{"kk":"Береке","ru":"Береке","en":"Bereke"},"country":"KZ","lat":45.034591,"lon":76.127396,"pop":0,"dumk_id":6906,"search_terms":["береке","bereke"]},{"id":90001294,"name":"Bura","names":{"kk":"Бура","ru":"Бура","en":"Bura"},"country":"KZ","lat":44.935363,"lon":76.01967,"pop":0,"dumk_id":6907,"search_terms":["бура","bura"]},{"id":90001295,"name":"Birlik","names":{"kk":"Бірлік","ru":"Бирлик","en":"Birlik"},"country":"KZ","lat":44.703094,"lon":76.730983,"pop":0,"dumk_id":6908,"search_terms":["бирлик","бірлік","birlik"]},{"id":90001315,"name":"Bayterek","names":{"kk":"Бәйтерек","ru":"Байтерек","en":"Bayterek"},"country":"KZ","lat":43.39961,"lon":77.22423,"pop":0,"dumk_id":6928,"search_terms":["байтерек","бәйтерек","bayterek"]},{"id":90001317,"name":"Bayseyit","names":{"kk":"Байсейіт","ru":"Байсейит","en":"Bayseyit"},"country":"KZ","lat":43.572111,"lon":78.347133,"pop":0,"dumk_id":6930,"search_terms":["байсейіт","bayseyit","байсейит"]},{"id":90001320,"name":"Bolek","names":{"kk":"Бөлек","ru":"Болек","en":"Bolek"},"country":"KZ","lat":43.40656,"lon":77.42027,"pop":0,"dumk_id":6933,"search_terms":["bolek","бөлек","болек"]},{"id":90001322,"name":"Baydibek bi","names":{"kk":"Байдібек би","ru":"Байдибек би","en":"Baydibek bi"},"country":"KZ","lat":43.512181,"lon":77.69236,"pop":0,"dumk_id":6935,"search_terms":["байдибек би","baydibek bi","байдібек би"]},{"id":90001323,"name":"Bazarkeldi","names":{"kk":"Базаркелді","ru":"Базаркелди","en":"Bazarkeldi"},"country":"KZ","lat":43.544901,"lon":77.282872,"pop":0,"dumk_id":6936,"search_terms":["bazarkeldi","базаркелди","базаркелді"]},{"id":90001359,"name":"Bayanday","names":{"kk":"Баяндай","ru":"Баяндай","en":"Bayanday"},"country":"KZ","lat":43.487345,"lon":77.413883,"pop":0,"dumk_id":6972,"search_terms":["баяндай","bayanday"]},{"id":90001369,"name":"Baltabay","names":{"kk":"Балтабай","ru":"Балтабай","en":"Baltabay"},"country":"KZ","lat":43.504551,"lon":77.546007,"pop":0,"dumk_id":6982,"search_terms":["балтабай","baltabay"]},{"id":90001372,"name":"Birlik","names":{"kk":"Бірлік","ru":"Бирлик","en":"Birlik"},"country":"KZ","lat":43.499176,"lon":77.519291,"pop":0,"dumk_id":6985,"search_terms":["бирлик","бірлік","birlik"]},{"id":90001391,"name":"Beriktas","names":{"kk":"Беріктас","ru":"Бериктас","en":"Beriktas"},"country":"KZ","lat":43.269225,"lon":75.716669,"pop":0,"dumk_id":7004,"search_terms":["бериктас","beriktas","беріктас"]},{"id":90001392,"name":"Bozoy","names":{"kk":"Бозой","ru":"Бозой","en":"Bozoy"},"country":"KZ","lat":44.160447,"lon":76.098821,"pop":0,"dumk_id":7005,"search_terms":["бозой","bozoy"]},{"id":90001393,"name":"Besmoynaq","names":{"kk":"Бесмойнақ","ru":"Бесмойнак","en":"Besmoynaq"},"country":"KZ","lat":43.11778,"lon":75.681176,"pop":0,"dumk_id":7006,"search_terms":["бесмойнак","бесмойнақ","besmoynaq"]},{"id":90001394,"name":"Bulaq","names":{"kk":"Бұлақ","ru":"Булак","en":"Bulaq"},"country":"KZ","lat":43.221556,"lon":75.833989,"pop":0,"dumk_id":7007,"search_terms":["бұлақ","булак","bulaq"]},{"id":90001399,"name":"Burghan","names":{"kk":"Бұрған","ru":"Бурган","en":"Burghan"},"country":"KZ","lat":43.121294,"lon":76.110301,"pop":0,"dumk_id":7012,"search_terms":["burghan","бұрған","бурган"]},{"id":90001415,"name":"Balghabek Qydyrbekuly","names":{"kk":"Балғабек Қыдырбекұлы","ru":"Балгабек Кыдырбекулы","en":"Balghabek Qydyrbekuly"},"country":"KZ","lat":43.360205,"lon":76.27481,"pop":0,"dumk_id":7028,"search_terms":["balghabek qydyrbekuly","балғабек қыдырбекұлы","балгабек кыдырбекулы"]},{"id":90001428,"name":"Birlik","names":{"kk":"Бірлік","ru":"Бирлик","en":"Birlik"},"country":"KZ","lat":43.211832,"lon":76.134233,"pop":0,"dumk_id":7041,"search_terms":["бирлик","бірлік","birlik"]},{"id":90001449,"name":"Baykent","names":{"kk":"Байкент","ru":"Байкент","en":"Baykent"},"country":"KZ","lat":43.470161,"lon":76.806415,"pop":0,"dumk_id":7062,"search_terms":["байкент","baykent"]},{"id":90001457,"name":"Bayserke","names":{"kk":"Байсерке","ru":"Байсерке","en":"Bayserke"},"country":"KZ","lat":43.489634,"lon":77.040615,"pop":0,"dumk_id":7070,"search_terms":["байсерке","bayserke"]},{"id":90001471,"name":"Bereke","names":{"kk":"Береке","ru":"Береке","en":"Bereke"},"country":"KZ","lat":43.374911,"lon":76.710008,"pop":0,"dumk_id":7086,"search_terms":["береке","bereke"]},{"id":90001477,"name":"Batan","names":{"kk":"Батан","ru":"Батан","en":"Batan"},"country":"KZ","lat":43.274903,"lon":76.653288,"pop":0,"dumk_id":7092,"search_terms":["batan","батан"]},{"id":90001488,"name":"Bekbolat Ashekeev","names":{"kk":"Бекболат Ашекеев","ru":"Бекболат Ашекеев","en":"Bekbolat Ashekeev"},"country":"KZ","lat":43.168746,"lon":76.476311,"pop":0,"dumk_id":7103,"search_terms":["bekbolat ashekeev","бекболат ашекеев"]},{"id":90001492,"name":"Bulaqty","names":{"kk":"Бұлақты","ru":"Булакты","en":"Bulaqty"},"country":"KZ","lat":43.218468,"lon":76.744099,"pop":0,"dumk_id":7107,"search_terms":["bulaqty","бұлақты","булакты"]},{"id":90001520,"name":"Boleksaz","names":{"kk":"Бөлексаз","ru":"Болексаз","en":"Boleksaz"},"country":"KZ","lat":42.947435,"lon":79.128901,"pop":0,"dumk_id":7135,"search_terms":["болексаз","boleksaz","бөлексаз"]},{"id":90001577,"name":"Bereke","names":{"kk":"Береке","ru":"Береке","en":"Bereke"},"country":"KZ","lat":43.29137,"lon":77.313927,"pop":0,"dumk_id":7192,"search_terms":["береке","bereke"]},{"id":90001581,"name":"Baybulaq","names":{"kk":"Байбұлақ","ru":"Байбулак","en":"Baybulaq"},"country":"KZ","lat":43.282996,"lon":77.188864,"pop":0,"dumk_id":7196,"search_terms":["baybulaq","байбулак","байбұлақ"]},{"id":90001586,"name":"Belbulaq","names":{"kk":"Белбұлақ","ru":"Белбулак","en":"Belbulaq"},"country":"KZ","lat":43.31443,"lon":77.099787,"pop":0,"dumk_id":7201,"search_terms":["белбұлақ","belbulaq","белбулак"]},{"id":90001587,"name":"Birlik","names":{"kk":"Бірлік","ru":"Бирлик","en":"Birlik"},"country":"KZ","lat":43.30896,"lon":77.142897,"pop":0,"dumk_id":7202,"search_terms":["бирлик","бірлік","birlik"]},{"id":90001590,"name":"Besaghash","names":{"kk":"Бесағаш","ru":"Бесагаш","en":"Besaghash"},"country":"KZ","lat":43.299394,"lon":77.037093,"pop":0,"dumk_id":7205,"search_terms":["бесагаш","besaghash","бесағаш"]},{"id":90001591,"name":"Besqaynar","names":{"kk":"Бесқайнар","ru":"Бескайнар","en":"Besqaynar"},"country":"KZ","lat":43.215998,"lon":77.10179,"pop":0,"dumk_id":7206,"search_terms":["бескайнар","besqaynar","бесқайнар"]},{"id":90001618,"name":"Bakhar","names":{"kk":"Бахар","ru":"Бахар","en":"Bakhar"},"country":"KZ","lat":43.580588,"lon":79.453022,"pop":0,"dumk_id":7233,"search_terms":["bakhar","бахар"]},{"id":90001651,"name":"Bodene","names":{"kk":"Бөдене","ru":"Бодене","en":"Bodene"},"country":"KZ","lat":48.395093,"lon":51.646912,"pop":0,"dumk_id":7266,"search_terms":["бөдене","бодене","bodene"]},{"id":90001683,"name":"Buqar","names":{"kk":"Бұқар","ru":"Букар","en":"Buqar"},"country":"KZ","lat":48.341552,"lon":52.947233,"pop":0,"dumk_id":7298,"search_terms":["бұқар","buqar","букар"]},{"id":90001693,"name":"Bylqyldaqty","names":{"kk":"Былқылдақты","ru":"Былкылдакты","en":"Bylqyldaqty"},"country":"KZ","lat":48.43599,"lon":54.817615,"pop":0,"dumk_id":7308,"search_terms":["былкылдакты","былқылдақты","bylqyldaqty"]},{"id":90001701,"name":"Balabeyit","names":{"kk":"Балабейіт","ru":"Балабейит","en":"Balabeyit"},"country":"KZ","lat":48.834215,"lon":53.381973,"pop":0,"dumk_id":7316,"search_terms":["balabeyit","балабейит","балабейіт"]},{"id":90001706,"name":"Balqudyq","names":{"kk":"Балқұдық","ru":"Балкудык","en":"Balqudyq"},"country":"KZ","lat":47.837846,"lon":47.579592,"pop":0,"dumk_id":7321,"search_terms":["балқұдық","balqudyq","балкудык"]},{"id":90001712,"name":"Birlik","names":{"kk":"Бірлік","ru":"Бирлик","en":"Birlik"},"country":"KZ","lat":46.490957,"lon":48.995238,"pop":0,"dumk_id":7327,"search_terms":["бирлик","бірлік","birlik"]},{"id":90001713,"name":"Bokeykhan","names":{"kk":"Бөкейхан","ru":"Бокейхан","en":"Bokeykhan"},"country":"KZ","lat":46.546526,"lon":48.76589,"pop":0,"dumk_id":7328,"search_terms":["бокейхан","bokeykhan","бөкейхан"]},{"id":90001726,"name":"Balyqshy","names":{"kk":"Балықшы","ru":"Балыкшы","en":"Balyqshy"},"country":"KZ","lat":46.608186,"lon":48.649001,"pop":0,"dumk_id":7341,"search_terms":["balyqshy","балыкшы","балықшы"]},{"id":90001739,"name":"Batyrbek","names":{"kk":"Батырбек","ru":"Батырбек","en":"Batyrbek"},"country":"KZ","lat":47.992975,"lon":47.818374,"pop":0,"dumk_id":7354,"search_terms":["batyrbek","батырбек"]},{"id":90001750,"name":"Baygetobe","names":{"kk":"Бәйгетөбе","ru":"Байгетобе","en":"Baygetobe"},"country":"KZ","lat":47.636398,"lon":53.329376,"pop":0,"dumk_id":7365,"search_terms":["байгетобе","бәйгетөбе","baygetobe"]},{"id":90001756,"name":"Bala oraz","names":{"kk":"Бала ораз","ru":"Бала ораз","en":"Bala oraz"},"country":"KZ","lat":47.844861,"lon":51.618687,"pop":0,"dumk_id":7371,"search_terms":["bala oraz","бала ораз"]},{"id":90001764,"name":"Beybarys","names":{"kk":"Бейбарыс","ru":"Бейбарыс","en":"Beybarys"},"country":"KZ","lat":47.451381,"lon":51.790436,"pop":0,"dumk_id":7379,"search_terms":["бейбарыс","beybarys"]},{"id":90001774,"name":"Bitileu","names":{"kk":"Бітілеу","ru":"Битилеу","en":"Bitileu"},"country":"KZ","lat":49.882819,"lon":50.791932,"pop":0,"dumk_id":7389,"search_terms":["битилеу","бітілеу","bitileu"]},{"id":90001781,"name":"Besoba","names":{"kk":"Бесоба","ru":"Бесоба","en":"Besoba"},"country":"KZ","lat":50.73608,"lon":50.565009,"pop":0,"dumk_id":7396,"search_terms":["бесоба","besoba"]},{"id":90001789,"name":"Bazartobe","names":{"kk":"Базартөбе","ru":"Базартобе","en":"Bazartobe"},"country":"KZ","lat":49.388416,"lon":51.829217,"pop":0,"dumk_id":7404,"search_terms":["базартобе","bazartobe","базартөбе"]},{"id":90001792,"name":"Bazarsholan","names":{"kk":"Базаршолан","ru":"Базаршолан","en":"Bazarsholan"},"country":"KZ","lat":49.066036,"lon":51.95066,"pop":0,"dumk_id":7407,"search_terms":["bazarsholan","базаршолан"]},{"id":90001793,"name":"Bayantobe","names":{"kk":"Баянтөбе","ru":"Баянтобе","en":"Bayantobe"},"country":"KZ","lat":49.089635,"lon":51.967306,"pop":0,"dumk_id":7408,"search_terms":["баянтөбе","баянтобе","bayantobe"]},{"id":90001796,"name":"Budarino","names":{"kk":"Бударино","ru":"Бударино","en":"Budarino"},"country":"KZ","lat":50.510203,"lon":51.065361,"pop":0,"dumk_id":7411,"search_terms":["budarino","бударино"]},{"id":90001802,"name":"Bitik","names":{"kk":"Бітік","ru":"Битик","en":"Bitik"},"country":"KZ","lat":50.142354,"lon":50.497249,"pop":0,"dumk_id":7417,"search_terms":["битик","bitik","бітік"]},{"id":90001824,"name":"Bisen","names":{"kk":"Бисен","ru":"Бисен","en":"Bisen"},"country":"KZ","lat":48.993108,"lon":47.665723,"pop":0,"dumk_id":7439,"search_terms":["бисен","bisen"]},{"id":90001828,"name":"Borli","names":{"kk":"Бөрлі","ru":"Борли","en":"Borli"},"country":"KZ","lat":48.865719,"lon":48.525833,"pop":0,"dumk_id":7443,"search_terms":["бөрлі","borli","борли"]},{"id":90001837,"name":"Beskol","names":{"kk":"Бескөл","ru":"Бескол","en":"Beskol"},"country":"KZ","lat":49.157585,"lon":48.635805,"pop":0,"dumk_id":7452,"search_terms":["бескол","бескөл","beskol"]},{"id":90001848,"name":"Berezovka","names":{"kk":"Березовка","ru":"Березовка","en":"Berezovka"},"country":"KZ","lat":51.206457,"lon":53.341494,"pop":0,"dumk_id":7463,"search_terms":["berezovka","березовка"]},{"id":90001850,"name":"Bumakol","names":{"kk":"Бумакөл","ru":"Бумакол","en":"Bumakol"},"country":"KZ","lat":51.442412,"lon":52.819798,"pop":0,"dumk_id":7465,"search_terms":["бумакөл","бумакол","bumakol"]},{"id":90001853,"name":"Borli","names":{"kk":"Бөрлі","ru":"Борли","en":"Borli"},"country":"KZ","lat":51.431867,"lon":52.71244,"pop":0,"dumk_id":7468,"search_terms":["бөрлі","borli","борли"]},{"id":90001862,"name":"Baqtyaral","names":{"kk":"Бақтыарал","ru":"Бактыарал","en":"Baqtyaral"},"country":"KZ","lat":51.119354,"lon":52.92747,"pop":0,"dumk_id":7477,"search_terms":["baqtyaral","бактыарал","бақтыарал"]},{"id":90001866,"name":"Besagash","names":{"kk":"Бесагаш","ru":"Бесагаш","en":"Besagash"},"country":"KZ","lat":51.10338,"lon":52.688078,"pop":0,"dumk_id":7481,"search_terms":["бесагаш","besagash"]},{"id":90001867,"name":"Bestau","names":{"kk":"Бестау","ru":"Бестау","en":"Bestau"},"country":"KZ","lat":51.273137,"lon":53.051967,"pop":0,"dumk_id":7482,"search_terms":["бестау","bestau"]},{"id":90001873,"name":"Beybitshilik","names":{"kk":"Бейбітшілік","ru":"Бейбитшилик","en":"Beybitshilik"},"country":"KZ","lat":51.59638,"lon":51.072988,"pop":0,"dumk_id":7488,"search_terms":["бейбітшілік","бейбитшилик","beybitshilik"]},{"id":90001877,"name":"Beles","names":{"kk":"Белес","ru":"Белес","en":"Beles"},"country":"KZ","lat":51.266194,"lon":51.051222,"pop":0,"dumk_id":7492,"search_terms":["белес","beles"]},{"id":90001899,"name":"Bolashaq","names":{"kk":"Болашақ","ru":"Болашак","en":"Bolashaq"},"country":"KZ","lat":51.130852,"lon":51.020275,"pop":0,"dumk_id":7515,"search_terms":["болашақ","bolashaq","болашак"]},{"id":90001910,"name":"Bayqonys","names":{"kk":"Байқоныс","ru":"Байконыс","en":"Bayqonys"},"country":"KZ","lat":51.288489,"lon":51.584911,"pop":0,"dumk_id":7526,"search_terms":["bayqonys","байқоныс","байконыс"]},{"id":90001911,"name":"Balabanov","names":{"kk":"Балабанов","ru":"Балабанов","en":"Balabanov"},"country":"KZ","lat":51.635929,"lon":52.026693,"pop":0,"dumk_id":7527,"search_terms":["балабанов","balabanov"]},{"id":90001918,"name":"Bogatsk","names":{"kk":"Богацк","ru":"Богацк","en":"Bogatsk"},"country":"KZ","lat":50.66644,"lon":51.106243,"pop":0,"dumk_id":7534,"search_terms":["богацк","bogatsk"]},{"id":90001930,"name":"Birlik","names":{"kk":"Бірлік","ru":"Бирлик","en":"Birlik"},"country":"KZ","lat":49.380223,"lon":50.634278,"pop":0,"dumk_id":7546,"search_terms":["бирлик","бірлік","birlik"]},{"id":90001936,"name":"Baldyrghan","names":{"kk":"Балдырған","ru":"Балдырган","en":"Baldyrghan"},"country":"KZ","lat":49.153755,"lon":49.257987,"pop":0,"dumk_id":7552,"search_terms":["baldyrghan","балдырган","балдырған"]},{"id":90001947,"name":"Boryq","names":{"kk":"Борық","ru":"Борык","en":"Boryq"},"country":"KZ","lat":49.561936,"lon":50.349314,"pop":0,"dumk_id":7563,"search_terms":["борык","boryq","борық"]},{"id":90001950,"name":"Balghyn","names":{"kk":"Балғын","ru":"Балгын","en":"Balghyn"},"country":"KZ","lat":49.269918,"lon":50.061673,"pop":0,"dumk_id":7566,"search_terms":["balghyn","балғын","балгын"]},{"id":90001953,"name":"Borsy","names":{"kk":"Борсы","ru":"Борсы","en":"Borsy"},"country":"KZ","lat":50.113751,"lon":47.424992,"pop":0,"dumk_id":7569,"search_terms":["борсы","borsy"]},{"id":90001978,"name":"Bolashaq","names":{"kk":"Болашақ","ru":"Болашак","en":"Bolashaq"},"country":"KZ","lat":50.367069,"lon":48.774271,"pop":0,"dumk_id":7594,"search_terms":["болашақ","bolashaq","болашак"]},{"id":90001986,"name":"Bozoba","names":{"kk":"Бозоба","ru":"Бозоба","en":"Bozoba"},"country":"KZ","lat":49.84838,"lon":48.765917,"pop":0,"dumk_id":7602,"search_terms":["бозоба","bozoba"]},{"id":90002008,"name":"Bostandyq (Bostandyq a.o.)","names":{"kk":"Бостандық (Бостандық а.о.)","ru":"Бостандык (Бостандык а.о.)","en":"Bostandyq (Bostandyq a.o.)"},"country":"KZ","lat":49.624068,"lon":48.881197,"pop":0,"dumk_id":7624,"search_terms":["бостандық (бостандық а.о.)","bostandyq (bostandyq a.o.)","бостандык (бостандык а.о.)"]},{"id":90002017,"name":"Bespishen","names":{"kk":"Беспішен","ru":"Беспишен","en":"Bespishen"},"country":"KZ","lat":49.72912,"lon":48.605253,"pop":0,"dumk_id":7633,"search_terms":["bespishen","беспішен","беспишен"]},{"id":90002021,"name":"Besoba","names":{"kk":"Бесоба","ru":"Бесоба","en":"Besoba"},"country":"KZ","lat":49.464993,"lon":53.361671,"pop":0,"dumk_id":7637,"search_terms":["бесоба","besoba"]},{"id":90002046,"name":"Bulan","names":{"kk":"Бұлан","ru":"Булан","en":"Bulan"},"country":"KZ","lat":50.326164,"lon":52.483567,"pop":0,"dumk_id":7662,"search_terms":["бұлан","bulan","булан"]},{"id":90002049,"name":"Buldyrty","names":{"kk":"Бұлдырты","ru":"Булдырты","en":"Buldyrty"},"country":"KZ","lat":50.100515,"lon":53.18782,"pop":0,"dumk_id":7665,"search_terms":["бұлдырты","булдырты","buldyrty"]},{"id":90002057,"name":"Bylqyldaq","names":{"kk":"Былқылдақ","ru":"Былкылдак","en":"Bylqyldaq"},"country":"KZ","lat":50.463144,"lon":53.628102,"pop":0,"dumk_id":7673,"search_terms":["bylqyldaq","былкылдак","былқылдақ"]},{"id":90002080,"name":"Bastau","names":{"kk":"Бастау","ru":"Бастау","en":"Bastau"},"country":"KZ","lat":51.180402,"lon":50.142944,"pop":0,"dumk_id":7696,"search_terms":["бастау","bastau"]},{"id":90002089,"name":"Birlik","names":{"kk":"Бірлік","ru":"Бирлик","en":"Birlik"},"country":"KZ","lat":51.128105,"lon":50.201892,"pop":0,"dumk_id":7705,"search_terms":["бирлик","бірлік","birlik"]},{"id":90002103,"name":"Bozay","names":{"kk":"Бозай","ru":"Бозай","en":"Bozay"},"country":"KZ","lat":50.543627,"lon":51.540884,"pop":0,"dumk_id":7719,"search_terms":["бозай","bozay"]},{"id":90002112,"name":"Balyqtsekhy","names":{"kk":"Балықцехы","ru":"Балыкцехы","en":"Balyqtsekhy"},"country":"KZ","lat":50.584269,"lon":51.794757,"pop":0,"dumk_id":7728,"search_terms":["balyqtsekhy","балыкцехы","балықцехы"]},{"id":90002115,"name":"Bogdanovka","names":{"kk":"Богдановка","ru":"Богдановка","en":"Bogdanovka"},"country":"KZ","lat":51.066043,"lon":52.13379,"pop":0,"dumk_id":7731,"search_terms":["bogdanovka","богдановка"]},{"id":90002123,"name":"Barbastau","names":{"kk":"Барбастау","ru":"Барбастау","en":"Barbastau"},"country":"KZ","lat":51.06375,"lon":51.54295,"pop":0,"dumk_id":7739,"search_terms":["barbastau","барбастау"]},{"id":90002168,"name":"Bazarbay","names":{"kk":"Базарбай","ru":"Базарбай","en":"Bazarbay"},"country":"KZ","lat":43.036426,"lon":71.615419,"pop":0,"dumk_id":7784,"search_terms":["базарбай","bazarbay"]},{"id":90002169,"name":"Bayzaq","names":{"kk":"Байзақ","ru":"Байзак","en":"Bayzaq"},"country":"KZ","lat":42.977381,"lon":71.52945,"pop":0,"dumk_id":7786,"search_terms":["bayzaq","байзақ","байзак"]},{"id":90002170,"name":"Botamoynaq","names":{"kk":"Ботамойнақ","ru":"Ботамойнак","en":"Botamoynaq"},"country":"KZ","lat":42.946372,"lon":71.508879,"pop":0,"dumk_id":7787,"search_terms":["botamoynaq","ботамойнақ","ботамойнак"]},{"id":90002171,"name":"Buryl","names":{"kk":"Бурыл","ru":"Бурыл","en":"Buryl"},"country":"KZ","lat":42.972348,"lon":71.425686,"pop":0,"dumk_id":7788,"search_terms":["бурыл","buryl"]},{"id":90002212,"name":"Birlesu-engbek","names":{"kk":"Бірлесу-еңбек","ru":"Бирлесу-енбек","en":"Birlesu-engbek"},"country":"KZ","lat":43.00008,"lon":71.11336,"pop":0,"dumk_id":7829,"search_terms":["бірлесу-еңбек","бирлесу-енбек","birlesu-engbek"]},{"id":90002217,"name":"Besaghash","names":{"kk":"Бесағаш","ru":"Бесагаш","en":"Besaghash"},"country":"KZ","lat":42.810638,"lon":71.432073,"pop":0,"dumk_id":7834,"search_terms":["бесагаш","besaghash","бесағаш"]},{"id":90002231,"name":"Bayterek","names":{"kk":"Бәйтерек","ru":"Байтерек","en":"Bayterek"},"country":"KZ","lat":42.839746,"lon":71.242088,"pop":0,"dumk_id":7848,"search_terms":["байтерек","бәйтерек","bayterek"]},{"id":90002232,"name":"Bektobe","names":{"kk":"Бектөбе","ru":"Бектобе","en":"Bektobe"},"country":"KZ","lat":42.884465,"lon":71.285603,"pop":0,"dumk_id":7849,"search_terms":["bektobe","бектобе","бектөбе"]},{"id":90002253,"name":"Bayterek","names":{"kk":"Бәйтерек","ru":"Байтерек","en":"Bayterek"},"country":"KZ","lat":42.611952,"lon":71.09604,"pop":0,"dumk_id":7870,"search_terms":["байтерек","бәйтерек","bayterek"]},{"id":90002255,"name":"B.Momyshuly","names":{"kk":"Б.Момышұлы","ru":"Б.Момышулы","en":"B.Momyshuly"},"country":"KZ","lat":42.619051,"lon":70.764328,"pop":0,"dumk_id":7872,"search_terms":["б.момышұлы","b.momyshuly","б.момышулы"]},{"id":90002274,"name":"Baqaly","names":{"kk":"Бақалы","ru":"Бакалы","en":"Baqaly"},"country":"KZ","lat":42.671515,"lon":70.851779,"pop":0,"dumk_id":7891,"search_terms":["бакалы","бақалы","baqaly"]},{"id":90002307,"name":"Bayterek","names":{"kk":"Бәйтерек","ru":"Байтерек","en":"Bayterek"},"country":"KZ","lat":42.917746,"lon":75.079454,"pop":0,"dumk_id":7924,"search_terms":["байтерек","бәйтерек","bayterek"]},{"id":90002309,"name":"Betqaynar","names":{"kk":"Бетқайнар","ru":"Беткайнар","en":"Betqaynar"},"country":"KZ","lat":43.208133,"lon":74.466843,"pop":0,"dumk_id":7926,"search_terms":["betqaynar","беткайнар","бетқайнар"]},{"id":90002313,"name":"Beriktas","names":{"kk":"Беріктас","ru":"Бериктас","en":"Beriktas"},"country":"KZ","lat":43.276249,"lon":74.389111,"pop":0,"dumk_id":7930,"search_terms":["бериктас","beriktas","беріктас"]},{"id":90002327,"name":"Bel","names":{"kk":"Бел","ru":"Бел","en":"Bel"},"country":"KZ","lat":43.743056,"lon":74.697778,"pop":0,"dumk_id":7944,"search_terms":["бел","bel"]},{"id":90002332,"name":"Bular batyr","names":{"kk":"Бұлар батыр","ru":"Булар батыр","en":"Bular batyr"},"country":"KZ","lat":42.88,"lon":75.181944,"pop":0,"dumk_id":7949,"search_terms":["bular batyr","булар батыр","бұлар батыр"]},{"id":90002371,"name":"Belaryq","names":{"kk":"Беларық","ru":"Беларык","en":"Belaryq"},"country":"KZ","lat":43.107862,"lon":73.324275,"pop":0,"dumk_id":7989,"search_terms":["беларық","belaryq","беларык"]},{"id":90002388,"name":"Binazar","names":{"kk":"Биназар","ru":"Биназар","en":"Binazar"},"country":"KZ","lat":44.065891,"lon":73.574043,"pop":0,"dumk_id":8006,"search_terms":["binazar","биназар"]},{"id":90002389,"name":"Birlik","names":{"kk":"Бірлік","ru":"Бирлик","en":"Birlik"},"country":"KZ","lat":44.063288,"lon":73.513299,"pop":0,"dumk_id":8007,"search_terms":["бирлик","бірлік","birlik"]},{"id":90002405,"name":"Burylbaytal","names":{"kk":"Бурылбайтал","ru":"Бурылбайтал","en":"Burylbaytal"},"country":"KZ","lat":45.051667,"lon":74.044444,"pop":0,"dumk_id":8023,"search_terms":["бурылбайтал","burylbaytal"]},{"id":90002406,"name":"Burylbaytal (st.)","names":{"kk":"Бурылбайтал (ст.)","ru":"Бурылбайтал (ст.)","en":"Burylbaytal (st.)"},"country":"KZ","lat":44.939167,"lon":74.016944,"pop":0,"dumk_id":8024,"search_terms":["burylbaytal (st.)","бурылбайтал (ст.)"]},{"id":90002440,"name":"Bostandyq","names":{"kk":"Бостандық","ru":"Бостандык","en":"Bostandyq"},"country":"KZ","lat":43.615992,"lon":71.226404,"pop":0,"dumk_id":8059,"search_terms":["bostandyq","бостандык","бостандық"]},{"id":90002445,"name":"Boltirik sheshen","names":{"kk":"Бөлтірік шешен","ru":"Болтирик шешен","en":"Boltirik sheshen"},"country":"KZ","lat":43.939236,"lon":70.814607,"pop":0,"dumk_id":8064,"search_terms":["болтирик шешен","boltirik sheshen","бөлтірік шешен"]},{"id":90002461,"name":"Bayteli","names":{"kk":"Байтелі","ru":"Байтели","en":"Bayteli"},"country":"KZ","lat":43.078025,"lon":72.897091,"pop":0,"dumk_id":8081,"search_terms":["bayteli","байтели","байтелі"]},{"id":90002507,"name":"Baluan Sholaq","names":{"kk":"Балуан Шолақ","ru":"Балуан Шолак","en":"Baluan Sholaq"},"country":"KZ","lat":43.834681,"lon":73.768223,"pop":0,"dumk_id":8127,"search_terms":["балуан шолак","балуан шолақ","baluan sholaq"]},{"id":90002509,"name":"Birlik","names":{"kk":"Бірлік","ru":"Бирлик","en":"Birlik"},"country":"KZ","lat":43.6614,"lon":73.810965,"pop":0,"dumk_id":8129,"search_terms":["бирлик","бірлік","birlik"]},{"id":90002510,"name":"Birlikustem","names":{"kk":"Бірлікүстем","ru":"Бирликустем","en":"Birlikustem"},"country":"KZ","lat":43.54777,"lon":73.857929,"pop":0,"dumk_id":8130,"search_terms":["birlikustem","бирликустем","бірлікүстем"]},{"id":90002514,"name":"Baydibek","names":{"kk":"Бәйдібек","ru":"Байдибек","en":"Baydibek"},"country":"KZ","lat":43.803056,"lon":73.720833,"pop":0,"dumk_id":8134,"search_terms":["бәйдібек","baydibek","байдибек"]},{"id":90002515,"name":"Boltirik","names":{"kk":"Бөлтірік","ru":"Болтирик","en":"Boltirik"},"country":"KZ","lat":43.78662,"lon":73.804398,"pop":0,"dumk_id":8135,"search_terms":["бөлтірік","boltirik","болтирик"]},{"id":90002516,"name":"Belbasar","names":{"kk":"Белбасар","ru":"Белбасар","en":"Belbasar"},"country":"KZ","lat":43.4765,"lon":73.843573,"pop":0,"dumk_id":8136,"search_terms":["belbasar","белбасар"]},{"id":90002564,"name":"Balasaz","names":{"kk":"Баласаз","ru":"Баласаз","en":"Balasaz"},"country":"KZ","lat":45.146592,"lon":79.41161,"pop":0,"dumk_id":8184,"search_terms":["balasaz","баласаз"]},{"id":90002573,"name":"Besaghash","names":{"kk":"Бесағаш","ru":"Бесагаш","en":"Besaghash"},"country":"KZ","lat":46.304101,"lon":81.064277,"pop":0,"dumk_id":8193,"search_terms":["бесагаш","besaghash","бесағаш"]},{"id":90002586,"name":"Budyr","names":{"kk":"Бұдыр","ru":"Будыр","en":"Budyr"},"country":"KZ","lat":45.804252,"lon":80.256691,"pop":0,"dumk_id":8206,"search_terms":["бұдыр","будыр","budyr"]},{"id":90002590,"name":"Bayzerek","names":{"kk":"Байзерек","ru":"Байзерек","en":"Bayzerek"},"country":"KZ","lat":45.635744,"lon":80.623285,"pop":0,"dumk_id":8210,"search_terms":["bayzerek","байзерек"]},{"id":90002593,"name":"Bibaqan","names":{"kk":"Бибақан","ru":"Бибакан","en":"Bibaqan"},"country":"KZ","lat":45.781385,"lon":80.978191,"pop":0,"dumk_id":8213,"search_terms":["бибақан","бибакан","bibaqan"]},{"id":90002606,"name":"Baqtybay","names":{"kk":"Бақтыбай","ru":"Бактыбай","en":"Baqtybay"},"country":"KZ","lat":44.934635,"lon":78.254005,"pop":0,"dumk_id":8226,"search_terms":["бактыбай","baqtybay","бақтыбай"]},{"id":90002631,"name":"Bastobe","names":{"kk":"Бастөбе","ru":"Бастобе","en":"Bastobe"},"country":"KZ","lat":45.270983,"lon":77.990394,"pop":0,"dumk_id":8252,"search_terms":["бастобе","бастөбе","bastobe"]},{"id":90002645,"name":"Besaghash","names":{"kk":"Бесағаш","ru":"Бесагаш","en":"Besaghash"},"country":"KZ","lat":44.992951,"lon":78.048929,"pop":0,"dumk_id":8266,"search_terms":["бесагаш","besaghash","бесағаш"]},{"id":90002650,"name":"Bayghazy","names":{"kk":"Байғазы","ru":"Байгазы","en":"Bayghazy"},"country":"KZ","lat":44.371781,"lon":78.342579,"pop":0,"dumk_id":8271,"search_terms":["байгазы","байғазы","bayghazy"]},{"id":90002668,"name":"Bostan","names":{"kk":"Бостан","ru":"Бостан","en":"Bostan"},"country":"KZ","lat":44.513917,"lon":78.788871,"pop":0,"dumk_id":8289,"search_terms":["bostan","бостан"]},{"id":90002689,"name":"Balpyq bi","names":{"kk":"Балпық би","ru":"Балпык би","en":"Balpyq bi"},"country":"KZ","lat":44.900622,"lon":78.222429,"pop":0,"dumk_id":8310,"search_terms":["balpyq bi","балпық би","балпык би"]},{"id":90002691,"name":"Besqaynar","names":{"kk":"Бесқайнар","ru":"Бескайнар","en":"Besqaynar"},"country":"KZ","lat":44.922013,"lon":78.133352,"pop":0,"dumk_id":8312,"search_terms":["бескайнар","besqaynar","бесқайнар"]},{"id":90002693,"name":"Boztoghan","names":{"kk":"Бозтоған","ru":"Бозтоган","en":"Boztoghan"},"country":"KZ","lat":44.891689,"lon":78.050653,"pop":0,"dumk_id":8314,"search_terms":["boztoghan","бозтоган","бозтоған"]},{"id":90002711,"name":"Boribay bi","names":{"kk":"Бөрібай би","ru":"Борибай би","en":"Boribay bi"},"country":"KZ","lat":44.309253,"lon":79.181749,"pop":0,"dumk_id":8332,"search_terms":["бөрібай би","boribay bi","борибай би"]},{"id":90002737,"name":"Bayanbay","names":{"kk":"Баянбай","ru":"Баянбай","en":"Bayanbay"},"country":"KZ","lat":45.280636,"lon":80.197196,"pop":0,"dumk_id":8358,"search_terms":["bayanbay","баянбай"]},{"id":90002739,"name":"Baqaly","names":{"kk":"Бақалы","ru":"Бакалы","en":"Baqaly"},"country":"KZ","lat":45.694295,"lon":80.116545,"pop":0,"dumk_id":8360,"search_terms":["бакалы","бақалы","baqaly"]},{"id":90002777,"name":"Borodinovka","names":{"kk":"Бородиновка","ru":"Бородиновка","en":"Borodinovka"},"country":"KZ","lat":49.571529,"lon":71.984393,"pop":0,"dumk_id":8398,"search_terms":["бородиновка","borodinovka"]},{"id":90002809,"name":"Begazy","names":{"kk":"Бегазы","ru":"Бегазы","en":"Begazy"},"country":"KZ","lat":48.266823,"lon":75.353911,"pop":0,"dumk_id":8430,"search_terms":["begazy","бегазы"]},{"id":90002819,"name":"Baymyrza","names":{"kk":"Баймырза","ru":"Баймырза","en":"Baymyrza"},"country":"KZ","lat":50.222088,"lon":72.89595,"pop":0,"dumk_id":8440,"search_terms":["баймырза","baymyrza"]},{"id":90002821,"name":"Belaghash","names":{"kk":"Белағаш","ru":"Белагаш","en":"Belaghash"},"country":"KZ","lat":50.071298,"lon":74.294546,"pop":0,"dumk_id":8442,"search_terms":["белагаш","белағаш","belaghash"]},{"id":90002822,"name":"Botaqara","names":{"kk":"Ботақара","ru":"Ботакара","en":"Botaqara"},"country":"KZ","lat":50.094696,"lon":73.634706,"pop":0,"dumk_id":8443,"search_terms":["botaqara","ботақара","ботакара"]},{"id":90002823,"name":"Buqar zhyrau","names":{"kk":"Бұқар жырау","ru":"Букар жырау","en":"Buqar zhyrau"},"country":"KZ","lat":50.245188,"lon":74.77209,"pop":0,"dumk_id":8444,"search_terms":["букар жырау","buqar zhyrau","бұқар жырау"]},{"id":90002834,"name":"Bayqadam","names":{"kk":"Байқадам","ru":"Байкадам","en":"Bayqadam"},"country":"KZ","lat":50.013729,"lon":73.385657,"pop":0,"dumk_id":8455,"search_terms":["байкадам","байқадам","bayqadam"]},{"id":90002867,"name":"Baqty","names":{"kk":"Бақты","ru":"Бакты","en":"Baqty"},"country":"KZ","lat":49.330908,"lon":76.244141,"pop":0,"dumk_id":8488,"search_terms":["бақты","бакты","baqty"]},{"id":90002871,"name":"Besoba","names":{"kk":"Бесоба","ru":"Бесоба","en":"Besoba"},"country":"KZ","lat":49.344134,"lon":74.470966,"pop":0,"dumk_id":8492,"search_terms":["бесоба","besoba"]},{"id":90002879,"name":"Beldeutas","names":{"kk":"Белдеутас","ru":"Белдеутас","en":"Beldeutas"},"country":"KZ","lat":49.060133,"lon":76.236497,"pop":0,"dumk_id":8500,"search_terms":["белдеутас","beldeutas"]},{"id":90002890,"name":"Borlybulaq","names":{"kk":"Борлыбұлақ","ru":"Борлыбулак","en":"Borlybulaq"},"country":"KZ","lat":49.319435,"lon":75.699511,"pop":0,"dumk_id":8511,"search_terms":["borlybulaq","борлыбулак","борлыбұлақ"]},{"id":90002902,"name":"Bastal","names":{"kk":"Бастал","ru":"Бастал","en":"Bastal"},"country":"KZ","lat":49.804417,"lon":76.549506,"pop":0,"dumk_id":8523,"search_terms":["бастал","bastal"]},{"id":90002917,"name":"Baytughan","names":{"kk":"Байтуған","ru":"Байтуган","en":"Baytughan"},"country":"KZ","lat":50.363874,"lon":71.449384,"pop":0,"dumk_id":8538,"search_terms":["байтуған","baytughan","байтуган"]},{"id":90002919,"name":"Balyqtykol","names":{"kk":"Балықтыкөл","ru":"Балыктыкол","en":"Balyqtykol"},"country":"KZ","lat":49.390286,"lon":71.636628,"pop":0,"dumk_id":8540,"search_terms":["балыктыкол","balyqtykol","балықтыкөл"]},{"id":90002920,"name":"Barshyn","names":{"kk":"Баршын","ru":"Баршын","en":"Barshyn"},"country":"KZ","lat":49.678788,"lon":69.537885,"pop":0,"dumk_id":8541,"search_terms":["barshyn","баршын"]},{"id":90002921,"name":"Bestamaq","names":{"kk":"Бестамақ","ru":"Бестамак","en":"Bestamaq"},"country":"KZ","lat":49.599832,"lon":69.765932,"pop":0,"dumk_id":8542,"search_terms":["bestamaq","бестамак","бестамақ"]},{"id":90002951,"name":"Batpaq","names":{"kk":"Батпақ","ru":"Батпак","en":"Batpaq"},"country":"KZ","lat":50.555583,"lon":72.767652,"pop":0,"dumk_id":8572,"search_terms":["батпак","батпақ","batpaq"]},{"id":90002957,"name":"Basqoryq","names":{"kk":"Басқорық","ru":"Баскорык","en":"Basqoryq"},"country":"KZ","lat":51.154004,"lon":73.597803,"pop":0,"dumk_id":8578,"search_terms":["басқорық","basqoryq","баскорык"]},{"id":90003008,"name":"Batyq","names":{"kk":"Батық","ru":"Батык","en":"Batyq"},"country":"KZ","lat":48.896457,"lon":72.473768,"pop":0,"dumk_id":8629,"search_terms":["batyq","батык","батық"]},{"id":90003009,"name":"Bosagha","names":{"kk":"Босаға","ru":"Босага","en":"Bosagha"},"country":"KZ","lat":47.877397,"lon":72.956649,"pop":0,"dumk_id":8630,"search_terms":["босага","босаға","bosagha"]},{"id":90003010,"name":"Burma","names":{"kk":"Бұрма","ru":"Бурма","en":"Burma"},"country":"KZ","lat":48.938338,"lon":72.837676,"pop":0,"dumk_id":8631,"search_terms":["бұрма","burma","бурма"]},{"id":90003031,"name":"Bosagha","names":{"kk":"Босаға","ru":"Босага","en":"Bosagha"},"country":"KZ","lat":48.370278,"lon":72.494034,"pop":0,"dumk_id":8652,"search_terms":["босага","босаға","bosagha"]},{"id":90003046,"name":"Bolshaya churakovka","names":{"kk":"Большая чураковка","ru":"Большая чураковка","en":"Bolshaya churakovka"},"country":"KZ","lat":53.051083,"lon":64.332202,"pop":0,"dumk_id":8667,"search_terms":["большая чураковка","bolshaya churakovka"]},{"id":90003061,"name":"Biryukovka","names":{"kk":"Бирюковка","ru":"Бирюковка","en":"Biryukovka"},"country":"KZ","lat":53.13945,"lon":64.408128,"pop":0,"dumk_id":8682,"search_terms":["бирюковка","biryukovka"]},{"id":90003066,"name":"Basbek","names":{"kk":"Басбек","ru":"Басбек","en":"Basbek"},"country":"KZ","lat":53.188605,"lon":64.056375,"pop":0,"dumk_id":8687,"search_terms":["basbek","басбек"]},{"id":90003082,"name":"Bayghabyl","names":{"kk":"Байғабыл","ru":"Байгабыл","en":"Bayghabyl"},"country":"KZ","lat":50.114023,"lon":64.990757,"pop":0,"dumk_id":8703,"search_terms":["байгабыл","байғабыл","bayghabyl"]},{"id":90003111,"name":"Baghanaly","names":{"kk":"Бағаналы","ru":"Баганалы","en":"Baghanaly"},"country":"KZ","lat":52.399776,"lon":63.634211,"pop":0,"dumk_id":8732,"search_terms":["баганалы","baghanaly","бағаналы"]},{"id":90003180,"name":"Bidayyq","names":{"kk":"Бидайық","ru":"Бидайык","en":"Bidayyq"},"country":"KZ","lat":50.599617,"lon":63.741578,"pop":0,"dumk_id":8801,"search_terms":["bidayyq","бидайык","бидайық"]},{"id":90003216,"name":"Bestobe","names":{"kk":"Бестөбе","ru":"Бестобе","en":"Bestobe"},"country":"KZ","lat":51.907515,"lon":62.031437,"pop":0,"dumk_id":8837,"search_terms":["бестобе","бестөбе","bestobe"]},{"id":90003219,"name":"Bogdanovka","names":{"kk":"Богдановка","ru":"Богдановка","en":"Bogdanovka"},"country":"KZ","lat":51.813662,"lon":61.562544,"pop":0,"dumk_id":8840,"search_terms":["bogdanovka","богдановка"]},{"id":90003236,"name":"Beloglinka","names":{"kk":"Белоглинка","ru":"Белоглинка","en":"Beloglinka"},"country":"KZ","lat":53.887491,"lon":62.137079,"pop":0,"dumk_id":8857,"search_terms":["beloglinka","белоглинка"]},{"id":90003242,"name":"Boskol","names":{"kk":"Босколь","ru":"Босколь","en":"Boskol"},"country":"KZ","lat":53.722121,"lon":61.277876,"pop":0,"dumk_id":8863,"search_terms":["boskol","босколь"]},{"id":90003245,"name":"Burli","names":{"kk":"Бурли","ru":"Бурли","en":"Burli"},"country":"KZ","lat":53.600619,"lon":61.902718,"pop":0,"dumk_id":8866,"search_terms":["burli","бурли"]},{"id":90003268,"name":"Batmanovka","names":{"kk":"Батмановка","ru":"Батмановка","en":"Batmanovka"},"country":"KZ","lat":53.583255,"lon":62.293503,"pop":0,"dumk_id":8889,"search_terms":["батмановка","batmanovka"]},{"id":90003281,"name":"Bratskoe","names":{"kk":"Брацкое","ru":"Брацкое","en":"Bratskoe"},"country":"KZ","lat":51.995018,"lon":65.099085,"pop":0,"dumk_id":8902,"search_terms":["брацкое","bratskoe"]},{"id":90003314,"name":"Belozerka","names":{"kk":"Белозерка","ru":"Белозерка","en":"Belozerka"},"country":"KZ","lat":52.59001,"lon":65.433546,"pop":0,"dumk_id":8935,"search_terms":["belozerka","белозерка"]},{"id":90003322,"name":"Borovskoe","names":{"kk":"Боровское","ru":"Боровское","en":"Borovskoe"},"country":"KZ","lat":53.805707,"lon":64.175401,"pop":0,"dumk_id":8943,"search_terms":["borovskoe","боровское"]},{"id":90003323,"name":"Budennovka","names":{"kk":"Буденновка","ru":"Буденновка","en":"Budennovka"},"country":"KZ","lat":53.941118,"lon":63.805543,"pop":0,"dumk_id":8944,"search_terms":["budennovka","буденновка"]},{"id":90003330,"name":"Balyqty","names":{"kk":"Балықты","ru":"Балыкты","en":"Balyqty"},"country":"KZ","lat":54.260484,"lon":64.718307,"pop":0,"dumk_id":8956,"search_terms":["балықты","balyqty","балыкты"]},{"id":90003338,"name":"Borki","names":{"kk":"Борки","ru":"Борки","en":"Borki"},"country":"KZ","lat":53.668792,"lon":64.52137,"pop":0,"dumk_id":8966,"search_terms":["borki","борки"]},{"id":90003354,"name":"Burevestnik","names":{"kk":"Буревестник","ru":"Буревестник","en":"Burevestnik"},"country":"KZ","lat":51.097972,"lon":63.590293,"pop":0,"dumk_id":8984,"search_terms":["burevestnik","буревестник"]},{"id":90003365,"name":"Barvinovka","names":{"kk":"Барвиновка","ru":"Барвиновка","en":"Barvinovka"},"country":"KZ","lat":53.432503,"lon":65.711835,"pop":0,"dumk_id":8995,"search_terms":["барвиновка","barvinovka"]},{"id":90003367,"name":"Bolshie dubravy","names":{"kk":"Большие дубравы","ru":"Большие дубравы","en":"Bolshie dubravy"},"country":"KZ","lat":53.614311,"lon":66.029901,"pop":0,"dumk_id":8997,"search_terms":["bolshie dubravy","большие дубравы"]},{"id":90003397,"name":"Bauman","names":{"kk":"Бауман","ru":"Бауман","en":"Bauman"},"country":"KZ","lat":54.058126,"lon":65.978976,"pop":0,"dumk_id":9027,"search_terms":["бауман","bauman"]},{"id":90003413,"name":"Berezovo","names":{"kk":"Березово","ru":"Березово","en":"Berezovo"},"country":"KZ","lat":54.41456,"lon":64.967437,"pop":0,"dumk_id":9043,"search_terms":["berezovo","березово"]},{"id":90003416,"name":"Borki","names":{"kk":"Борки","ru":"Борки","en":"Borki"},"country":"KZ","lat":54.559015,"lon":66.01666,"pop":0,"dumk_id":9046,"search_terms":["borki","борки"]},{"id":90003419,"name":"Beloglinka","names":{"kk":"Белоглинка","ru":"Белоглинка","en":"Beloglinka"},"country":"KZ","lat":54.616752,"lon":65.867693,"pop":0,"dumk_id":9049,"search_terms":["beloglinka","белоглинка"]},{"id":90003443,"name":"Bannovka","names":{"kk":"Банновка","ru":"Банновка","en":"Bannovka"},"country":"KZ","lat":53.737697,"lon":62.947135,"pop":0,"dumk_id":9073,"search_terms":["bannovka","банновка"]},{"id":90003447,"name":"Balyqty","names":{"kk":"Балықты","ru":"Балыкты","en":"Balyqty"},"country":"KZ","lat":54.101826,"lon":63.499572,"pop":0,"dumk_id":9077,"search_terms":["балықты","balyqty","балыкты"]},{"id":90003448,"name":"Beloyarovka","names":{"kk":"Белояровка","ru":"Белояровка","en":"Beloyarovka"},"country":"KZ","lat":54.210355,"lon":63.555896,"pop":0,"dumk_id":9078,"search_terms":["белояровка","beloyarovka"]},{"id":90003462,"name":"Berezovka","names":{"kk":"Березовка","ru":"Березовка","en":"Berezovka"},"country":"KZ","lat":53.228487,"lon":62.682473,"pop":0,"dumk_id":9092,"search_terms":["berezovka","березовка"]},{"id":90003474,"name":"Bayqayyn","names":{"kk":"Байқайын","ru":"Байкайын","en":"Bayqayyn"},"country":"KZ","lat":54.183302,"lon":63.32193,"pop":0,"dumk_id":9104,"search_terms":["bayqayyn","байкайын","байқайын"]},{"id":90003483,"name":"Bolshoe","names":{"kk":"Большое","ru":"Большое","en":"Bolshoe"},"country":"KZ","lat":53.855914,"lon":62.337906,"pop":0,"dumk_id":9113,"search_terms":["большое","bolshoe"]},{"id":90003504,"name":"Belozerka","names":{"kk":"Белозерка","ru":"Белозерка","en":"Belozerka"},"country":"KZ","lat":52.808577,"lon":63.2752,"pop":0,"dumk_id":9134,"search_terms":["belozerka","белозерка"]},{"id":90003545,"name":"Begezhan","names":{"kk":"Бегежан","ru":"Бегежан","en":"Begezhan"},"country":"KZ","lat":53.104962,"lon":62.628359,"pop":0,"dumk_id":9175,"search_terms":["бегежан","begezhan"]},{"id":90003549,"name":"Balyqty","names":{"kk":"Балықты","ru":"Балыкты","en":"Balyqty"},"country":"KZ","lat":52.934683,"lon":63.098591,"pop":0,"dumk_id":9179,"search_terms":["балықты","balyqty","балыкты"]},{"id":90003552,"name":"Bataly","names":{"kk":"Баталы","ru":"Баталы","en":"Bataly"},"country":"KZ","lat":52.840682,"lon":62.016624,"pop":0,"dumk_id":9182,"search_terms":["баталы","bataly"]},{"id":90003561,"name":"Beregovoe","names":{"kk":"Береговое","ru":"Береговое","en":"Beregovoe"},"country":"KZ","lat":52.879454,"lon":63.056145,"pop":0,"dumk_id":9191,"search_terms":["береговое","beregovoe"]},{"id":90003566,"name":"Bayshuq","names":{"kk":"Байшуқ","ru":"Байшук","en":"Bayshuq"},"country":"KZ","lat":52.883203,"lon":62.84037,"pop":0,"dumk_id":9196,"search_terms":["байшуқ","bayshuq","байшук"]},{"id":90003568,"name":"Bogorodskoe","names":{"kk":"Богородское","ru":"Богородское","en":"Bogorodskoe"},"country":"KZ","lat":52.631772,"lon":62.738142,"pop":0,"dumk_id":9198,"search_terms":["богородское","bogorodskoe"]},{"id":90003576,"name":"Barsukovka","names":{"kk":"Барсуковка","ru":"Барсуковка","en":"Barsukovka"},"country":"KZ","lat":52.466251,"lon":63.205966,"pop":0,"dumk_id":9206,"search_terms":["barsukovka","барсуковка"]},{"id":90003588,"name":"Bayshuaq","names":{"kk":"Байшуақ","ru":"Байшуак","en":"Bayshuaq"},"country":"KZ","lat":52.862957,"lon":62.802183,"pop":0,"dumk_id":9218,"search_terms":["байшуак","байшуақ","bayshuaq"]},{"id":90003601,"name":"Bekbauyl","names":{"kk":"Бекбауыл","ru":"Бекбауыл","en":"Bekbauyl"},"country":"KZ","lat":45.979734,"lon":61.937554,"pop":0,"dumk_id":9231,"search_terms":["бекбауыл","bekbauyl"]},{"id":90003605,"name":"Bogen","names":{"kk":"Бөген","ru":"Боген","en":"Bogen"},"country":"KZ","lat":46.141452,"lon":61.224409,"pop":0,"dumk_id":9235,"search_terms":["bogen","боген","бөген"]},{"id":90003623,"name":"Berdikol","names":{"kk":"Бердікөл","ru":"Бердикол","en":"Berdikol"},"country":"KZ","lat":47.007334,"lon":60.836588,"pop":0,"dumk_id":9253,"search_terms":["бердікөл","berdikol","бердикол"]},{"id":90003654,"name":"Bukharbay batyr","names":{"kk":"Бұхарбай батыр","ru":"Бухарбай батыр","en":"Bukharbay batyr"},"country":"KZ","lat":44.9929,"lon":64.601131,"pop":0,"dumk_id":9284,"search_terms":["бухарбай батыр","бұхарбай батыр","bukharbay batyr"]},{"id":90003657,"name":"Birlik","names":{"kk":"Бірлік","ru":"Бирлик","en":"Birlik"},"country":"KZ","lat":43.859289,"lon":67.452213,"pop":0,"dumk_id":9287,"search_terms":["бирлик","бірлік","birlik"]},{"id":90003658,"name":"Baykenzhe","names":{"kk":"Байкенже","ru":"Байкенже","en":"Baykenzhe"},"country":"KZ","lat":43.889064,"lon":66.918632,"pop":0,"dumk_id":9288,"search_terms":["байкенже","baykenzhe"]},{"id":90003659,"name":"Bilibay","names":{"kk":"Билібай","ru":"Билибай","en":"Bilibay"},"country":"KZ","lat":43.896359,"lon":66.98305,"pop":0,"dumk_id":9289,"search_terms":["билибай","билібай","bilibay"]},{"id":90003663,"name":"Besaryq","names":{"kk":"Бесарық","ru":"Бесарык","en":"Besaryq"},"country":"KZ","lat":43.587255,"lon":67.642054,"pop":0,"dumk_id":9293,"search_terms":["бесарык","бесарық","besaryq"]},{"id":90003693,"name":"Basyqara","names":{"kk":"Басықара","ru":"Басыкара","en":"Basyqara"},"country":"KZ","lat":45.76494,"lon":62.328663,"pop":0,"dumk_id":9325,"search_terms":["басыкара","basyqara","басықара"]},{"id":90003694,"name":"Birlik","names":{"kk":"Бірлік","ru":"Бирлик","en":"Birlik"},"country":"KZ","lat":45.675532,"lon":61.89996,"pop":0,"dumk_id":9326,"search_terms":["бирлик","бірлік","birlik"]},{"id":90003695,"name":"Bozkol","names":{"kk":"Бозкөл","ru":"Бозкол","en":"Bozkol"},"country":"KZ","lat":45.494277,"lon":61.748728,"pop":0,"dumk_id":9327,"search_terms":["бозкөл","bozkol","бозкол"]},{"id":90003707,"name":"Bekarystan bi","names":{"kk":"Бекарыстан би","ru":"Бекарыстан би","en":"Bekarystan bi"},"country":"KZ","lat":45.783113,"lon":61.582172,"pop":0,"dumk_id":9339,"search_terms":["bekarystan bi","бекарыстан би"]},{"id":90003738,"name":"Besaryq","names":{"kk":"Бесарық","ru":"Бесарык","en":"Besaryq"},"country":"KZ","lat":44.693458,"lon":65.386609,"pop":0,"dumk_id":9372,"search_terms":["бесарык","бесарық","besaryq"]},{"id":90003753,"name":"Baygequm","names":{"kk":"Бәйгеқұм","ru":"Байгекум","en":"Baygequm"},"country":"KZ","lat":44.312917,"lon":66.47932,"pop":0,"dumk_id":9387,"search_terms":["baygequm","бәйгеқұм","байгекум"]},{"id":90003754,"name":"Bidaykol","names":{"kk":"Бидайкөл","ru":"Бидайкол","en":"Bidaykol"},"country":"KZ","lat":44.136962,"lon":66.744224,"pop":0,"dumk_id":9388,"search_terms":["бидайкол","bidaykol","бидайкөл"]},{"id":90003755,"name":"Bestam","names":{"kk":"Бестам","ru":"Бестам","en":"Bestam"},"country":"KZ","lat":44.28522,"lon":66.723176,"pop":0,"dumk_id":9389,"search_terms":["bestam","бестам"]},{"id":90003758,"name":"Baysyn","names":{"kk":"Байсын","ru":"Байсын","en":"Baysyn"},"country":"KZ","lat":44.145494,"lon":66.702542,"pop":0,"dumk_id":9392,"search_terms":["baysyn","байсын"]},{"id":90003765,"name":"Bulanbay bauy","names":{"kk":"Бұланбай бауы","ru":"Буланбай бауы","en":"Bulanbay bauy"},"country":"KZ","lat":43.902238,"lon":66.615989,"pop":0,"dumk_id":9399,"search_terms":["бұланбай бауы","буланбай бауы","bulanbay bauy"]},{"id":90003774,"name":"Bala bi","names":{"kk":"Бала би","ru":"Бала би","en":"Bala bi"},"country":"KZ","lat":44.338356,"lon":66.516663,"pop":0,"dumk_id":9408,"search_terms":["bala bi","бала би"]},{"id":90003780,"name":"Beyneu","names":{"kk":"Бейнеу","ru":"Бейнеу","en":"Beyneu"},"country":"KZ","lat":45.322946,"lon":55.188862,"pop":0,"dumk_id":9414,"search_terms":["бейнеу","beyneu"]},{"id":90003781,"name":"Boranqul","names":{"kk":"Боранқұл","ru":"Боранкул","en":"Boranqul"},"country":"KZ","lat":46.208008,"lon":54.469042,"pop":0,"dumk_id":9415,"search_terms":["boranqul","боранкул","боранқұл"]},{"id":90003790,"name":"Bolashaq","names":{"kk":"Болашақ","ru":"Болашак","en":"Bolashaq"},"country":"KZ","lat":42.330513,"lon":53.678965,"pop":0,"dumk_id":9424,"search_terms":["болашақ","bolashaq","болашак"]},{"id":90003791,"name":"Bostan","names":{"kk":"Бостан","ru":"Бостан","en":"Bostan"},"country":"KZ","lat":43.456485,"lon":53.021604,"pop":0,"dumk_id":9425,"search_terms":["bostan","бостан"]},{"id":90003793,"name":"Botagoz","names":{"kk":"Ботагөз","ru":"Ботагоз","en":"Botagoz"},"country":"KZ","lat":43.171192,"lon":52.759485,"pop":0,"dumk_id":9427,"search_terms":["ботагөз","botagoz","ботагоз"]},{"id":90003809,"name":"Basqudyq","names":{"kk":"Басқұдық","ru":"Баскудык","en":"Basqudyq"},"country":"KZ","lat":43.688354,"lon":51.210098,"pop":0,"dumk_id":9444,"search_terms":["баскудык","басқұдық","basqudyq"]},{"id":90003810,"name":"Batyr","names":{"kk":"Батыр","ru":"Батыр","en":"Batyr"},"country":"KZ","lat":43.63029,"lon":51.408113,"pop":0,"dumk_id":9445,"search_terms":["батыр","batyr"]},{"id":90003811,"name":"Bayandy","names":{"kk":"Баянды","ru":"Баянды","en":"Bayandy"},"country":"KZ","lat":43.761104,"lon":51.306083,"pop":0,"dumk_id":9446,"search_terms":["bayandy","баянды"]},{"id":90003814,"name":"Bautin","names":{"kk":"Баутин","ru":"Баутин","en":"Bautin"},"country":"KZ","lat":44.539814,"lon":50.259833,"pop":0,"dumk_id":9450,"search_terms":["баутин","bautin"]},{"id":90003829,"name":"Baltasap","names":{"kk":"Балтасап","ru":"Балтасап","en":"Baltasap"},"country":"KZ","lat":52.716621,"lon":74.283811,"pop":0,"dumk_id":9465,"search_terms":["baltasap","балтасап"]},{"id":90003860,"name":"Bayanaul","names":{"kk":"Баянаул","ru":"Баянаул","en":"Bayanaul"},"country":"KZ","lat":50.792962,"lon":75.703068,"pop":0,"dumk_id":9496,"search_terms":["баянаул","bayanaul"]},{"id":90003863,"name":"Birlik","names":{"kk":"Бірлік","ru":"Бирлик","en":"Birlik"},"country":"KZ","lat":51.139064,"lon":75.740618,"pop":0,"dumk_id":9499,"search_terms":["бирлик","бірлік","birlik"]},{"id":90003864,"name":"Burkutti","names":{"kk":"Бүркүтті","ru":"Буркутти","en":"Burkutti"},"country":"KZ","lat":50.925585,"lon":74.997388,"pop":0,"dumk_id":9500,"search_terms":["burkutti","бүркүтті","буркутти"]},{"id":90003869,"name":"Belagash","names":{"kk":"Белагаш","ru":"Белагаш","en":"Belagash"},"country":"KZ","lat":50.298956,"lon":75.325398,"pop":0,"dumk_id":9505,"search_terms":["белагаш","belagash"]},{"id":90003871,"name":"Birzhankol","names":{"kk":"Біржанкөл","ru":"Биржанкол","en":"Birzhankol"},"country":"KZ","lat":50.82116,"lon":75.32547,"pop":0,"dumk_id":9507,"search_terms":["биржанкол","біржанкөл","birzhankol"]},{"id":90003895,"name":"Bashmachnoe","names":{"kk":"Башмачное","ru":"Башмачное","en":"Bashmachnoe"},"country":"KZ","lat":53.63453,"lon":75.15435,"pop":0,"dumk_id":9531,"search_terms":["башмачное","bashmachnoe"]},{"id":90003923,"name":"Bezvodnoe","names":{"kk":"Безводное","ru":"Безводное","en":"Bezvodnoe"},"country":"KZ","lat":53.815771,"lon":75.476738,"pop":0,"dumk_id":9559,"search_terms":["bezvodnoe","безводное"]},{"id":90003949,"name":"Bulanbay","names":{"kk":"Бұланбай","ru":"Буланбай","en":"Bulanbay"},"country":"KZ","lat":52.98996,"lon":74.112448,"pop":0,"dumk_id":9585,"search_terms":["бұланбай","буланбай","bulanbay"]},{"id":90003959,"name":"Baskol","names":{"kk":"Баскөл","ru":"Баскол","en":"Baskol"},"country":"KZ","lat":51.736357,"lon":77.32556,"pop":0,"dumk_id":9595,"search_terms":["баскөл","baskol","баскол"]},{"id":90003960,"name":"Bozsha","names":{"kk":"Бозша","ru":"Бозша","en":"Bozsha"},"country":"KZ","lat":51.697482,"lon":77.375013,"pop":0,"dumk_id":9596,"search_terms":["bozsha","бозша"]},{"id":90003975,"name":"Birlik","names":{"kk":"Бірлік","ru":"Бирлик","en":"Birlik"},"country":"KZ","lat":52.080351,"lon":77.122963,"pop":0,"dumk_id":9611,"search_terms":["бирлик","бірлік","birlik"]},{"id":90003984,"name":"Bogdanovka","names":{"kk":"Богдановка","ru":"Богдановка","en":"Bogdanovka"},"country":"KZ","lat":52.620462,"lon":77.202527,"pop":0,"dumk_id":9620,"search_terms":["bogdanovka","богдановка"]},{"id":90004002,"name":"Bayqonys","names":{"kk":"Байқоныс","ru":"Байконыс","en":"Bayqonys"},"country":"KZ","lat":52.955818,"lon":76.422089,"pop":0,"dumk_id":9638,"search_terms":["bayqonys","байқоныс","байконыс"]},{"id":90004008,"name":"Bobrovo","names":{"kk":"Боброво","ru":"Боброво","en":"Bobrovo"},"country":"KZ","lat":53.224859,"lon":75.693043,"pop":0,"dumk_id":9644,"search_terms":["bobrovo","боброво"]},{"id":90004027,"name":"Blagoveshchenka","names":{"kk":"Благовещенка","ru":"Благовещенка","en":"Blagoveshchenka"},"country":"KZ","lat":53.365423,"lon":76.122608,"pop":0,"dumk_id":9663,"search_terms":["благовещенка","blagoveshchenka"]},{"id":90004047,"name":"Bogatyr","names":{"kk":"Богатырь","ru":"Богатырь","en":"Bogatyr"},"country":"KZ","lat":53.443847,"lon":77.576118,"pop":0,"dumk_id":9683,"search_terms":["богатырь","bogatyr"]},{"id":90004059,"name":"Belousovka","names":{"kk":"Белоусовка","ru":"Белоусовка","en":"Belousovka"},"country":"KZ","lat":52.934145,"lon":77.313873,"pop":0,"dumk_id":9695,"search_terms":["belousovka","белоусовка"]},{"id":90004068,"name":"Botabas","names":{"kk":"Ботабас","ru":"Ботабас","en":"Botabas"},"country":"KZ","lat":52.074639,"lon":78.384045,"pop":0,"dumk_id":9704,"search_terms":["ботабас","botabas"]},{"id":90004085,"name":"Bozalan","names":{"kk":"Бозалан","ru":"Бозалан","en":"Bozalan"},"country":"KZ","lat":52.048703,"lon":78.9418,"pop":0,"dumk_id":9721,"search_terms":["bozalan","бозалан"]},{"id":90004091,"name":"Bogodarovka","names":{"kk":"Богодаровка","ru":"Богодаровка","en":"Bogodarovka"},"country":"KZ","lat":52.613813,"lon":78.210203,"pop":0,"dumk_id":9727,"search_terms":["богодаровка","bogodarovka"]},{"id":90004110,"name":"Bayan","names":{"kk":"Баян","ru":"Баян","en":"Bayan"},"country":"KZ","lat":53.000469,"lon":67.962375,"pop":0,"dumk_id":9746,"search_terms":["bayan","баян"]},{"id":90004118,"name":"Bereslavka","names":{"kk":"Береславка","ru":"Береславка","en":"Bereslavka"},"country":"KZ","lat":52.74217,"lon":67.30585,"pop":0,"dumk_id":9754,"search_terms":["bereslavka","береславка"]},{"id":90004132,"name":"Burlyq","names":{"kk":"Бұрлық","ru":"Бурлык","en":"Burlyq"},"country":"KZ","lat":53.33728,"lon":67.478875,"pop":0,"dumk_id":9768,"search_terms":["burlyq","бұрлық","бурлык"]},{"id":90004137,"name":"Birlestik","names":{"kk":"Бірлестік","ru":"Бирлестик","en":"Birlestik"},"country":"KZ","lat":53.583864,"lon":68.352594,"pop":0,"dumk_id":9773,"search_terms":["бірлестік","birlestik","бирлестик"]},{"id":90004143,"name":"Botay","names":{"kk":"Ботай","ru":"Ботай","en":"Botay"},"country":"KZ","lat":53.303253,"lon":67.647749,"pop":0,"dumk_id":9779,"search_terms":["ботай","botay"]},{"id":90004168,"name":"Burlyq","names":{"kk":"Бұрлық","ru":"Бурлык","en":"Burlyq"},"country":"KZ","lat":53.166613,"lon":67.975239,"pop":0,"dumk_id":9804,"search_terms":["burlyq","бұрлық","бурлык"]},{"id":90004181,"name":"Baytus","names":{"kk":"Байтус","ru":"Байтус","en":"Baytus"},"country":"KZ","lat":53.989882,"lon":71.179377,"pop":0,"dumk_id":9817,"search_terms":["baytus","байтус"]},{"id":90004182,"name":"Bostandyq","names":{"kk":"Бостандық","ru":"Бостандык","en":"Bostandyq"},"country":"KZ","lat":53.948851,"lon":71.407953,"pop":0,"dumk_id":9818,"search_terms":["bostandyq","бостандык","бостандық"]},{"id":90004191,"name":"Baymyrza","names":{"kk":"Баймырза","ru":"Баймырза","en":"Baymyrza"},"country":"KZ","lat":54.189456,"lon":71.780871,"pop":0,"dumk_id":9827,"search_terms":["баймырза","baymyrza"]},{"id":90004203,"name":"Barykol","names":{"kk":"Барыкөл","ru":"Барыкол","en":"Barykol"},"country":"KZ","lat":54.176278,"lon":69.963525,"pop":0,"dumk_id":9839,"search_terms":["barykol","барыкол","барыкөл"]},{"id":90004208,"name":"Borki","names":{"kk":"Борки","ru":"Борки","en":"Borki"},"country":"KZ","lat":54.626865,"lon":69.756913,"pop":0,"dumk_id":9844,"search_terms":["borki","борки"]},{"id":90004225,"name":"Besqudyq","names":{"kk":"Бесқұдық","ru":"Бескудык","en":"Besqudyq"},"country":"KZ","lat":54.048802,"lon":68.086361,"pop":0,"dumk_id":9861,"search_terms":["besqudyq","бесқұдық","бескудык"]},{"id":90004229,"name":"Bulaq","names":{"kk":"Бұлақ","ru":"Булак","en":"Bulaq"},"country":"KZ","lat":53.870161,"lon":68.39265,"pop":0,"dumk_id":9865,"search_terms":["бұлақ","булак","bulaq"]},{"id":90004265,"name":"Bayan","names":{"kk":"Баян","ru":"Баян","en":"Bayan"},"country":"KZ","lat":54.318514,"lon":67.470512,"pop":0,"dumk_id":9901,"search_terms":["bayan","баян"]},{"id":90004266,"name":"Blagoveshchenka","names":{"kk":"Благовещенка","ru":"Благовещенка","en":"Blagoveshchenka"},"country":"KZ","lat":54.368973,"lon":66.97315,"pop":0,"dumk_id":9902,"search_terms":["благовещенка","blagoveshchenka"]},{"id":90004267,"name":"Bogdanovka","names":{"kk":"Богдановка","ru":"Богдановка","en":"Bogdanovka"},"country":"KZ","lat":54.444021,"lon":67.013251,"pop":0,"dumk_id":9903,"search_terms":["bogdanovka","богдановка"]},{"id":90004289,"name":"Baumana","names":{"kk":"Баумана","ru":"Баумана","en":"Baumana"},"country":"KZ","lat":54.233785,"lon":66.232813,"pop":0,"dumk_id":9925,"search_terms":["baumana","баумана"]},{"id":90004292,"name":"Budennoe","names":{"kk":"Буденное","ru":"Буденное","en":"Budennoe"},"country":"KZ","lat":54.62391,"lon":66.52101,"pop":0,"dumk_id":9928,"search_terms":["budennoe","буденное"]},{"id":90004304,"name":"Barnevka","names":{"kk":"Барневка","ru":"Барневка","en":"Barnevka"},"country":"KZ","lat":55.166819,"lon":69.404917,"pop":0,"dumk_id":9940,"search_terms":["barnevka","барневка"]},{"id":90004307,"name":"Beskol","names":{"kk":"Бескөл","ru":"Бескол","en":"Beskol"},"country":"KZ","lat":54.773039,"lon":69.102283,"pop":0,"dumk_id":9943,"search_terms":["бескол","бескөл","beskol"]},{"id":90004308,"name":"Bugrovoe","names":{"kk":"Бугровое","ru":"Бугровое","en":"Bugrovoe"},"country":"KZ","lat":55.049091,"lon":69.724025,"pop":0,"dumk_id":9944,"search_terms":["bugrovoe","бугровое"]},{"id":90004322,"name":"Bayterek","names":{"kk":"Бәйтерек","ru":"Байтерек","en":"Bayterek"},"country":"KZ","lat":54.737949,"lon":69.066962,"pop":0,"dumk_id":9958,"search_terms":["байтерек","бәйтерек","bayterek"]},{"id":90004342,"name":"Baysal","names":{"kk":"Байсал","ru":"Байсал","en":"Baysal"},"country":"KZ","lat":54.890345,"lon":69.550031,"pop":0,"dumk_id":9978,"search_terms":["байсал","baysal"]},{"id":90004356,"name":"Bastomar","names":{"kk":"Бастомар","ru":"Бастомар","en":"Bastomar"},"country":"KZ","lat":54.52901,"lon":70.799003,"pop":0,"dumk_id":9992,"search_terms":["bastomar","бастомар"]},{"id":90004368,"name":"Barashki","names":{"kk":"Барашки","ru":"Барашки","en":"Barashki"},"country":"KZ","lat":55.038521,"lon":70.587288,"pop":0,"dumk_id":10004,"search_terms":["barashki","барашки"]},{"id":90004373,"name":"Binash","names":{"kk":"Бинаш","ru":"Бинаш","en":"Binash"},"country":"KZ","lat":54.821173,"lon":70.883014,"pop":0,"dumk_id":10009,"search_terms":["binash","бинаш"]},{"id":90004397,"name":"Bostandyq","names":{"kk":"Бостандық","ru":"Бостандык","en":"Bostandyq"},"country":"KZ","lat":54.569257,"lon":68.161118,"pop":0,"dumk_id":10033,"search_terms":["bostandyq","бостандык","бостандық"]},{"id":90004402,"name":"Bike","names":{"kk":"Бике","ru":"Бике","en":"Bike"},"country":"KZ","lat":54.61278,"lon":67.665464,"pop":0,"dumk_id":10038,"search_terms":["bike","бике"]},{"id":90004411,"name":"Belovka","names":{"kk":"Беловка","ru":"Беловка","en":"Belovka"},"country":"KZ","lat":55.065339,"lon":68.79603,"pop":0,"dumk_id":10047,"search_terms":["беловка","belovka"]},{"id":90004417,"name":"Bekseyit","names":{"kk":"Бексейіт","ru":"Бексейит","en":"Bekseyit"},"country":"KZ","lat":54.610214,"lon":68.089873,"pop":0,"dumk_id":10053,"search_terms":["bekseyit","бексейит","бексейіт"]},{"id":90004440,"name":"Beloyarka","names":{"kk":"Белоярка","ru":"Белоярка","en":"Beloyarka"},"country":"KZ","lat":53.784315,"lon":70.243746,"pop":0,"dumk_id":10076,"search_terms":["белоярка","beloyarka"]},{"id":90004448,"name":"Bogatyrovka","names":{"kk":"Богатыровка","ru":"Богатыровка","en":"Bogatyrovka"},"country":"KZ","lat":53.831631,"lon":69.333959,"pop":0,"dumk_id":10084,"search_terms":["bogatyrovka","богатыровка"]},{"id":90004479,"name":"Bakhmut","names":{"kk":"Бахмұт","ru":"Бахмут","en":"Bakhmut"},"country":"KZ","lat":53.954791,"lon":69.652268,"pop":0,"dumk_id":10115,"search_terms":["bakhmut","бахмут","бахмұт"]},{"id":90004495,"name":"Belogradovka","names":{"kk":"Белоградовка","ru":"Белоградовка","en":"Belogradovka"},"country":"KZ","lat":53.464475,"lon":66.630039,"pop":0,"dumk_id":10131,"search_terms":["белоградовка","belogradovka"]},{"id":90004517,"name":"Bidayyq","names":{"kk":"Бидайық","ru":"Бидайык","en":"Bidayyq"},"country":"KZ","lat":54.03166,"lon":72.73322,"pop":0,"dumk_id":10153,"search_terms":["bidayyq","бидайык","бидайық"]},{"id":90004530,"name":"Bereke","names":{"kk":"Береке","ru":"Береке","en":"Bereke"},"country":"KZ","lat":52.743168,"lon":73.594381,"pop":0,"dumk_id":10166,"search_terms":["береке","bereke"]},{"id":90004540,"name":"Baghanaty","names":{"kk":"Бағанаты","ru":"Баганаты","en":"Baghanaty"},"country":"KZ","lat":53.725856,"lon":67.225775,"pop":0,"dumk_id":10176,"search_terms":["бағанаты","baghanaty","баганаты"]},{"id":90004552,"name":"Beloglinka","names":{"kk":"Белоглинка","ru":"Белоглинка","en":"Beloglinka"},"country":"KZ","lat":53.678218,"lon":67.828706,"pop":0,"dumk_id":10188,"search_terms":["beloglinka","белоглинка"]},{"id":90004557,"name":"Baluan","names":{"kk":"Балуан","ru":"Балуан","en":"Baluan"},"country":"KZ","lat":54.208133,"lon":67.164276,"pop":0,"dumk_id":10193,"search_terms":["балуан","baluan"]},{"id":90004562,"name":"Belogradovka","names":{"kk":"Белоградовка","ru":"Белоградовка","en":"Belogradovka"},"country":"KZ","lat":53.493873,"lon":66.994809,"pop":0,"dumk_id":10198,"search_terms":["белоградовка","belogradovka"]},{"id":90004569,"name":"Bespalovka","names":{"kk":"Беспаловка","ru":"Беспаловка","en":"Bespalovka"},"country":"KZ","lat":53.107671,"lon":67.505887,"pop":0,"dumk_id":10205,"search_terms":["беспаловка","bespalovka"]},{"id":90004573,"name":"Brilevka","names":{"kk":"Брилевка","ru":"Брилевка","en":"Brilevka"},"country":"KZ","lat":52.767743,"lon":66.717418,"pop":0,"dumk_id":10209,"search_terms":["brilevka","брилевка"]},{"id":90004590,"name":"Budennoe","names":{"kk":"Буденное","ru":"Буденное","en":"Budennoe"},"country":"KZ","lat":53.182913,"lon":66.553305,"pop":0,"dumk_id":10226,"search_terms":["budennoe","буденное"]},{"id":90004599,"name":"Berezovka","names":{"kk":"Березовка","ru":"Березовка","en":"Berezovka"},"country":"KZ","lat":52.906504,"lon":66.915757,"pop":0,"dumk_id":10235,"search_terms":["berezovka","березовка"]},{"id":90004633,"name":"Baydibek ata","names":{"kk":"Бәйдібек ата","ru":"Байдибек ата","en":"Baydibek ata"},"country":"KZ","lat":42.990374,"lon":69.927817,"pop":0,"dumk_id":10269,"search_terms":["бәйдібек ата","байдибек ата","baydibek ata"]},{"id":90004634,"name":"Bayzhansay","names":{"kk":"Байжансай","ru":"Байжансай","en":"Bayzhansay"},"country":"KZ","lat":43.164038,"lon":69.917828,"pop":0,"dumk_id":10270,"search_terms":["bayzhansay","байжансай"]},{"id":90004638,"name":"Boralday","names":{"kk":"Боралдай","ru":"Боралдай","en":"Boralday"},"country":"KZ","lat":42.775918,"lon":69.653714,"pop":0,"dumk_id":10274,"search_terms":["боралдай","boralday"]},{"id":90004658,"name":"Birlik","names":{"kk":"Бірлік","ru":"Бирлик","en":"Birlik"},"country":"KZ","lat":42.997687,"lon":69.526207,"pop":0,"dumk_id":10294,"search_terms":["бирлик","бірлік","birlik"]},{"id":90004661,"name":"Bestoghay","names":{"kk":"Бестоғай","ru":"Бестогай","en":"Bestoghay"},"country":"KZ","lat":43.245576,"lon":69.169621,"pop":0,"dumk_id":10297,"search_terms":["bestoghay","бестогай","бестоғай"]},{"id":90004671,"name":"Beybitshilik","names":{"kk":"Бейбітшілік","ru":"Бейбитшилик","en":"Beybitshilik"},"country":"KZ","lat":41.002072,"lon":68.245425,"pop":0,"dumk_id":10307,"search_terms":["бейбітшілік","бейбитшилик","beybitshilik"]},{"id":90004678,"name":"Bayandy","names":{"kk":"Баянды","ru":"Баянды","en":"Bayandy"},"country":"KZ","lat":40.883052,"lon":68.13902,"pop":0,"dumk_id":10314,"search_terms":["bayandy","баянды"]},{"id":90004694,"name":"Bayterek","names":{"kk":"Бәйтерек","ru":"Байтерек","en":"Bayterek"},"country":"KZ","lat":40.905742,"lon":68.291543,"pop":0,"dumk_id":10330,"search_terms":["байтерек","бәйтерек","bayterek"]},{"id":90004706,"name":"Bayqonys","names":{"kk":"Байқоныс","ru":"Байконыс","en":"Bayqonys"},"country":"KZ","lat":40.75719,"lon":68.168188,"pop":0,"dumk_id":10342,"search_terms":["bayqonys","байқоныс","байконыс"]},{"id":90004707,"name":"Baqqonys","names":{"kk":"Баққоныс","ru":"Бакконыс","en":"Baqqonys"},"country":"KZ","lat":40.786351,"lon":68.183603,"pop":0,"dumk_id":10343,"search_terms":["баққоныс","бакконыс","baqqonys"]},{"id":90004749,"name":"Baydala","names":{"kk":"Байдала","ru":"Байдала","en":"Baydala"},"country":"KZ","lat":40.932688,"lon":68.399442,"pop":0,"dumk_id":10385,"search_terms":["baydala","байдала"]},{"id":90004750,"name":"Birlik","names":{"kk":"Бірлік","ru":"Бирлик","en":"Birlik"},"country":"KZ","lat":40.937633,"lon":68.417471,"pop":0,"dumk_id":10386,"search_terms":["бирлик","бірлік","birlik"]},{"id":90004801,"name":"Baqabulaq","names":{"kk":"Бақабұлақ","ru":"Бакабулак","en":"Baqabulaq"},"country":"KZ","lat":41.951948,"lon":69.006011,"pop":0,"dumk_id":10437,"search_terms":["baqabulaq","бакабулак","бақабұлақ"]},{"id":90004825,"name":"Bozsu","names":{"kk":"Бозсу","ru":"Бозсу","en":"Bozsu"},"country":"KZ","lat":40.973803,"lon":68.699066,"pop":0,"dumk_id":10461,"search_terms":["бозсу","bozsu"]},{"id":90004841,"name":"Berekeli","names":{"kk":"Берекелі","ru":"Берекели","en":"Berekeli"},"country":"KZ","lat":41.153713,"lon":68.773024,"pop":0,"dumk_id":10477,"search_terms":["берекели","берекелі","berekeli"]},{"id":90004843,"name":"Birlik","names":{"kk":"Бірлік","ru":"Бирлик","en":"Birlik"},"country":"KZ","lat":41.227814,"lon":68.618792,"pop":0,"dumk_id":10479,"search_terms":["бирлик","бірлік","birlik"]},{"id":90004846,"name":"Birtilek","names":{"kk":"Біртілек","ru":"Биртилек","en":"Birtilek"},"country":"KZ","lat":41.363615,"lon":68.932897,"pop":0,"dumk_id":10482,"search_terms":["биртилек","birtilek","біртілек"]},{"id":90004852,"name":"Bozay","names":{"kk":"Бозай","ru":"Бозай","en":"Bozay"},"country":"KZ","lat":41.591723,"lon":68.326426,"pop":0,"dumk_id":10488,"search_terms":["бозай","bozay"]},{"id":90004855,"name":"Bekbota","names":{"kk":"Бекбота","ru":"Бекбота","en":"Bekbota"},"country":"KZ","lat":41.43866,"lon":68.252109,"pop":0,"dumk_id":10491,"search_terms":["бекбота","bekbota"]},{"id":90004858,"name":"Birlesu","names":{"kk":"Бірлесу","ru":"Бирлесу","en":"Birlesu"},"country":"KZ","lat":41.235992,"lon":68.853519,"pop":0,"dumk_id":10494,"search_terms":["birlesu","бірлесу","бирлесу"]},{"id":90004864,"name":"Bayterek","names":{"kk":"Бәйтерек","ru":"Байтерек","en":"Bayterek"},"country":"KZ","lat":41.297768,"lon":68.882524,"pop":0,"dumk_id":10500,"search_terms":["байтерек","бәйтерек","bayterek"]},{"id":90004865,"name":"Besauyl","names":{"kk":"Бесауыл","ru":"Бесауыл","en":"Besauyl"},"country":"KZ","lat":41.260081,"lon":68.880876,"pop":0,"dumk_id":10501,"search_terms":["besauyl","бесауыл"]},{"id":90004866,"name":"Besqubyr","names":{"kk":"Бесқұбыр","ru":"Бескубыр","en":"Besqubyr"},"country":"KZ","lat":41.31967,"lon":68.899149,"pop":0,"dumk_id":10502,"search_terms":["бескубыр","besqubyr","бесқұбыр"]},{"id":90004875,"name":"Baqyshsay","names":{"kk":"Бақышсай","ru":"Бакышсай","en":"Baqyshsay"},"country":"KZ","lat":41.312187,"lon":68.707238,"pop":0,"dumk_id":10511,"search_terms":["бакышсай","baqyshsay","бақышсай"]},{"id":90004876,"name":"Bereke","names":{"kk":"Береке","ru":"Береке","en":"Bereke"},"country":"KZ","lat":41.374544,"lon":68.792706,"pop":0,"dumk_id":10512,"search_terms":["береке","bereke"]},{"id":90004900,"name":"Besketik","names":{"kk":"Бескетік","ru":"Бескетик","en":"Besketik"},"country":"KZ","lat":40.725726,"lon":68.291617,"pop":0,"dumk_id":10536,"search_terms":["besketik","бескетік","бескетик"]},{"id":90004940,"name":"Baqyt","names":{"kk":"Бақыт","ru":"Бакыт","en":"Baqyt"},"country":"KZ","lat":40.811651,"lon":68.485356,"pop":0,"dumk_id":10576,"search_terms":["baqyt","бақыт","бакыт"]},{"id":90004941,"name":"Bereke","names":{"kk":"Береке","ru":"Береке","en":"Bereke"},"country":"KZ","lat":40.73299,"lon":68.469564,"pop":0,"dumk_id":10577,"search_terms":["береке","bereke"]},{"id":90004955,"name":"Badam","names":{"kk":"Бадам","ru":"Бадам","en":"Badam"},"country":"KZ","lat":42.389075,"lon":69.255204,"pop":0,"dumk_id":10591,"search_terms":["бадам","badam"]},{"id":90004960,"name":"Bogen","names":{"kk":"Бөген","ru":"Боген","en":"Bogen"},"country":"KZ","lat":42.735934,"lon":68.983212,"pop":0,"dumk_id":10596,"search_terms":["bogen","боген","бөген"]},{"id":90004961,"name":"Birlik","names":{"kk":"Бірлік","ru":"Бирлик","en":"Birlik"},"country":"KZ","lat":42.485186,"lon":69.13871,"pop":0,"dumk_id":10597,"search_terms":["бирлик","бірлік","birlik"]},{"id":90004968,"name":"Boralday","names":{"kk":"Боралдай","ru":"Боралдай","en":"Boralday"},"country":"KZ","lat":42.676944,"lon":69.479836,"pop":0,"dumk_id":10604,"search_terms":["боралдай","boralday"]},{"id":90004976,"name":"Batyr ata","names":{"kk":"Батыр ата","ru":"Батыр ата","en":"Batyr ata"},"country":"KZ","lat":42.557863,"lon":69.154646,"pop":0,"dumk_id":10612,"search_terms":["batyr ata","батыр ата"]},{"id":90004977,"name":"Beysena Ontaeva","names":{"kk":"Бейсена Онтаева","ru":"Бейсена Онтаева","en":"Beysena Ontaeva"},"country":"KZ","lat":42.414095,"lon":68.806082,"pop":0,"dumk_id":10613,"search_terms":["бейсена онтаева","beysena ontaeva"]},{"id":90004995,"name":"Bereke","names":{"kk":"Береке","ru":"Береке","en":"Bereke"},"country":"KZ","lat":42.593781,"lon":69.359444,"pop":0,"dumk_id":10631,"search_terms":["береке","bereke"]},{"id":90005005,"name":"Bergen isakhanov","names":{"kk":"Берген исаханов","ru":"Берген исаханов","en":"Bergen isakhanov"},"country":"KZ","lat":42.54537,"lon":69.115875,"pop":0,"dumk_id":10641,"search_terms":["bergen isakhanov","берген исаханов"]},{"id":90005010,"name":"Baltakol","names":{"kk":"Балтакөл","ru":"Балтакол","en":"Baltakol"},"country":"KZ","lat":43.114667,"lon":67.763937,"pop":0,"dumk_id":10646,"search_terms":["балтакөл","baltakol","балтакол"]},{"id":90005033,"name":"Bayterek","names":{"kk":"Бәйтерек","ru":"Байтерек","en":"Bayterek"},"country":"KZ","lat":42.459004,"lon":69.810614,"pop":0,"dumk_id":10670,"search_terms":["байтерек","бәйтерек","bayterek"]},{"id":90005061,"name":"Beskepe","names":{"kk":"Бескепе","ru":"Бескепе","en":"Beskepe"},"country":"KZ","lat":42.431553,"lon":69.775077,"pop":0,"dumk_id":10698,"search_terms":["beskepe","бескепе"]},{"id":90005069,"name":"Baghys","names":{"kk":"Бағыс","ru":"Багыс","en":"Baghys"},"country":"KZ","lat":41.555762,"lon":69.487957,"pop":0,"dumk_id":10706,"search_terms":["baghys","бағыс","багыс"]},{"id":90005076,"name":"Bostandyq","names":{"kk":"Бостандық","ru":"Бостандык","en":"Bostandyq"},"country":"KZ","lat":41.391066,"lon":69.098115,"pop":0,"dumk_id":10713,"search_terms":["bostandyq","бостандык","бостандық"]},{"id":90005097,"name":"Bereke","names":{"kk":"Береке","ru":"Береке","en":"Bereke"},"country":"KZ","lat":41.422819,"lon":69.08562,"pop":0,"dumk_id":10734,"search_terms":["береке","bereke"]},{"id":90005119,"name":"Babayqorghan","names":{"kk":"Бабайқорған","ru":"Бабайкорган","en":"Babayqorghan"},"country":"KZ","lat":43.56034,"lon":68.106806,"pop":0,"dumk_id":10756,"search_terms":["бабайқорған","бабайкорган","babayqorghan"]},{"id":90005135,"name":"Bostandyq","names":{"kk":"Бостандық","ru":"Бостандык","en":"Bostandyq"},"country":"KZ","lat":43.446891,"lon":68.429149,"pop":0,"dumk_id":10772,"search_terms":["bostandyq","бостандык","бостандық"]},{"id":90005143,"name":"Bershin tobe","names":{"kk":"Бершін төбе","ru":"Бершин тобе","en":"Bershin tobe"},"country":"KZ","lat":43.292721,"lon":68.44734,"pop":0,"dumk_id":10780,"search_terms":["бершін төбе","bershin tobe","бершин тобе"]},{"id":90005150,"name":"Babata","names":{"kk":"Бабата","ru":"Бабата","en":"Babata"},"country":"KZ","lat":43.581809,"lon":69.334139,"pop":0,"dumk_id":10787,"search_terms":["babata","бабата"]},{"id":90005178,"name":"Baqyrly","names":{"kk":"Бақырлы","ru":"Бакырлы","en":"Baqyrly"},"country":"KZ","lat":44.214701,"lon":67.460401,"pop":0,"dumk_id":10815,"search_terms":["бақырлы","бакырлы","baqyrly"]},{"id":90005180,"name":"Baldysu","names":{"kk":"Балдысу","ru":"Балдысу","en":"Baldysu"},"country":"KZ","lat":43.690896,"lon":68.990632,"pop":0,"dumk_id":10817,"search_terms":["baldysu","балдысу"]},{"id":90005181,"name":"Bosbulaq","names":{"kk":"Босбұлақ","ru":"Босбулак","en":"Bosbulaq"},"country":"KZ","lat":43.565601,"lon":68.350201,"pop":0,"dumk_id":10818,"search_terms":["bosbulaq","босбұлақ","босбулак"]},{"id":90005189,"name":"Birkolik","names":{"kk":"Біркөлік","ru":"Бирколик","en":"Birkolik"},"country":"KZ","lat":42.096693,"lon":70.000347,"pop":0,"dumk_id":10826,"search_terms":["бирколик","біркөлік","birkolik"]},{"id":90005198,"name":"Beynetkesh","names":{"kk":"Бейнеткеш","ru":"Бейнеткеш","en":"Beynetkesh"},"country":"KZ","lat":42.080821,"lon":69.938561,"pop":0,"dumk_id":10835,"search_terms":["бейнеткеш","beynetkesh"]},{"id":90005199,"name":"Birinshi mamyr","names":{"kk":"Бірінші мамыр","ru":"Биринши мамыр","en":"Birinshi mamyr"},"country":"KZ","lat":42.101931,"lon":69.889037,"pop":0,"dumk_id":10836,"search_terms":["birinshi mamyr","бірінші мамыр","биринши мамыр"]},{"id":90005207,"name":"Baldyberek","names":{"kk":"Балдыберек","ru":"Балдыберек","en":"Baldyberek"},"country":"KZ","lat":42.283511,"lon":70.353098,"pop":0,"dumk_id":10844,"search_terms":["балдыберек","baldyberek"]},{"id":90005240,"name":"Balyqty","names":{"kk":"Балықты","ru":"Балыкты","en":"Balyqty"},"country":"KZ","lat":42.586161,"lon":70.067891,"pop":0,"dumk_id":10877,"search_terms":["балықты","balyqty","балыкты"]},{"id":90005262,"name":"Baqybek","names":{"kk":"Бақыбек","ru":"Бакыбек","en":"Baqybek"},"country":"KZ","lat":42.52017,"lon":70.340395,"pop":0,"dumk_id":10899,"search_terms":["бакыбек","бақыбек","baqybek"]},{"id":90005315,"name":"Bidayyq","names":{"kk":"Бидайық","ru":"Бидайык","en":"Bidayyq"},"country":"KZ","lat":48.64744,"lon":71.810156,"pop":0,"dumk_id":10953,"search_terms":["bidayyq","бидайык","бидайық"]},{"id":90005324,"name":"Bayghul","names":{"kk":"Байғұл","ru":"Байгул","en":"Bayghul"},"country":"KZ","lat":48.283379,"lon":70.923061,"pop":0,"dumk_id":10962,"search_terms":["байгул","байғұл","bayghul"]},{"id":90005327,"name":"Bidayyq","names":{"kk":"Бидайық","ru":"Бидайык","en":"Bidayyq"},"country":"KZ","lat":48.730077,"lon":71.941292,"pop":0,"dumk_id":10965,"search_terms":["bidayyq","бидайык","бидайық"]},{"id":90005336,"name":"Betbulaq","names":{"kk":"Бетбұлақ","ru":"Бетбулак","en":"Betbulaq"},"country":"KZ","lat":48.870502,"lon":68.065089,"pop":0,"dumk_id":10974,"search_terms":["бетбулак","бетбұлақ","betbulaq"]},{"id":90005337,"name":"Bozdaq","names":{"kk":"Боздақ","ru":"Боздак","en":"Bozdaq"},"country":"KZ","lat":48.265635,"lon":66.562971,"pop":0,"dumk_id":10975,"search_terms":["боздак","боздақ","bozdaq"]},{"id":90005339,"name":"Borsengir","names":{"kk":"Борсенгір","ru":"Борсенгир","en":"Borsengir"},"country":"KZ","lat":47.904706,"lon":68.574379,"pop":0,"dumk_id":10977,"search_terms":["борсенгір","борсенгир","borsengir"]},