[{"id":1277333,"name":"Bengaluru","local":"Бангалор","country":"IN","lat":12.972,"lon":77.594,"pop":8495492,"tz":"Asia/Kolkata"},{"id":3688689,"name":"Bogota","local":"Богота","country":"CO","lat":4.61,"lon":-74.082,"pop":7674366,"tz":"America/Bogota"},{"id":98182,"name":"Baghdad","local":"Багдад","country":"IQ","lat":33.341,"lon":44.401,"pop":7216000,"tz":"Asia/Baghdad"},{"id":1609350,"name":"Bangkok","local":"Бангкок","country":"TH","lat":13.754,"lon":100.501,"pop":5104476,"tz":"Asia/Bangkok"},{"id":2460596,"name":"Bamako","local":"Бамако","country":"ML","lat":12.609,"lon":-7.975,"pop":4227569,"tz":"Africa/Bamako"},{"id":2950159,"name":"Berlin","local":"Берлин","country":"DE","lat":52.524,"lon":13.411,"pop":3426354,"tz":"Europe/Berlin"},{"id":750269,"name":"Bursa","local":"Бурса","country":"TR","lat":40.196,"lon":29.06,"pop":3101833,"tz":"Europe/Istanbul"},{"id":3435910,"name":"Buenos Aires","local":"Буэнос-Айрес","country":"AR","lat":-34.613,"lon":-58.377,"pop":2891082,"tz":"America/Argentina/Buenos_Aires"},{"id":2174003,"name":"Brisbane","local":"Брисбен","country":"AU","lat":-27.468,"lon":153.028,"pop":2780063,"tz":"Australia/Brisbane"},{"id":1816971,"name":"Baoding","local":"Баодин","country":"CN","lat":38.873,"lon":115.462,"pop":2739887,"tz":"Asia/Shanghai"},{"id":5110302,"name":"Brooklyn","local":"Бруклин","country":"US","lat":40.65,"lon":-73.95,"pop":2736074,"tz":"America/New_York"},{"id":3470127,"name":"Belo Horizonte","local":"Белу-Оризонти","country":"BR","lat":-19.921,"lon":-43.938,"pop":2721564,"tz":"America/Sao_Paulo"},{"id":1649378,"name":"Bekasi","local":"Бекаси","country":"ID","lat":-6.235,"lon":106.99,"pop":2564940,"tz":"Asia/Jakarta"},{"id":1650357,"name":"Bandung","local":"Бандунг","country":"ID","lat":-6.922,"lon":107.607,"pop":2444160,"tz":"Asia/Jakarta"},{"id":3469058,"name":"Brasilia","local":"Бразилия","country":"BR","lat":-15.78,"lon":-47.93,"pop":2207718,"tz":"America/Sao_Paulo"},{"id":2038432,"name":"Baotou","local":"Баотоу","country":"CN","lat":40.652,"lon":109.844,"pop":2150000,"tz":"Asia/Shanghai"},{"id":2260535,"name":"Brazzaville","local":"Браззавиль","country":"CG","lat":-4.266,"lon":15.283,"pop":1982000,"tz":"Africa/Brazzaville"},{"id":276781,"name":"Beirut","local":"Бейрут","country":"LB","lat":33.893,"lon":35.502,"pop":1916100,"tz":"Asia/Beirut"},{"id":683506,"name":"Bucharest","local":"Бухарест","country":"RO","lat":44.432,"lon":26.106,"pop":1877155,"tz":"Europe/Bucharest"},{"id":1275841,"name":"Bhopal","local":"Бхопал","country":"IN","lat":23.255,"lon":77.403,"pop":1798218,"tz":"Asia/Kolkata"},{"id":2347283,"name":"Benin City","local":"Бенин-Сити","country":"NG","lat":6.338,"lon":5.626,"pop":1782000,"tz":"Africa/Lagos"},{"id":3054643,"name":"Budapest","local":"Будапешт","country":"HU","lat":47.498,"lon":19.04,"pop":1741041,"tz":"Europe/Budapest"},{"id":3128760,"name":"Barcelona","local":"Барселона","country":"ES","lat":41.389,"lon":2.159,"pop":1686208,"tz":"Europe/Madrid"},{"id":3405870,"name":"Belem","local":"Белен","country":"BR","lat":-1.456,"lon":-48.504,"pop":1499641,"tz":"America/Belem"},{"id":10942359,"name":"Baoji","local":"Баоцзи","country":"CN","lat":34.368,"lon":107.237,"pop":1437802,"tz":"Asia/Shanghai"},{"id":1816234,"name":"Bozhou","local":"Бочжоу","country":"CN","lat":33.877,"lon":115.77,"pop":1409436,"tz":"Asia/Shanghai"},{"id":5110266,"name":"The Bronx","local":"Бронкс","country":"US","lat":40.85,"lon":-73.866,"pop":1385108,"tz":"America/New_York"},{"id":1183460,"name":"Bannu","local":"Банну","country":"PK","lat":32.985,"lon":70.604,"pop":1357890,"tz":"Asia/Karachi"},{"id":99532,"name":"Basrah","local":"Басра","country":"IQ","lat":30.509,"lon":47.78,"pop":1326564,"tz":"Asia/Baghdad"},{"id":792680,"name":"Belgrade","local":"Белград","country":"RS","lat":44.804,"lon":20.465,"pop":1273651,"tz":"Europe/Belgrade"},{"id":3648522,"name":"Barquisimeto","local":"Баркисимето","country":"VE","lat":10.065,"lon":-69.357,"pop":1240714,"tz":"America/Caracas"},{"id":3689147,"name":"Barranquilla","local":"Барранкилья","country":"CO","lat":10.969,"lon":-74.781,"pop":1206319,"tz":"America/Bogota"},{"id":1624917,"name":"Bandar Lampung","local":"Бандар-Лампунг","country":"ID","lat":-5.429,"lon":105.261,"pop":1166066,"tz":"Asia/Jakarta"},{"id":6295587,"name":"Batam","local":"Батам","country":"ID","lat":1.149,"lon":104.025,"pop":1164352,"tz":"Asia/Jakarta"},{"id":2655603,"name":"Birmingham","local":"Бирмингем","country":"GB","lat":52.481,"lon":-1.9,"pop":1157603,"tz":"Europe/London"},{"id":1816373,"name":"Bijie","local":"Бицзе","country":"CN","lat":27.302,"lon":105.286,"pop":1137383,"tz":"Asia/Shanghai"},{"id":1648473,"name":"Bogor","local":"Богор","country":"ID","lat":-6.594,"lon":106.789,"pop":1127408,"tz":"Asia/Jakarta"},{"id":587084,"name":"Baku","local":"Баку","country":"AZ","lat":40.378,"lon":49.892,"pop":1116513,"tz":"Asia/Baku"},{"id":2800866,"name":"Brussels","local":"Брюссель","country":"BE","lat":50.85,"lon":4.349,"pop":1019022,"tz":"Europe/Brussels"},{"id":2038300,"name":"Benxi","local":"Бэньси","country":"CN","lat":41.289,"lon":123.765,"pop":987717,"tz":"Asia/Shanghai"},{"id":1816440,"name":"Bengbu","local":"Бэнбу","country":"CN","lat":32.941,"lon":117.361,"pop":972784,"tz":"Asia/Shanghai"},{"id":1281673,"name":"Baoshan","local":"Баошань","country":"CN","lat":25.116,"lon":99.164,"pop":935618,"tz":"Asia/Shanghai"},{"id":2362344,"name":"Bobo-Dioulasso","local":"Бобо-Диуласо","country":"BF","lat":11.181,"lon":-4.295,"pop":904920,"tz":"Africa/Ouagadougou"},{"id":1183880,"name":"Bahawalpur","local":"Бахавалпура","country":"PK","lat":29.398,"lon":71.675,"pop":903795,"tz":"Asia/Karachi"},{"id":931755,"name":"Blantyre","local":"Блантайр","country":"MW","lat":-15.785,"lon":35.009,"pop":902588,"tz":"Africa/Blantyre"},{"id":1528675,"name":"Bishkek","local":"Бишкек","country":"KG","lat":42.87,"lon":74.59,"pop":900000,"tz":"Asia/Bishkek"},{"id":1275817,"name":"Bhubaneswar","local":"Бхубанешвар","country":"IN","lat":20.272,"lon":85.834,"pop":885363,"tz":"Asia/Kolkata"},{"id":1275901,"name":"Bhiwandi","local":"Бхиванди","country":"IN","lat":19.3,"lon":73.059,"pop":874032,"tz":"Asia/Kolkata"},{"id":2290956,"name":"Bouake","local":"Буаке","country":"CI","lat":7.694,"lon":-5.03,"pop":832371,"tz":"Africa/Abidjan"},{"id":217831,"name":"Bukavu","local":"Букаву","country":"CD","lat":-2.491,"lon":28.843,"pop":816811,"tz":"Africa/Lubumbashi"},{"id":3648559,"name":"Barcelona","local":"Барселона","country":"VE","lat":10.138,"lon":-64.688,"pop":815141,"tz":"America/Caracas"},{"id":2389853,"name":"Bangui","local":"Банги","country":"CF","lat":4.361,"lon":18.555,"pop":812407,"tz":"Africa/Bangui"},{"id":1276014,"name":"Bhayandar","local":"Бхаяндар","country":"IN","lat":19.302,"lon":72.851,"pop":809378,"tz":"Asia/Kolkata"},{"id":425378,"name":"Bujumbura","local":"Бужумбура","country":"BI","lat":-3.382,"lon":29.361,"pop":769317,"tz":"Africa/Bujumbura"},{"id":88319,"name":"Benghazi","local":"Бенгази","country":"LY","lat":32.115,"lon":20.069,"pop":757490,"tz":"Africa/Tripoli"},{"id":751324,"name":"Bagcilar","local":"Багджылар","country":"TR","lat":41.039,"lon":28.857,"pop":749024,"tz":"Europe/Istanbul"},{"id":1277013,"name":"Bareilly","local":"Барейли","country":"IN","lat":28.367,"lon":79.432,"pop":745435,"tz":"Asia/Kolkata"},{"id":107304,"name":"Buraydah","local":"Бурайда","country":"SA","lat":26.326,"lon":43.975,"pop":745353,"tz":"Asia/Riyadh"},{"id":1650527,"name":"Balikpapan","local":"Баликпапан","country":"ID","lat":-1.268,"lon":116.829,"pop":695287,"tz":"Asia/Makassar"},{"id":2347470,"name":"Bauchi","local":"Баучи","country":"NG","lat":10.31,"lon":9.844,"pop":693700,"tz":"Africa/Lagos"},{"id":1052373,"name":"Beira","local":"Бейра","country":"MZ","lat":-19.844,"lon":34.839,"pop":687764,"tz":"Africa/Maputo"},{"id":1816269,"name":"Baise","local":"Бозе","country":"CN","lat":23.89,"lon":106.627,"pop":686078,"tz":"Asia/Shanghai"},{"id":1816336,"name":"Binzhou","local":"Биньчжоу","country":"CN","lat":37.367,"lon":118.017,"pop":682717,"tz":"Asia/Shanghai"},{"id":894701,"name":"Bulawayo","local":"Булавайо","country":"ZW","lat":-20.15,"lon":28.583,"pop":665952,"tz":"Africa/Harare"},{"id":1650213,"name":"Banjarmasin","local":"Банджармасин","country":"ID","lat":-3.32,"lon":114.591,"pop":657663,"tz":"Asia/Makassar"},{"id":5907364,"name":"Brampton","local":"Брамптон","country":"CA","lat":43.683,"lon":-79.766,"pop":656480,"tz":"America/Toronto"},{"id":4930956,"name":"Boston","local":"Бостон","country":"US","lat":42.358,"lon":-71.06,"pop":653833,"tz":"America/New_York"},{"id":1275665,"name":"Bikaner","local":"Биканер","country":"IN","lat":28.018,"lon":73.315,"pop":644406,"tz":"Asia/Kolkata"},{"id":1510853,"name":"Barnaul","local":"Барнаул","country":"RU","lat":53.362,"lon":83.728,"pop":632372,"tz":"Asia/Barnaul"},{"id":1275971,"name":"Bhilai","local":"Бхилаи","country":"IN","lat":21.209,"lon":81.428,"pop":627734,"tz":"Asia/Kolkata"},{"id":1275248,"name":"Borivli","local":"Боривли","country":"IN","lat":19.235,"lon":72.86,"pop":609617,"tz":"Asia/Kolkata"},{"id":1276032,"name":"Bhavnagar","local":"Бхавнагаром","country":"IN","lat":21.763,"lon":72.153,"pop":605882,"tz":"Asia/Kolkata"},{"id":1020098,"name":"Benoni","local":"Бенони","country":"ZA","lat":-26.188,"lon":28.321,"pop":605344,"tz":"Africa/Johannesburg"},{"id":64021,"name":"Borama","local":"Борама","country":"SO","lat":9.936,"lon":43.183,"pop":597842,"tz":"Africa/Mogadishu"},{"id":4347778,"name":"Baltimore","local":"Балтимор","country":"US","lat":39.29,"lon":-76.612,"pop":585708,"tz":"America/New_York"},{"id":3688465,"name":"Bucaramanga","local":"Букараманга","country":"CO","lat":7.125,"lon":-73.119,"pop":581130,"tz":"America/Bogota"},{"id":1275362,"name":"Bokaro","local":"Бокаро","country":"IN","lat":23.669,"lon":86.152,"pop":564319,"tz":"Asia/Kolkata"},{"id":1018725,"name":"Bloemfontein","local":"Блумфонтейн","country":"ZA","lat":-29.121,"lon":26.214,"pop":556637,"tz":"Africa/Johannesburg"},{"id":3351663,"name":"Benguela","local":"Бенгела","country":"AO","lat":-12.577,"lon":13.403,"pop":555124,"tz":"Africa/Luanda"},{"id":2944388,"name":"Bremen","local":"Бремен","country":"DE","lat":53.076,"lon":8.807,"pop":546501,"tz":"Europe/Berlin"},{"id":1816705,"name":"Beihai","local":"Бэйхай","country":"CN","lat":21.483,"lon":109.115,"pop":525329,"tz":"Asia/Shanghai"},{"id":1272013,"name":"Erode","local":"Брод","country":"IN","lat":11.343,"lon":77.727,"pop":521891,"tz":"Asia/Kolkata"},{"id":1185270,"name":"Bandarban","local":"Бандарбан","country":"BD","lat":22.195,"lon":92.219,"pop":495272,"tz":"Asia/Dhaka"},{"id":1276533,"name":"Belagavi","local":"Белгаум","country":"IN","lat":15.852,"lon":74.504,"pop":490045,"tz":"Asia/Kolkata"},{"id":2654675,"name":"Bristol","local":"Бристоль","country":"GB","lat":51.455,"lon":-2.597,"pop":479024,"tz":"Europe/London"},{"id":3470142,"name":"Belford Roxo","local":"Белфорд-Рошу","country":"BR","lat":-22.764,"lon":-43.399,"pop":466096,"tz":"America/Sao_Paulo"},{"id":321836,"name":"Batman","local":"Батман","country":"TR","lat":37.887,"lon":41.132,"pop":452157,"tz":"Europe/Istanbul"},{"id":1591527,"name":"Bac Giang","local":"Бакзянг","country":"VN","lat":21.273,"lon":106.195,"pop":450000,"tz":"Asia/Bangkok"},{"id":1017780,"name":"Boksburg","local":"Боксбург","country":"ZA","lat":-26.212,"lon":28.26,"pop":445168,"tz":"Africa/Johannesburg"},{"id":2374775,"name":"Bissau","local":"Бисау","country":"GW","lat":11.864,"lon":-15.598,"pop":439704,"tz":"Africa/Bissau"},{"id":571476,"name":"Bryansk","local":"Брянск","country":"RU","lat":53.271,"lon":34.321,"pop":427236,"tz":"Europe/Moscow"},{"id":3060972,"name":"Bratislava","local":"Братислава","country":"SK","lat":48.148,"lon":17.107,"pop":423737,"tz":"Europe/Bratislava"},{"id":2234974,"name":"Bamenda","local":"Баменды","country":"CM","lat":5.96,"lon":10.146,"pop":420445,"tz":"Africa/Douala"},{"id":3664980,"name":"Boa Vista","local":"Боа-Виста","country":"BR","lat":2.82,"lon":-60.673,"pop":419652,"tz":"America/Boa_Vista"},{"id":1276509,"name":"Ballari","local":"Беллари","country":"IN","lat":15.142,"lon":76.924,"pop":410445,"tz":"Asia/Kolkata"},{"id":2347209,"name":"Bida","local":"Бида","country":"NG","lat":9.08,"lon":6.01,"pop":400000,"tz":"Africa/Lagos"},{"id":217695,"name":"Bunia","local":"Буниа","country":"CD","lat":1.559,"lon":30.252,"pop":399282,"tz":"Africa/Lubumbashi"},{"id":3648546,"name":"Barinas","local":"Баринас","country":"VE","lat":8.621,"lon":-70.231,"pop":397279,"tz":"America/Caracas"},{"id":3181928,"name":"Bologna","local":"Болонья","country":"IT","lat":44.494,"lon":11.339,"pop":394843,"tz":"Europe/Rome"},{"id":3688928,"name":"Bello","local":"Белла","country":"CO","lat":6.337,"lon":-75.558,"pop":392939,"tz":"America/Bogota"},{"id":2947416,"name":"Bochum","local":"Бохум","country":"DE","lat":51.482,"lon":7.216,"pop":385729,"tz":"Europe/Berlin"},{"id":3470044,"name":"Betim","local":"Бетин","country":"BR","lat":-19.968,"lon":-44.198,"pop":384000,"tz":"America/Sao_Paulo"},{"id":3078610,"name":"Brno","local":"Брно","country":"CZ","lat":49.195,"lon":16.608,"pop":379466,"tz":"Europe/Prague"},{"id":3470279,"name":"Bauru","local":"Бауру","country":"BR","lat":-22.315,"lon":-49.061,"pop":379297,"tz":"America/Sao_Paulo"},{"id":5325738,"name":"Bakersfield","local":"Бейкерсфилд","country":"US","lat":35.373,"lon":-119.019,"pop":373640,"tz":"America/Los_Angeles"},{"id":1649150,"name":"Bengkulu","local":"Бенгкулу","country":"ID","lat":-3.8,"lon":102.266,"pop":373591,"tz":"Asia/Jakarta"},{"id":2235189,"name":"Bafoussam","local":"Бафуссама","country":"CM","lat":5.478,"lon":10.418,"pop":373268,"tz":"Africa/Douala"},{"id":1283613,"name":"Bharatpur","local":"Бхаратпур","country":"NP","lat":27.68,"lon":84.436,"pop":369377,"tz":"Asia/Kathmandu"},{"id":2654993,"name":"Bradford","local":"Брадфорд","country":"GB","lat":53.794,"lon":-1.752,"pop":366187,"tz":"Europe/London"},{"id":1275637,"name":"Bilaspur","local":"Биласпура","country":"IN","lat":22.08,"lon":82.155,"pop":365579,"tz":"Asia/Kolkata"},{"id":3469968,"name":"Blumenau","local":"Блуменау","country":"BR","lat":-26.919,"lon":-49.066,"pop":361855,"tz":"America/Sao_Paulo"},{"id":1729524,"name":"Bacoor","local":"Бакоор","country":"PH","lat":14.459,"lon":120.939,"pop":356974,"tz":"Asia/Manila"},{"id":1275198,"name":"Brahmapur","local":"Берхампур","country":"IN","lat":19.312,"lon":84.793,"pop":356598,"tz":"Asia/Kolkata"},{"id":141681,"name":"Bandar Abbas","local":"Бендер-Аббас","country":"IR","lat":27.186,"lon":56.281,"pop":352173,"tz":"Asia/Tehran"},{"id":342884,"name":"Bahir Dar","local":"Бахр-Дар","country":"ET","lat":11.594,"lon":37.391,"pop":350000,"tz":"Africa/Addis_Ababa"},{"id":2655984,"name":"Belfast","local":"Белфаст","country":"GB","lat":54.597,"lon":-5.925,"pop":348005,"tz":"Europe/London"},{"id":3128026,"name":"Bilbao","local":"Бильбао","country":"ES","lat":43.263,"lon":-2.925,"pop":347342,"tz":"Europe/Madrid"},{"id":578072,"name":"Belgorod","local":"Белгород","country":"RU","lat":50.603,"lon":36.581,"pop":345289,"tz":"Europe/Moscow"},{"id":629634,"name":"Brest","local":"Брест","country":"BY","lat":52.109,"lon":23.717,"pop":344470,"tz":"Europe/Minsk"},{"id":2949186,"name":"Bielefeld","local":"Билефельд","country":"DE","lat":52.033,"lon":8.533,"pop":331906,"tz":"Europe/Berlin"},{"id":2503769,"name":"Blida","local":"Блида","country":"DZ","lat":36.47,"lon":2.828,"pop":331779,"tz":"Africa/Algiers"},{"id":2946447,"name":"Bonn","local":"Бонн","country":"DE","lat":50.734,"lon":7.095,"pop":330579,"tz":"Europe/Berlin"},{"id":3102014,"name":"Bydgoszcz","local":"Быдгощ","country":"PL","lat":53.123,"lon":18.008,"pop":330038,"tz":"Europe/Warsaw"},{"id":1275701,"name":"Vijayapura","local":"Биджапур","country":"IN","lat":16.824,"lon":75.715,"pop":327427,"tz":"Asia/Kolkata"},{"id":2655613,"name":"Birkenhead","local":"Биркенхед","country":"GB","lat":53.393,"lon":-3.015,"pop":325264,"tz":"Europe/London"},{"id":2038569,"name":"Baicheng","local":"Байчен","country":"CN","lat":45.618,"lon":122.833,"pop":316970,"tz":"Asia/Shanghai"},{"id":3182351,"name":"Bari","local":"Бари","country":"IT","lat":41.121,"lon":16.87,"pop":316491,"tz":"Europe/Rome"},{"id":3470353,"name":"Barueri","local":"Баруэри","country":"BR","lat":-23.511,"lon":-46.876,"pop":316473,"tz":"America/Sao_Paulo"},{"id":3865086,"name":"Bahia Blanca","local":"Байя-Бланка","country":"AR","lat":-38.718,"lon":-62.265,"pop":299101,"tz":"America/Argentina/Buenos_Aires"},{"id":2316702,"name":"Boma","local":"Бома","country":"CD","lat":-5.851,"lon":13.054,"pop":297009,"tz":"Africa/Kinshasa"},{"id":1277539,"name":"Bali","local":"Бали","country":"IN","lat":22.649,"lon":88.341,"pop":296973,"tz":"Asia/Kolkata"},{"id":776069,"name":"Bialystok","local":"Белосток","country":"PL","lat":53.133,"lon":23.164,"pop":295683,"tz":"Europe/Warsaw"},{"id":1817240,"name":"Baiyin","local":"Байинь","country":"CN","lat":36.547,"lon":104.17,"pop":294400,"tz":"Asia/Shanghai"},{"id":3161732,"name":"Bergen","local":"Берген","country":"NO","lat":60.393,"lon":5.324,"pop":294029,"tz":"Europe/Oslo"},{"id":6954929,"name":"Greater Noida","local":"Большая Нойда","country":"IN","lat":28.496,"lon":77.536,"pop":293908,"tz":"Asia/Kolkata"},{"id":2505572,"name":"Batna City","local":"Батна","country":"DZ","lat":35.556,"lon":6.174,"pop":289504,"tz":"Africa/Algiers"},{"id":217562,"name":"Butembo","local":"Бутембо","country":"CD","lat":0.142,"lon":29.291,"pop":286242,"tz":"Africa/Lubumbashi"},{"id":1276070,"name":"Bathinda","local":"Бхатинда","country":"IN","lat":30.207,"lon":74.939,"pop":285788,"tz":"Asia/Kolkata"},{"id":1217662,"name":"Bukhara","local":"Бухара","country":"UZ","lat":39.77,"lon":64.431,"pop":280187,"tz":"Asia/Samarkand"},{"id":2654710,"name":"Brighton","local":"Брайтон","country":"GB","lat":50.828,"lon":-0.139,"pop":277103,"tz":"Europe/London"},{"id":1728930,"name":"Baguio","local":"Багио","country":"PH","lat":16.416,"lon":120.593,"pop":272714,"tz":"Asia/Manila"},{"id":1185281,"name":"Bagerhat","local":"Багерхат","country":"BD","lat":22.657,"lon":89.791,"pop":266388,"tz":"Asia/Dhaka"},{"id":3031582,"name":"Bordeaux","local":"Бордо","country":"FR","lat":44.841,"lon":-0.58,"pop":265328,"tz":"Europe/Paris"},{"id":1277082,"name":"Baranagar","local":"Баранагар","country":"IN","lat":22.641,"lon":88.377,"pop":260072,"tz":"Asia/Kolkata"},{"id":5110629,"name":"Buffalo","local":"Буффало","country":"US","lat":42.886,"lon":-78.878,"pop":258071,"tz":"America/New_York"},{"id":2051523,"name":"Bratsk","local":"Братск","country":"RU","lat":56.133,"lon":101.614,"pop":256600,"tz":"Asia/Irkutsk"},{"id":1215502,"name":"Banda Aceh","local":"Банда-Ачех","country":"ID","lat":5.542,"lon":95.333,"pop":255029,"tz":"Asia/Jakarta"},{"id":683844,"name":"Brasov","local":"Брашов","country":"RO","lat":45.649,"lon":25.606,"pop":253200,"tz":"Europe/Bucharest"},{"id":1276128,"name":"Bharatpur","local":"Бхаратпур","country":"IN","lat":27.217,"lon":77.49,"pop":252838,"tz":"Asia/Kolkata"},{"id":1276609,"name":"Begusarai","local":"Бегусарай","country":"IN","lat":25.419,"lon":86.134,"pop":252008,"tz":"Asia/Kolkata"},{"id":140044,"name":"Borujerd","local":"Боруджерд","country":"IR","lat":33.897,"lon":48.752,"pop":251958,"tz":"Asia/Tehran"},{"id":5911606,"name":"Burnaby","local":"Бернаби","country":"CA","lat":49.266,"lon":-122.953,"pop":249125,"tz":"America/Vancouver"},{"id":1816790,"name":"Beibei","local":"Бэй","country":"CN","lat":29.827,"lon":106.436,"pop":247702,"tz":"Asia/Shanghai"},{"id":1283582,"name":"Biratnagar","local":"Биратнагар","country":"NP","lat":26.455,"lon":87.27,"pop":244750,"tz":"Asia/Kathmandu"},{"id":2945024,"name":"Braunschweig","local":"Брауншвейг","country":"DE","lat":52.266,"lon":10.527,"pop":244715,"tz":"Europe/Berlin"},{"id":64435,"name":"Berbera","local":"Бербера","country":"SO","lat":10.44,"lon":45.014,"pop":242344,"tz":"Africa/Mogadishu"},{"id":3688451,"name":"Buenaventura","local":"Буэнавентура","country":"CO","lat":3.88,"lon":-77.031,"pop":240387,"tz":"America/Bogota"},{"id":322165,"name":"Balikesir","local":"Балыкесир","country":"TR","lat":39.649,"lon":27.886,"pop":238151,"tz":"Europe/Istanbul"},{"id":1726280,"name":"Batangas","local":"Батангас","country":"PH","lat":13.757,"lon":121.058,"pop":237370,"tz":"Asia/Manila"},{"id":5586437,"name":"Boise","local":"Бойсе","country":"US","lat":43.614,"lon":-116.203,"pop":235684,"tz":"America/Boise"},{"id":4315588,"name":"Baton Rouge","local":"Батон-Руж","country":"US","lat":30.443,"lon":-91.187,"pop":227470,"tz":"America/Chicago"},{"id":1648637,"name":"Bitung","local":"Битунг","country":"ID","lat":1.441,"lon":125.128,"pop":225134,"tz":"Asia/Makassar"},{"id":2026609,"name":"Blagoveshchensk","local":"Благовещенск","country":"RU","lat":50.276,"lon":127.526,"pop":225091,"tz":"Asia/Yakutsk"},{"id":1649824,"name":"Batu","local":"Батый","country":"ID","lat":-7.87,"lon":112.528,"pop":221714,"tz":"Asia/Jakarta"},{"id":3204541,"name":"Banja Luka","local":"Баня-Лука","country":"BA","lat":44.779,"lon":17.206,"pop":221106,"tz":"Europe/Sarajevo"},{"id":3129028,"name":"Badalona","local":"Бадалона","country":"ES","lat":41.45,"lon":2.247,"pop":217741,"tz":"Europe/Madrid"},{"id":1275738,"name":"Bidar","local":"Бидар","country":"IN","lat":17.908,"lon":77.515,"pop":216020,"tz":"Asia/Kolkata"},{"id":1510018,"name":"Biysk","local":"Бийск","country":"RU","lat":52.534,"lon":85.197,"pop":215430,"tz":"Asia/Barnaul"},{"id":295514,"name":"Bnei Brak","local":"Бней-Брак","country":"IL","lat":32.081,"lon":34.834,"pop":214444,"tz":"Asia/Jerusalem"},{"id":139889,"name":"Bukan","local":"Букан","country":"IR","lat":36.521,"lon":46.209,"pop":213331,"tz":"Asia/Tehran"},{"id":1735079,"name":"Bukit Mertajam","local":"Букит-Мертаджам","country":"MY","lat":5.363,"lon":100.467,"pop":212329,"tz":"Asia/Kuala_Lumpur"},{"id":732770,"name":"Burgas","local":"Бургас","country":"BG","lat":42.507,"lon":27.469,"pop":210646,"tz":"Europe/Sofia"},{"id":2555745,"name":"Beni Mellal","local":"Бени-Меллаль","country":"MA","lat":32.337,"lon":-6.35,"pop":210397,"tz":"Africa/Casablanca"},{"id":1337233,"name":"Bogra","local":"Богра","country":"BD","lat":24.851,"lon":89.371,"pop":210000,"tz":"Asia/Dhaka"},{"id":1670909,"name":"Bade","local":"Бадэ","country":"TW","lat":24.93,"lon":121.284,"pop":209148,"tz":"Asia/Taipei"},{"id":630468,"name":"Bobruysk","local":"Бобруйск","country":"BY","lat":53.146,"lon":29.206,"pop":207351,"tz":"Europe/Minsk"},{"id":712165,"name":"Bila Tserkva","local":"Белая Церковь","country":"UA","lat":49.8,"lon":30.129,"pop":207273,"tz":"Europe/Kyiv"},{"id":2503826,"name":"Biskra","local":"Бискра","country":"DZ","lat":34.85,"lon":5.728,"pop":204661,"tz":"Africa/Algiers"},{"id":4562831,"name":"Bayamon","local":"Баямон","country":"PR","lat":18.399,"lon":-66.156,"pop":203499,"tz":"America/Puerto_Rico"},{"id":2317397,"name":"Bandundu Province","local":"Бандунду","country":"CD","lat":-3.317,"lon":17.381,"pop":202904,"tz":"Africa/Kinshasa"},{"id":142363,"name":"Babol","local":"Баболь","country":"IR","lat":36.551,"lon":52.679,"pop":202796,"tz":"Asia/Tehran"},{"id":1336137,"name":"Barishal","local":"Барисал","country":"BD","lat":22.705,"lon":90.37,"pop":202242,"tz":"Asia/Dhaka"},{"id":3181554,"name":"Brescia","local":"Брешиа","country":"IT","lat":45.536,"lon":10.215,"pop":200423,"tz":"Europe/Rome"},{"id":579492,"name":"Balakovo","local":"Балаково","country":"RU","lat":52.026,"lon":47.797,"pop":199572,"tz":"Europe/Saratov"},{"id":1275120,"name":"Bulandshahr","local":"Буландшахре","country":"IN","lat":28.404,"lon":77.858,"pop":198612,"tz":"Asia/Kolkata"},{"id":140463,"name":"Birjand","local":"Бирдженд","country":"IR","lat":32.866,"lon":59.221,"pop":196982,"tz":"Asia/Tehran"},{"id":4049979,"name":"Birmingham","local":"Бирмингем","country":"US","lat":33.521,"lon":-86.802,"pop":196357,"tz":"America/Chicago"},{"id":2742032,"name":"Braga","local":"Брага","country":"PT","lat":41.551,"lon":-8.423,"pop":193324,"tz":"Europe/Lisbon"},{"id":1729085,"name":"Bago City","local":"Баго","country":"PH","lat":10.533,"lon":122.833,"pop":192993,"tz":"Asia/Manila"},{"id":3567597,"name":"Bayamo","local":"Баямо","country":"CU","lat":20.374,"lon":-76.643,"pop":192632,"tz":"America/Havana"},{"id":140380,"name":"Bojnurd","local":"Боджнурд","country":"IR","lat":37.475,"lon":57.329,"pop":192041,"tz":"Asia/Tehran"},{"id":3689169,"name":"Barrancabermeja","local":"Барранкабермеха","country":"CO","lat":7.065,"lon":-73.855,"pop":191403,"tz":"America/Bogota"},{"id":3101950,"name":"Bytom","local":"Бытом","country":"PL","lat":50.348,"lon":18.933,"pop":189186,"tz":"Europe/Warsaw"},{"id":6956647,"name":"Boyeros","local":"Бойерос","country":"CU","lat":23.007,"lon":-82.402,"pop":188593,"tz":"America/Havana"},{"id":615532,"name":"Batumi","local":"Батуми","country":"GE","lat":41.641,"lon":41.631,"pop":186949,"tz":"Asia/Tbilisi"},{"id":5911592,"name":"Burlington","local":"Берлингтон","country":"CA","lat":43.386,"lon":-79.837,"pop":186948,"tz":"America/Toronto"},{"id":4676740,"name":"Brownsville","local":"Браунсвилл","country":"US","lat":25.902,"lon":-97.497,"pop":186738,"tz":"America/Chicago"},{"id":295530,"name":"Beersheba","local":"Беэр-Шева","country":"IL","lat":31.252,"lon":34.791,"pop":186600,"tz":"Asia/Jerusalem"},{"id":358840,"name":"Bilbeis","local":"Бильбейс","country":"EG","lat":30.42,"lon":31.562,"pop":185237,"tz":"Africa/Cairo"},{"id":750516,"name":"Bolu","local":"Болу","country":"TR","lat":40.736,"lon":31.606,"pop":184682,"tz":"Europe/Istanbul"},{"id":2758401,"name":"Breda","local":"Бреда","country":"NL","lat":51.587,"lon":4.776,"pop":184126,"tz":"Europe/Amsterdam"},{"id":2038584,"name":"Baishan","local":"Байшань","country":"CN","lat":41.939,"lon":126.42,"pop":183880,"tz":"Asia/Shanghai"},{"id":359280,"name":"Banha","local":"Бенха","country":"EG","lat":30.46,"lon":31.184,"pop":182254,"tz":"Africa/Cairo"},{"id":1277820,"name":"Baharampur","local":"Бахарампур","country":"IN","lat":24.105,"lon":88.252,"pop":180547,"tz":"Asia/Kolkata"},{"id":3436043,"name":"Berazategui","local":"Берасатеги","country":"AR","lat":-34.765,"lon":-58.213,"pop":180523,"tz":"America/Argentina/Buenos_Aires"},{"id":2661604,"name":"Basel","local":"Базель","country":"CH","lat":47.558,"lon":7.573,"pop":177595,"tz":"Europe/Zurich"},{"id":3469092,"name":"Braganca Paulista","local":"Браганса-Паулиста","country":"BR","lat":-22.953,"lon":-46.544,"pop":176811,"tz":"America/Sao_Paulo"},{"id":3103402,"name":"Bielsko-Biala","local":"Бельско-Бяла","country":"PL","lat":49.822,"lon":19.047,"pop":176515,"tz":"Europe/Warsaw"},{"id":3127461,"name":"Burgos","local":"Бургос","country":"ES","lat":42.341,"lon":-3.702,"pop":176418,"tz":"Europe/Madrid"},{"id":2505329,"name":"Bejaia","local":"Беджая","country":"DZ","lat":36.756,"lon":5.084,"pop":176139,"tz":"Africa/Algiers"},{"id":2410048,"name":"Bo","local":"Бо","country":"SL","lat":7.965,"lon":-11.738,"pop":174354,"tz":"Africa/Freetown"},{"id":97783,"name":"Bayji","local":"Байджи","country":"IQ","lat":34.929,"lon":43.489,"pop":173677,"tz":"Asia/Baghdad"},{"id":2310046,"name":"Bata","local":"Бата","country":"GQ","lat":1.864,"lon":9.766,"pop":173046,"tz":"Africa/Malabo"},{"id":630429,"name":"Baranovichi","local":"Барановичи","country":"BY","lat":53.133,"lon":26.008,"pop":171361,"tz":"Europe/Minsk"},{"id":1588275,"name":"Bao Loc","local":"Баолок","country":"VN","lat":11.548,"lon":107.808,"pop":170920,"tz":"Asia/Ho_Chi_Minh"},{"id":1277835,"name":"Bahadurgarh","local":"Бахадургарх","country":"IN","lat":28.693,"lon":76.936,"pop":170767,"tz":"Asia/Kolkata"},{"id":577206,"name":"Berezniki","local":"Березники","country":"RU","lat":59.409,"lon":56.82,"pop":167748,"tz":"Asia/Yekaterinburg"},{"id":5964700,"name":"Greater Sudbury","local":"Большой Садбери","country":"CA","lat":46.49,"lon":-80.99,"pop":166004,"tz":"America/Toronto"},{"id":139817,"name":"Bushehr","local":"Бушир","country":"IR","lat":28.969,"lon":50.837,"pop":165377,"tz":"Asia/Tehran"},{"id":2505530,"name":"Bechar","local":"Бешаре","country":"DZ","lat":31.617,"lon":-2.217,"pop":165241,"tz":"Africa/Algiers"},{"id":3470636,"name":"Barra Mansa","local":"Барра-Манса","country":"BR","lat":-22.544,"lon":-44.171,"pop":164052,"tz":"America/Sao_Paulo"},{"id":2655095,"name":"Bournemouth","local":"Борнмут","country":"GB","lat":50.72,"lon":-1.879,"pop":163600,"tz":"Europe/London"},{"id":1275163,"name":"Budaun","local":"Бадаюн","country":"IN","lat":28.038,"lon":79.127,"pop":161555,"tz":"Asia/Kolkata"},{"id":1648759,"name":"Bima","local":"Бим","country":"ID","lat":-8.46,"lon":118.727,"pop":161362,"tz":"Asia/Makassar"},{"id":3470583,"name":"Barreiras","local":"Баррейрас","country":"BR","lat":-12.153,"lon":-44.99,"pop":159734,"tz":"America/Bahia"},{"id":576432,"name":"Bibirevo","local":"Бибирево","country":"RU","lat":55.883,"lon":37.6,"pop":159000,"tz":"Europe/Moscow"},{"id":6254843,"name":"Birendranagar","local":"Бирендранаган","country":"NP","lat":28.597,"lon":81.617,"pop":154886,"tz":"Asia/Kathmandu"},{"id":683902,"name":"Braila","local":"Брэила","country":"RO","lat":45.272,"lon":27.974,"pop":154686,"tz":"Europe/Bucharest"},{"id":217745,"name":"Bumba","local":"Бумба","country":"CD","lat":2.188,"lon":22.468,"pop":154586,"tz":"Africa/Kinshasa"},{"id":97990,"name":"Baqubah","local":"Баакуба","country":"IQ","lat":33.754,"lon":44.605,"pop":152550,"tz":"Asia/Baghdad"},{"id":1737486,"name":"Bintulu","local":"Бинтулу","country":"MY","lat":3.167,"lon":113.033,"pop":151617,"tz":"Asia/Kuching"},{"id":2521420,"name":"Badajoz","local":"Бадахос","country":"ES","lat":38.878,"lon":-6.971,"pop":150530,"tz":"Europe/Madrid"},{"id":579464,"name":"Balashikha","local":"Балашиха","country":"RU","lat":55.795,"lon":37.948,"pop":150103,"tz":"Europe/Moscow"},{"id":2654264,"name":"Burnley","local":"Бернли","country":"GB","lat":53.8,"lon":-2.233,"pop":149422,"tz":"Europe/London"},{"id":5109790,"name":"Borough Park","local":"Боро-Парк","country":"US","lat":40.634,"lon":-73.997,"pop":149248,"tz":"America/New_York"},{"id":1275812,"name":"Bhuj","local":"Бхудж","country":"IN","lat":23.254,"lon":69.669,"pop":148834,"tz":"Asia/Kolkata"},{"id":3469136,"name":"Botucatu","local":"Ботукату","country":"BR","lat":-22.886,"lon":-48.445,"pop":148130,"tz":"America/Sao_Paulo"},{"id":5894171,"name":"Barrie","local":"Барри","country":"CA","lat":44.4,"lon":-79.666,"pop":147829,"tz":"America/Toronto"},{"id":5282804,"name":"Bridgeport","local":"Бриджпорт","country":"US","lat":41.179,"lon":-73.189,"pop":147629,"tz":"America/New_York"},{"id":1275539,"name":"Beed","local":"Бид","country":"IN","lat":18.989,"lon":75.756,"pop":146709,"tz":"Asia/Kolkata"},{"id":2655524,"name":"Blackburn","local":"Блэкберн","country":"GB","lat":53.75,"lon":-2.483,"pop":146521,"tz":"Europe/London"},{"id":2655459,"name":"Blackpool","local":"Блэкпул","country":"GB","lat":53.817,"lon":-3.05,"pop":145007,"tz":"Europe/London"},{"id":160961,"name":"Bukoba","local":"Букоба","country":"TZ","lat":-1.332,"lon":31.812,"pop":144938,"tz":"Africa/Dar_es_Salaam"},{"id":3030300,"name":"Brest","local":"Брест","country":"FR","lat":48.39,"lon":-4.486,"pop":144899,"tz":"Europe/Paris"},{"id":2656194,"name":"Basildon","local":"Басилдон","country":"GB","lat":51.568,"lon":0.458,"pop":144859,"tz":"Europe/London"},{"id":1277599,"name":"Balasore","local":"Баласор","country":"IN","lat":21.493,"lon":86.933,"pop":144373,"tz":"Asia/Kolkata"},{"id":576279,"name":"Biryulevo","local":"Бирюлёво","country":"RU","lat":55.586,"lon":37.678,"pop":144000,"tz":"Europe/Moscow"},{"id":2291136,"name":"Bondoukou","local":"Бондуку","country":"CI","lat":8.04,"lon":-2.8,"pop":141568,"tz":"Africa/Abidjan"},{"id":3468879,"name":"Brusque","local":"Бруски","country":"BR","lat":-27.098,"lon":-48.913,"pop":141385,"tz":"America/Sao_Paulo"},{"id":2655237,"name":"Bolton","local":"Болтон","country":"GB","lat":53.583,"lon":-2.433,"pop":141331,"tz":"Europe/London"},{"id":219057,"name":"Beni","local":"Бени","country":"CD","lat":0.491,"lon":29.473,"pop":140731,"tz":"Africa/Lubumbashi"},{"id":2233410,"name":"Buea","local":"Буэа","country":"CM","lat":4.153,"lon":9.242,"pop":140533,"tz":"Africa/Douala"},{"id":5786882,"name":"Bellevue","local":"Белвью","country":"US","lat":47.61,"lon":-122.201,"pop":139820,"tz":"America/Los_Angeles"},{"id":3471039,"name":"Balneario Camboriu","local":"Балнеариу-Камбориу","country":"BR","lat":-26.991,"lon":-48.635,"pop":139155,"tz":"America/Sao_Paulo"},{"id":3436077,"name":"Belgrano","local":"Белграно","country":"AR","lat":-34.563,"lon":-58.458,"pop":138942,"tz":"America/Argentina/Buenos_Aires"},{"id":2472706,"name":"Bizerte","local":"Бизерта","country":"TN","lat":37.274,"lon":9.874,"pop":138430,"tz":"Africa/Tunis"},{"id":2234359,"name":"Bertoua","local":"Бертуа","country":"CM","lat":4.577,"lon":13.685,"pop":137993,"tz":"Africa/Douala"},{"id":1019330,"name":"Bhisho","local":"Бишо","country":"ZA","lat":-32.847,"lon":27.442,"pop":137287,"tz":"Africa/Johannesburg"},{"id":685948,"name":"Bacau","local":"Бакэу","country":"RO","lat":46.567,"lon":26.914,"pop":136087,"tz":"Europe/Bucharest"},{"id":630376,"name":"Barysaw","local":"Борисов","country":"BY","lat":54.228,"lon":28.505,"pop":135696,"tz":"Europe/Minsk"},{"id":1277264,"name":"Bankura","local":"Банкура","country":"IN","lat":23.232,"lon":87.072,"pop":133966,"tz":"Asia/Kolkata"},{"id":1276393,"name":"Bettiah","local":"Беттиах","country":"IN","lat":26.802,"lon":84.503,"pop":132209,"tz":"Asia/Kolkata"},{"id":776029,"name":"Bielany","local":"Беляны","country":"PL","lat":52.292,"lon":20.935,"pop":131910,"tz":"Europe/Warsaw"},{"id":3042430,"name":"Zuglo","local":"Будимпешта XIV округ","country":"HU","lat":47.518,"lon":19.105,"pop":130000,"tz":"Europe/Budapest"},{"id":64536,"name":"Baidoa","local":"Байдоа","country":"SO","lat":3.114,"lon":43.65,"pop":129839,"tz":"Africa/Mogadishu"},{"id":295548,"name":"Bat Yam","local":"Бат-Ям","country":"IL","lat":32.024,"lon":34.752,"pop":129012,"tz":"Asia/Jerusalem"},{"id":321082,"name":"Bingoel","local":"Бингол","country":"TR","lat":38.885,"lon":40.494,"pop":128935,"tz":"Europe/Istanbul"},{"id":3033123,"name":"Besancon","local":"Безансон","country":"FR","lat":47.249,"lon":6.018,"pop":128426,"tz":"Europe/Paris"},{"id":1725804,"name":"Bayawan","local":"Байаван","country":"PH","lat":9.365,"lon":122.804,"pop":126744,"tz":"Asia/Manila"},{"id":618605,"name":"Balti","local":"Бельцы","country":"MD","lat":47.763,"lon":27.929,"pop":125000,"tz":"Europe/Chisinau"},{"id":295432,"name":"Bet Shemesh","local":"Бейт-Шемеш","country":"IL","lat":31.731,"lon":34.993,"pop":124957,"tz":"Asia/Jerusalem"},{"id":776251,"name":"Bemowo","local":"Бемово","country":"PL","lat":52.255,"lon":20.908,"pop":123932,"tz":"Europe/Warsaw"},{"id":2038438,"name":"Baoshan","local":"Баошань","country":"CN","lat":46.575,"lon":131.393,"pop":123791,"tz":"Asia/Shanghai"},{"id":1864750,"name":"Beppu","local":"Бэппу","country":"JP","lat":33.279,"lon":131.498,"pop":122643,"tz":"Asia/Tokyo"},{"id":1015621,"name":"Brits","local":"Британцы","country":"ZA","lat":-25.635,"lon":27.78,"pop":122497,"tz":"Africa/Johannesburg"},{"id":3470451,"name":"Barretos","local":"Барретус","country":"BR","lat":-20.557,"lon":-48.568,"pop":122485,"tz":"America/Sao_Paulo"},{"id":2654200,"name":"Burton upon Trent","local":"Бертон-апон-Трент","country":"GB","lat":52.807,"lon":-1.643,"pop":122199,"tz":"Europe/London"},{"id":2661552,"name":"Bern","local":"Берн","country":"CH","lat":46.948,"lon":7.447,"pop":121631,"tz":"Europe/Zurich"},{"id":1276325,"name":"Bhadrak","local":"Бхадрак","country":"IN","lat":21.054,"lon":86.516,"pop":121338,"tz":"Asia/Kolkata"},{"id":3182164,"name":"Bergamo","local":"Бергамо","country":"IT","lat":45.696,"lon":9.667,"pop":121200,"tz":"Europe/Rome"},{"id":1647866,"name":"Bukittinggi","local":"Букиттинги","country":"ID","lat":-0.309,"lon":100.371,"pop":121028,"tz":"Asia/Jakarta"},{"id":5327684,"name":"Berkeley","local":"Беркли","country":"US","lat":37.872,"lon":-122.273,"pop":120972,"tz":"America/Los_Angeles"},{"id":2945756,"name":"Bottrop","local":"Ботроп","country":"DE","lat":51.524,"lon":6.928,"pop":119909,"tz":"Europe/Berlin"},{"id":7290243,"name":"Bergedorf","local":"Бергедорф","country":"DE","lat":53.485,"lon":10.229,"pop":119665,"tz":"Europe/Berlin"},{"id":2555467,"name":"Berkane","local":"Беркан","country":"MA","lat":34.92,"lon":-2.32,"pop":119284,"tz":"Africa/Casablanca"},{"id":1831797,"name":"Battambang","local":"Баттамбанг","country":"KH","lat":13.103,"lon":103.198,"pop":119251,"tz":"Asia/Phnom_Penh"},{"id":1276856,"name":"Barshi","local":"Барши","country":"IN","lat":18.235,"lon":75.693,"pop":118722,"tz":"Asia/Kolkata"},{"id":2800931,"name":"Brugge","local":"Брюгге","country":"BE","lat":51.209,"lon":3.224,"pop":118509,"tz":"Europe/Brussels"},{"id":1277084,"name":"Baran","local":"Баран","country":"IN","lat":25.1,"lon":76.517,"pop":117992,"tz":"Asia/Kolkata"},{"id":1184055,"name":"Badin","local":"Бадин","country":"PK","lat":24.656,"lon":68.837,"pop":117455,"tz":"Asia/Karachi"},{"id":2362909,"name":"Banfora","local":"Банфору","country":"BF","lat":10.641,"lon":-4.753,"pop":117452,"tz":"Africa/Ouagadougou"},{"id":5640350,"name":"Billings","local":"Биллингс","country":"US","lat":45.783,"lon":-108.501,"pop":117116,"tz":"America/Denver"},{"id":1276895,"name":"Barnala","local":"Барнала","country":"IN","lat":30.375,"lon":75.549,"pop":116449,"tz":"Asia/Kolkata"},{"id":4672989,"name":"Beaumont","local":"Бомонт","country":"US","lat":30.086,"lon":-94.102,"pop":115282,"tz":"America/Chicago"},{"id":1276736,"name":"Basti","local":"Басти","country":"IN","lat":26.788,"lon":82.716,"pop":115115,"tz":"Asia/Kolkata"},{"id":1147290,"name":"Balkh","local":"Балх","country":"AF","lat":36.756,"lon":66.897,"pop":114883,"tz":"Asia/Kabul"},{"id":3688256,"name":"Guadalajara de Buga","local":"Буга","country":"CO","lat":3.901,"lon":-76.298,"pop":114316,"tz":"America/Bogota"},{"id":2944368,"name":"Bremerhaven","local":"Бремерхафен","country":"DE","lat":53.554,"lon":8.576,"pop":113557,"tz":"Europe/Berlin"},{"id":5110918,"name":"Bushwick","local":"Бушуик","country":"US","lat":40.694,"lon":-73.919,"pop":112620,"tz":"America/New_York"},{"id":2177091,"name":"Ballarat","local":"Балларат","country":"AU","lat":-37.566,"lon":143.85,"pop":111973,"tz":"Australia/Melbourne"},{"id":1277936,"name":"Bagalkot","local":"Багалкот","country":"IN","lat":16.187,"lon":75.696,"pop":111933,"tz":"Asia/Kolkata"},{"id":1277324,"name":"Bangaon","local":"Бангаон","country":"IN","lat":23.046,"lon":88.831,"pop":111693,"tz":"Asia/Kolkata"},{"id":578740,"name":"Bataysk","local":"Батайск","country":"RU","lat":47.137,"lon":39.757,"pop":109962,"tz":"Europe/Moscow"},{"id":711390,"name":"Brovary","local":"Бровары","country":"UA","lat":50.518,"lon":30.807,"pop":109806,"tz":"Europe/Kyiv"},{"id":3031137,"name":"Boulogne-Billancourt","local":"Булонь-Бийанкур","country":"FR","lat":48.835,"lon":2.241,"pop":108782,"tz":"Europe/Paris"},{"id":685826,"name":"Baia Mare","local":"Бая-Маре","country":"RO","lat":47.657,"lon":23.568,"pop":108759,"tz":"Europe/Bucharest"},{"id":1147540,"name":"Baghlan","local":"Баглан","country":"AF","lat":36.131,"lon":68.708,"pop":108449,"tz":"Asia/Kabul"},{"id":2656192,"name":"Basingstoke","local":"Бейсингсток","country":"GB","lat":51.262,"lon":-1.087,"pop":107642,"tz":"Europe/London"},{"id":751077,"name":"Bandirma","local":"Бандырма","country":"TR","lat":40.352,"lon":27.977,"pop":107631,"tz":"Europe/Istanbul"},{"id":1735076,"name":"Butterworth","local":"Баттерворт","country":"MY","lat":5.399,"lon":100.364,"pop":107591,"tz":"Asia/Kuala_Lumpur"},{"id":3181913,"name":"Bolzano","local":"Больцано","country":"IT","lat":46.491,"lon":11.34,"pop":107436,"tz":"Europe/Rome"},{"id":2656046,"name":"Bedford","local":"Бедфорд","country":"GB","lat":52.135,"lon":-0.466,"pop":106940,"tz":"Europe/London"},{"id":5574991,"name":"Boulder","local":"Боулдер","country":"US","lat":40.015,"lon":-105.271,"pop":106803,"tz":"America/Denver"},{"id":4531405,"name":"Broken Arrow","local":"Брокен-Эрроу","country":"US","lat":36.053,"lon":-95.791,"pop":106563,"tz":"America/Chicago"},{"id":1816221,"name":"Buhe","local":"Бухэ","country":"CN","lat":30.288,"lon":112.23,"pop":106347,"tz":"Asia/Shanghai"},{"id":712451,"name":"Berdyansk","local":"Бердянск","country":"UA","lat":46.756,"lon":36.788,"pop":106311,"tz":"Europe/Kyiv"},{"id":2950349,"name":"Bergisch Gladbach","local":"Бергиш Гладбах","country":"DE","lat":50.986,"lon":7.133,"pop":106184,"tz":"Europe/Berlin"},{"id":5331835,"name":"Burbank","local":"Бербанк","country":"US","lat":34.181,"lon":-118.309,"pop":105319,"tz":"America/Los_Angeles"},{"id":1275103,"name":"Bundi","local":"Бунди","country":"IN","lat":25.439,"lon":75.637,"pop":104919,"tz":"Asia/Kolkata"},{"id":141584,"name":"Baneh","local":"Бани","country":"IR","lat":35.998,"lon":45.885,"pop":104799,"tz":"Asia/Tehran"},{"id":5907990,"name":"Brantford","local":"Брантфорд","country":"CA","lat":43.133,"lon":-80.266,"pop":104688,"tz":"America/Toronto"},{"id":2389086,"name":"Berberati","local":"Берберати","country":"CF","lat":4.261,"lon":15.792,"pop":103713,"tz":"Africa/Bangui"},{"id":3406910,"name":"Bacabal","local":"Бакабал","country":"BR","lat":-4.232,"lon":-44.782,"pop":103711,"tz":"America/Fortaleza"},{"id":4148757,"name":"Brandon","local":"Брэндон","country":"US","lat":27.938,"lon":-82.286,"pop":103483,"tz":"America/New_York"},{"id":683123,"name":"Buzau","local":"Бузэу","country":"RO","lat":45.15,"lon":26.833,"pop":103481,"tz":"Europe/Bucharest"},{"id":2176187,"name":"Bendigo","local":"Бендиго","country":"AU","lat":-36.758,"lon":144.28,"pop":103034,"tz":"Australia/Melbourne"},{"id":575505,"name":"Bogorodskoye","local":"Богородское","country":"RU","lat":55.814,"lon":37.716,"pop":103000,"tz":"Europe/Moscow"},{"id":3469989,"name":"Birigui","local":"Биригуи","country":"BR","lat":-21.289,"lon":-50.34,"pop":102277,"tz":"America/Sao_Paulo"},{"id":571741,"name":"Brateyevo","local":"Братеево","country":"RU","lat":55.638,"lon":37.764,"pop":102000,"tz":"Europe/Moscow"},{"id":3406545,"name":"Balsas","local":"Бальсас","country":"BR","lat":-7.532,"lon":-46.036,"pop":101767,"tz":"America/Fortaleza"},{"id":2656173,"name":"Bath","local":"Бат","country":"GB","lat":51.375,"lon":-2.362,"pop":101557,"tz":"Europe/London"},{"id":63795,"name":"Burao","local":"Бурао","country":"SO","lat":9.522,"lon":45.534,"pop":99270,"tz":"Africa/Mogadishu"},{"id":141736,"name":"Bam","local":"Бам","country":"IR","lat":29.106,"lon":58.357,"pop":99268,"tz":"Asia/Tehran"},{"id":1336136,"name":"Bhola","local":"Бхола","country":"BD","lat":22.688,"lon":90.644,"pop":99079,"tz":"Asia/Dhaka"},{"id":3471196,"name":"Bage","local":"Баг","country":"BR","lat":-31.331,"lon":-54.107,"pop":98940,"tz":"America/Sao_Paulo"},{"id":3374036,"name":"Bridgetown","local":"Бриджтаун","country":"BB","lat":13.107,"lon":-59.62,"pop":98511,"tz":"America/Barbados"},{"id":3470691,"name":"Barra do Pirai","local":"Барра-ду-Пираи","country":"BR","lat":-22.47,"lon":-43.826,"pop":98501,"tz":"America/Sao_Paulo"},{"id":2505629,"name":"Barika","local":"Барика","country":"DZ","lat":35.389,"lon":5.366,"pop":98141,"tz":"Africa/Algiers"},{"id":579460,"name":"Balashov","local":"Балашов","country":"RU","lat":51.551,"lon":43.171,"pop":98107,"tz":"Europe/Saratov"},{"id":2413753,"name":"Brikama","local":"Брикаме","country":"GM","lat":13.271,"lon":-16.649,"pop":97233,"tz":"Africa/Banjul"},{"id":1514382,"name":"Beshariq","local":"Бешарыкского","country":"UZ","lat":40.436,"lon":70.61,"pop":96900,"tz":"Asia/Tashkent"},{"id":1514402,"name":"Bekobod","local":"Бекабад","country":"UZ","lat":40.221,"lon":69.27,"pop":96900,"tz":"Asia/Tashkent"},{"id":3462996,"name":"Francisco Beltrao","local":"Белтран-Франциско","country":"BR","lat":-26.081,"lon":-53.055,"pop":96666,"tz":"America/Sao_Paulo"},{"id":5713376,"name":"Beaverton","local":"Бивертон","country":"US","lat":45.487,"lon":-122.804,"pop":96577,"tz":"America/Los_Angeles"},{"id":320392,"name":"Burdur","local":"Бурдур","country":"TR","lat":37.72,"lon":30.291,"pop":95436,"tz":"Europe/Istanbul"},{"id":4931429,"name":"Brockton","local":"Броктон","country":"US","lat":42.083,"lon":-71.018,"pop":95314,"tz":"America/New_York"},{"id":2038274,"name":"Boli","local":"Боли","country":"CN","lat":45.753,"lon":130.585,"pop":95260,"tz":"Asia/Shanghai"},{"id":140918,"name":"Behshahr","local":"Бехшехр","country":"IR","lat":36.692,"lon":53.553,"pop":94702,"tz":"Asia/Tehran"},{"id":3182340,"name":"Barletta","local":"Барлетта","country":"IT","lat":41.314,"lon":16.282,"pop":93279,"tz":"Europe/Rome"},{"id":4148411,"name":"Boca Raton","local":"Бока-Ратон","country":"US","lat":26.359,"lon":-80.083,"pop":93235,"tz":"America/New_York"},{"id":751335,"name":"Bafra","local":"Бафра","country":"TR","lat":41.568,"lon":35.903,"pop":92944,"tz":"Europe/Istanbul"},{"id":571170,"name":"Bugulma","local":"Бугульма","country":"RU","lat":54.538,"lon":52.798,"pop":91900,"tz":"Europe/Moscow"},{"id":1276191,"name":"Bhandara","local":"Бхандара","country":"IN","lat":21.168,"lon":79.649,"pop":91845,"tz":"Asia/Kolkata"},{"id":13561142,"name":"Budyonnivskyi","local":"Будьоннівський","country":"UA","lat":47.967,"lon":37.863,"pop":90600,"tz":"Europe/Kyiv"},{"id":1510350,"name":"Berdsk","local":"Бердск","country":"RU","lat":54.754,"lon":83.096,"pop":90250,"tz":"Asia/Novosibirsk"},{"id":684039,"name":"Botosani","local":"Ботошани","country":"RO","lat":47.75,"lon":26.667,"pop":90010,"tz":"Europe/Bucharest"},{"id":358726,"name":"Biyala","local":"Бияла","country":"EG","lat":31.174,"lon":31.222,"pop":89068,"tz":"Africa/Cairo"},{"id":2472479,"name":"Ben Arous","local":"Бен-Арус","country":"TN","lat":36.755,"lon":10.222,"pop":88322,"tz":"Africa/Tunis"},{"id":1728772,"name":"Bais","local":"Байс","country":"PH","lat":9.591,"lon":123.123,"pop":88050,"tz":"Asia/Manila"},{"id":161616,"name":"Balkanabat","local":"Балканабат","country":"TM","lat":39.511,"lon":54.367,"pop":87822,"tz":"Asia/Ashgabat"},{"id":570427,"name":"Buzuluk","local":"Бузулук","country":"RU","lat":52.778,"lon":52.259,"pop":87714,"tz":"Asia/Yekaterinburg"},{"id":3181528,"name":"Brindisi","local":"Бриндизи","country":"IT","lat":40.632,"lon":17.936,"pop":87141,"tz":"Europe/Rome"},{"id":5713587,"name":"Bend","local":"Бенд","country":"US","lat":44.058,"lon":-121.315,"pop":87014,"tz":"America/Los_Angeles"},{"id":1250161,"name":"Batticaloa","local":"Баттикалоа","country":"LK","lat":7.71,"lon":81.692,"pop":86742,"tz":"Asia/Colombo"},{"id":5018739,"name":"Bloomington","local":"Блумингтон","country":"US","lat":44.841,"lon":-93.298,"pop":86435,"tz":"America/Chicago"},{"id":579870,"name":"Babushkin","local":"Бабушкин","country":"RU","lat":55.869,"lon":37.73,"pop":86000,"tz":"Europe/Moscow"},{"id":2437732,"name":"Birni N Konni","local":"Бирнин-Конни","country":"NE","lat":13.796,"lon":5.25,"pop":85494,"tz":"Africa/Niamey"},{"id":5786899,"name":"Bellingham","local":"Беллингхем","country":"US","lat":48.76,"lon":-122.488,"pop":85146,"tz":"America/Los_Angeles"},{"id":1276829,"name":"Baruni","local":"Баруни","country":"IN","lat":25.475,"lon":85.968,"pop":84888,"tz":"Asia/Kolkata"},{"id":1275679,"name":"Bijnor","local":"Биджнор","country":"IN","lat":29.373,"lon":78.136,"pop":84593,"tz":"Asia/Kolkata"},{"id":4254679,"name":"Bloomington","local":"Блумингтон","country":"US","lat":39.165,"lon":-86.526,"pop":84067,"tz":"America/Indiana/Indianapolis"},{"id":5331575,"name":"Buena Park","local":"Буэна-Парк","country":"US","lat":33.868,"lon":-117.998,"pop":83270,"tz":"America/Los_Angeles"},{"id":240604,"name":"Bambari","local":"Бамбари","country":"CF","lat":5.768,"lon":20.676,"pop":83029,"tz":"Africa/Bangui"},{"id":161290,"name":"Bagamoyo","local":"Багамойо","country":"TZ","lat":-6.442,"lon":38.904,"pop":82426,"tz":"Africa/Dar_es_Salaam"},{"id":4677008,"name":"Bryan","local":"Брайан","country":"US","lat":30.674,"lon":-96.37,"pop":82118,"tz":"America/Chicago"},{"id":2302821,"name":"Bolgatanga","local":"Болгатанге","country":"GH","lat":10.786,"lon":-0.851,"pop":81958,"tz":"Africa/Accra"},{"id":751057,"name":"Bartin","local":"Бартин","country":"TR","lat":41.636,"lon":32.337,"pop":81692,"tz":"Europe/Istanbul"},{"id":6325478,"name":"Beauport","local":"Бопор","country":"CA","lat":46.859,"lon":-71.192,"pop":81425,"tz":"America/Toronto"},{"id":1525798,"name":"Balqash","local":"Балхаш","country":"KZ","lat":46.845,"lon":74.982,"pop":81364,"tz":"Asia/Almaty"},{"id":217570,"name":"Buta","local":"Бут","country":"CD","lat":2.786,"lon":24.73,"pop":80751,"tz":"Africa/Lubumbashi"},{"id":1276988,"name":"Bargarh","local":"Баргарх","country":"IN","lat":21.333,"lon":83.619,"pop":80625,"tz":"Asia/Kolkata"},{"id":1722267,"name":"Bustos","local":"Бустос","country":"PH","lat":14.958,"lon":120.918,"pop":80565,"tz":"Asia/Manila"},{"id":713174,"name":"Bakhmut","local":"Бахмут","country":"UA","lat":48.594,"lon":38.0,"pop":80500,"tz":"Europe/Kyiv"},{"id":140889,"name":"Bonab","local":"Бонаб","country":"IR","lat":37.34,"lon":46.056,"pop":80359,"tz":"Asia/Tehran"},{"id":5019335,"name":"Brooklyn Park","local":"Бруклин-Парк","country":"US","lat":45.094,"lon":-93.356,"pop":79149,"tz":"America/Chicago"},{"id":684657,"name":"Bistrita","local":"Бистрица","country":"RO","lat":47.133,"lon":24.5,"pop":78877,"tz":"Europe/Bucharest"},{"id":5327422,"name":"Bellflower","local":"Беллфлауэр","country":"US","lat":33.882,"lon":-118.117,"pop":78441,"tz":"America/Los_Angeles"},{"id":3049646,"name":"Kobanya","local":"Будимпешта X округ","country":"HU","lat":47.484,"lon":19.139,"pop":78414,"tz":"Europe/Budapest"},{"id":8521444,"name":"Bandar-e Emam Khomeyni","local":"Бендер-Хомейни","country":"IR","lat":30.437,"lon":49.103,"pop":78353,"tz":"Asia/Tehran"},{"id":4885164,"name":"Bloomington","local":"Блумингтон","country":"US","lat":40.484,"lon":-88.994,"pop":78292,"tz":"America/Chicago"},{"id":5325866,"name":"Baldwin Park","local":"Болдуин-Парк","country":"US","lat":34.085,"lon":-117.961,"pop":77071,"tz":"America/Los_Angeles"},{"id":2075432,"name":"Bunbury","local":"Банбери","country":"AU","lat":-33.327,"lon":115.641,"pop":76452,"tz":"Australia/Perth"},{"id":4672731,"name":"Baytown","local":"Бејтаун","country":"US","lat":29.735,"lon":-94.977,"pop":76335,"tz":"America/Chicago"},{"id":2655009,"name":"Bracknell","local":"Бракнел","country":"GB","lat":51.414,"lon":-0.751,"pop":76103,"tz":"Europe/London"},{"id":2278158,"name":"Buchanan","local":"Бьюкенен","country":"LR","lat":5.877,"lon":-10.05,"pop":75854,"tz":"Africa/Monrovia"},{"id":1510469,"name":"Belovo","local":"Белово","country":"RU","lat":54.421,"lon":86.299,"pop":75764,"tz":"Asia/Novokuznetsk"},{"id":3204222,"name":"Bihac","local":"Бихач","country":"BA","lat":44.817,"lon":15.871,"pop":75641,"tz":"Europe/Sarajevo"},{"id":5688025,"name":"Bismarck","local":"Бисмарк","country":"US","lat":46.808,"lon":-100.784,"pop":75092,"tz":"America/Chicago"},{"id":2951825,"name":"Bayreuth","local":"Байройт","country":"DE","lat":49.948,"lon":11.579,"pop":75061,"tz":"Europe/Berlin"},{"id":1182787,"name":"Bhalwal","local":"Бхалвал","country":"PK","lat":32.266,"lon":72.898,"pop":74744,"tz":"Asia/Karachi"},{"id":3061186,"name":"Banska Bystrica","local":"Банска-Бистрица","country":"SK","lat":48.739,"lon":19.149,"pop":74590,"tz":"Europe/Bratislava"},{"id":5110446,"name":"Brownsville","local":"Браунсвилл","country":"US","lat":40.661,"lon":-73.92,"pop":74497,"tz":"America/New_York"},{"id":750598,"name":"Bilecik","local":"Биледжик","country":"TR","lat":40.142,"lon":29.979,"pop":74457,"tz":"Europe/Istanbul"},{"id":4885265,"name":"Bolingbrook","local":"Болингбрук","country":"US","lat":41.699,"lon":-88.068,"pop":74306,"tz":"America/Chicago"},{"id":64013,"name":"Bosaso","local":"Босасо","country":"SO","lat":11.284,"lon":49.182,"pop":74287,"tz":"Africa/Mogadishu"},{"id":3032833,"name":"Beziers","local":"Безье","country":"FR","lat":43.341,"lon":3.214,"pop":74081,"tz":"Europe/Paris"},{"id":1276574,"name":"Bela","local":"Бела","country":"IN","lat":25.921,"lon":81.996,"pop":73992,"tz":"Asia/Kolkata"},{"id":4148677,"name":"Boynton Beach","local":"Бойнтон-Біч","country":"US","lat":26.525,"lon":-80.066,"pop":73966,"tz":"America/New_York"},{"id":2947421,"name":"Bocholt","local":"Бохольт","country":"DE","lat":51.839,"lon":6.615,"pop":73943,"tz":"Europe/Berlin"},{"id":2173323,"name":"Bundaberg","local":"Бандаберг","country":"AU","lat":-24.866,"lon":152.348,"pop":73747,"tz":"Australia/Brisbane"},{"id":2026643,"name":"Birobidzhan","local":"Биробиджан","country":"RU","lat":48.793,"lon":132.92,"pop":73623,"tz":"Asia/Vladivostok"},{"id":3511233,"name":"Bonao","local":"Бонао","country":"DO","lat":18.942,"lon":-70.411,"pop":73269,"tz":"America/Santo_Domingo"},{"id":321580,"name":"Belek","local":"Белек","country":"TR","lat":36.863,"lon":31.065,"pop":73260,"tz":"Europe/Istanbul"},{"id":712441,"name":"Berdychiv","local":"Бердичев","country":"UA","lat":49.894,"lon":28.601,"pop":73046,"tz":"Europe/Kyiv"},{"id":3470709,"name":"Barra do Garcas","local":"Барра-ду-Гарсас","country":"BR","lat":-15.89,"lon":-52.257,"pop":72694,"tz":"America/Cuiaba"},{"id":2472675,"name":"Le Bardo","local":"Бардо","country":"TN","lat":36.811,"lon":10.135,"pop":71961,"tz":"Africa/Tunis"},{"id":1016698,"name":"Bothaville","local":"Ботавилль","country":"ZA","lat":-27.389,"lon":26.617,"pop":71934,"tz":"Africa/Johannesburg"},{"id":2720501,"name":"Boras","local":"Бурос","country":"SE","lat":57.721,"lon":12.94,"pop":71700,"tz":"Europe/Stockholm"},{"id":2387926,"name":"Bouar","local":"Буаре","country":"CF","lat":5.934,"lon":15.596,"pop":71680,"tz":"Africa/Bangui"},{"id":2656284,"name":"Barnsley","local":"Барнсли","country":"GB","lat":53.55,"lon":-1.483,"pop":71447,"tz":"Europe/London"},{"id":2948917,"name":"Billstedt","local":"Билштет","country":"DE","lat":53.55,"lon":10.133,"pop":71077,"tz":"Europe/Berlin"},{"id":3468893,"name":"Brumado","local":"Брумаду","country":"BR","lat":-14.204,"lon":-41.665,"pop":70510,"tz":"America/Bahia"},{"id":2243866,"name":"Bailundo","local":"Байлунду","country":"AO","lat":-9.575,"lon":15.994,"pop":70481,"tz":"Africa/Luanda"},{"id":577881,"name":"Beloretsk","local":"Белорецк","country":"RU","lat":53.962,"lon":58.4,"pop":70468,"tz":"Asia/Yekaterinburg"},{"id":2521088,"name":"Benidorm","local":"Бенидорм","country":"ES","lat":38.538,"lon":-0.131,"pop":70450,"tz":"Europe/Madrid"},{"id":1219762,"name":"Bayramaly","local":"Байрамали","country":"TM","lat":37.619,"lon":62.167,"pop":70376,"tz":"Asia/Ashgabat"},{"id":2952984,"name":"Bamberg","local":"Бамберг","country":"DE","lat":49.899,"lon":10.901,"pop":70047,"tz":"Europe/Berlin"},{"id":1521368,"name":"Baikonur","local":"Байконур","country":"KZ","lat":45.617,"lon":63.317,"pop":70000,"tz":"Asia/Qostanay"},{"id":1276783,"name":"Basavakalyan","local":"Басавакальян","country":"IN","lat":17.874,"lon":76.95,"pop":69717,"tz":"Asia/Kolkata"},{"id":5909629,"name":"Brossard","local":"Броссар","country":"CA","lat":45.45,"lon":-73.466,"pop":69575,"tz":"America/Toronto"},{"id":792578,"name":"Bitola","local":"Битола","country":"MK","lat":41.032,"lon":21.336,"pop":69287,"tz":"Europe/Skopje"},{"id":1328121,"name":"Bogale","local":"Богале","country":"MM","lat":16.294,"lon":95.397,"pop":68938,"tz":"Asia/Yangon"},{"id":572525,"name":"Borisoglebsk","local":"Борисоглебск","country":"RU","lat":51.369,"lon":42.098,"pop":68597,"tz":"Europe/Moscow"},{"id":1275481,"name":"Bisalpur","local":"Бисалпур","country":"IN","lat":28.293,"lon":79.805,"pop":68355,"tz":"Asia/Kolkata"},{"id":4317639,"name":"Bossier City","local":"Божер Сити","country":"US","lat":32.516,"lon":-93.732,"pop":68094,"tz":"America/Chicago"},{"id":200067,"name":"Bungoma","local":"Бунгома","country":"KE","lat":0.564,"lon":34.561,"pop":68031,"tz":"Africa/Nairobi"},{"id":3031005,"name":"Bourges","local":"Бурж","country":"FR","lat":47.083,"lon":2.4,"pop":67987,"tz":"Europe/Paris"},{"id":571306,"name":"Budyonnovsk","local":"Будённовск","country":"RU","lat":44.784,"lon":44.166,"pop":67962,"tz":"Europe/Moscow"},{"id":2026895,"name":"Belogorsk","local":"Белогорск","country":"RU","lat":50.912,"lon":128.512,"pop":67911,"tz":"Asia/Yakutsk"},{"id":684802,"name":"Barlad","local":"Бырлад","country":"RO","lat":46.232,"lon":27.669,"pop":67818,"tz":"Europe/Bucharest"},{"id":733191,"name":"Blagoevgrad","local":"Благоевград","country":"BG","lat":42.015,"lon":23.098,"pop":67810,"tz":"Europe/Sofia"},{"id":1283679,"name":"Banepa","local":"Банепа","country":"NP","lat":27.633,"lon":85.522,"pop":67629,"tz":"Asia/Kathmandu"},{"id":161312,"name":"Babati","local":"Бабати","country":"TZ","lat":-4.217,"lon":35.75,"pop":67445,"tz":"Africa/Dar_es_Salaam"},{"id":3512067,"name":"Bani","local":"Бан","country":"DO","lat":18.28,"lon":-70.332,"pop":66709,"tz":"America/Santo_Domingo"},{"id":824003,"name":"Bakixanov","local":"Бакиханова","country":"AZ","lat":40.419,"lon":49.967,"pop":66686,"tz":"Asia/Baku"},{"id":5095445,"name":"Bayonne","local":"Бейонн","country":"US","lat":40.669,"lon":-74.114,"pop":66311,"tz":"America/New_York"},{"id":6690877,"name":"Brixton","local":"Брикстон","country":"GB","lat":51.466,"lon":-0.107,"pop":66300,"tz":"Europe/London"},{"id":2759145,"name":"Bergen op Zoom","local":"Берген-оп-Зом","country":"NL","lat":51.495,"lon":4.292,"pop":66256,"tz":"Europe/Amsterdam"},{"id":1514387,"name":"Beruniy","local":"Беруний","country":"UZ","lat":41.691,"lon":60.752,"pop":66090,"tz":"Asia/Samarkand"},{"id":1817858,"name":"Babu","local":"Бабу","country":"CN","lat":24.417,"lon":111.517,"pop":65603,"tz":"Asia/Shanghai"},{"id":3469437,"name":"Bom Jesus da Lapa","local":"Бон-Жезус-да-Лапа","country":"BR","lat":-13.255,"lon":-43.418,"pop":65550,"tz":"America/Bahia"},{"id":3582677,"name":"Belize City","local":"Белиз","country":"BZ","lat":17.5,"lon":-88.198,"pop":65222,"tz":"America/Belize"},{"id":1429434,"name":"Bazarak","local":"Базарак","country":"AF","lat":35.313,"lon":69.515,"pop":65000,"tz":"Asia/Kabul"},{"id":3405738,"name":"Bezerros","local":"Безеррус","country":"BR","lat":-8.233,"lon":-35.797,"pop":64809,"tz":"America/Recife"},{"id":3470052,"name":"Bertioga","local":"Бертиога","country":"BR","lat":-23.854,"lon":-46.139,"pop":64723,"tz":"America/Sao_Paulo"},{"id":1820906,"name":"Bandar Seri Begawan","local":"Бандар-Сери-Бегаван","country":"BN","lat":4.89,"lon":114.94,"pop":64409,"tz":"Asia/Brunei"},{"id":711660,"name":"Boryspil","local":"Борисполь","country":"UA","lat":50.353,"lon":30.955,"pop":64117,"tz":"Europe/Kyiv"},{"id":1275462,"name":"Bishnupur","local":"Бишнупур","country":"IN","lat":23.074,"lon":87.32,"pop":64041,"tz":"Asia/Kolkata"},{"id":2655262,"name":"Bognor Regis","local":"Богнор Риџис","country":"GB","lat":50.782,"lon":-0.68,"pop":63885,"tz":"Europe/London"},{"id":2434910,"name":"Bongor","local":"Бонгор","country":"TD","lat":10.281,"lon":15.374,"pop":63699,"tz":"Africa/Ndjamena"},{"id":4285268,"name":"Bowling Green","local":"Боулинг-Грин","country":"US","lat":36.99,"lon":-86.444,"pop":63616,"tz":"America/Chicago"},{"id":2654394,"name":"Buckley","local":"Бъкли","country":"GB","lat":53.167,"lon":-3.083,"pop":63576,"tz":"Europe/London"},{"id":2950438,"name":"Bergheim","local":"Бергем","country":"DE","lat":50.956,"lon":6.64,"pop":63558,"tz":"Europe/Berlin"},{"id":3897774,"name":"Buin","local":"Буин","country":"CL","lat":-33.733,"lon":-70.743,"pop":63419,"tz":"America/Santiago"},{"id":579514,"name":"Novaya Balakhna","local":"Балахна","country":"RU","lat":56.49,"lon":43.601,"pop":63083,"tz":"Europe/Moscow"},{"id":1816256,"name":"Botou","local":"Бота","country":"CN","lat":38.074,"lon":116.567,"pop":63045,"tz":"Asia/Shanghai"},{"id":2038446,"name":"Baoqing","local":"Баоцин","country":"CN","lat":46.325,"lon":132.19,"pop":62991,"tz":"Asia/Shanghai"},{"id":3103709,"name":"Belchatow","local":"Белхатув","country":"PL","lat":51.369,"lon":19.357,"pop":62896,"tz":"Europe/Warsaw"},{"id":203112,"name":"Butare","local":"Бутаре","country":"RW","lat":-2.597,"lon":29.739,"pop":62823,"tz":"Africa/Kigali"},{"id":570479,"name":"Buynaksk","local":"Буйнакск","country":"RU","lat":42.818,"lon":47.127,"pop":62689,"tz":"Europe/Moscow"},{"id":578120,"name":"Belebey","local":"Белебей","country":"RU","lat":54.108,"lon":54.117,"pop":62582,"tz":"Asia/Yekaterinburg"},{"id":3186084,"name":"Berat","local":"Берат","country":"AL","lat":40.706,"lon":19.952,"pop":62232,"tz":"Europe/Tirane"},{"id":3053176,"name":"Erzsebetvaros","local":"Будимпешта VII округ","country":"HU","lat":47.502,"lon":19.072,"pop":62000,"tz":"Europe/Budapest"},{"id":2367568,"name":"Bassar","local":"Басар","country":"TG","lat":9.25,"lon":0.782,"pop":61845,"tz":"Africa/Lome"},{"id":2472774,"name":"Beja","local":"Беджа","country":"TN","lat":36.726,"lon":9.182,"pop":61568,"tz":"Africa/Tunis"},{"id":5019767,"name":"Burnsville","local":"Бернсвилл","country":"US","lat":44.768,"lon":-93.278,"pop":61481,"tz":"America/Chicago"},{"id":1276977,"name":"Barh","local":"Барх","country":"IN","lat":25.483,"lon":85.709,"pop":61470,"tz":"Asia/Kolkata"},{"id":2654187,"name":"Bury","local":"Бери","country":"GB","lat":53.6,"lon":-2.3,"pop":61044,"tz":"Europe/London"},{"id":2656396,"name":"Bangor","local":"Бангор","country":"GB","lat":54.661,"lon":-5.668,"pop":61011,"tz":"Europe/London"},{"id":4348599,"name":"Bethesda","local":"Бетесда","country":"US","lat":38.981,"lon":-77.1,"pop":60858,"tz":"America/New_York"},{"id":1277022,"name":"Bardoli","local":"Бардоли","country":"IN","lat":21.123,"lon":73.112,"pop":60821,"tz":"Asia/Kolkata"},{"id":5110077,"name":"Brentwood","local":"Брентвуд","country":"US","lat":40.781,"lon":-73.246,"pop":60664,"tz":"America/New_York"},{"id":572665,"name":"Bor","local":"Бор","country":"RU","lat":56.359,"lon":44.073,"pop":60647,"tz":"Europe/Moscow"},{"id":5282835,"name":"Bristol","local":"Бристол","country":"US","lat":41.672,"lon":-72.949,"pop":60452,"tz":"America/New_York"},{"id":5108815,"name":"Bensonhurst","local":"Бенсонхерст","country":"US","lat":40.602,"lon":-73.994,"pop":60000,"tz":"America/New_York"},{"id":2945358,"name":"Brandenburg an der Havel","local":"Бранденбург","country":"DE","lat":52.417,"lon":12.55,"pop":59826,"tz":"Europe/Berlin"},{"id":722437,"name":"Bekescsaba","local":"Бекешчаба","country":"HU","lat":46.683,"lon":21.1,"pop":59732,"tz":"Europe/Budapest"},{"id":5330642,"name":"Brentwood","local":"Брентвуд","country":"US","lat":37.932,"lon":-121.696,"pop":58968,"tz":"America/Los_Angeles"},{"id":2521139,"name":"Benalmadena","local":"Бенальмадена","country":"ES","lat":36.596,"lon":-4.573,"pop":58854,"tz":"Europe/Madrid"},{"id":4931482,"name":"Brookline","local":"Бруклин","country":"US","lat":42.332,"lon":-71.121,"pop":58732,"tz":"America/New_York"},{"id":4604183,"name":"Bartlett","local":"Бартлетт","country":"US","lat":35.205,"lon":-89.874,"pop":58579,"tz":"America/Chicago"},{"id":895269,"name":"Beitbridge","local":"Байтбридж","country":"ZW","lat":-22.217,"lon":30.0,"pop":58574,"tz":"Africa/Harare"},{"id":3182179,"name":"Benevento","local":"Беневенто","country":"IT","lat":41.131,"lon":14.778,"pop":58418,"tz":"Europe/Rome"},{"id":3470324,"name":"Batatais","local":"Бататайс","country":"BR","lat":-20.891,"lon":-47.585,"pop":58402,"tz":"America/Sao_Paulo"},{"id":3103719,"name":"Bedzin","local":"Бендзин","country":"PL","lat":50.326,"lon":19.126,"pop":58236,"tz":"Europe/Warsaw"},{"id":4349159,"name":"Bowie","local":"Боуи","country":"US","lat":38.943,"lon":-76.73,"pop":58025,"tz":"America/New_York"},{"id":1650815,"name":"Baekrajan","local":"Бэ","country":"ID","lat":-6.767,"lon":110.854,"pop":57920,"tz":"Asia/Jakarta"},{"id":2655198,"name":"Bootle","local":"Бутл","country":"GB","lat":53.467,"lon":-3.017,"pop":57791,"tz":"Europe/London"},{"id":776175,"name":"Biala Podlaska","local":"Бяла-Подляска","country":"PL","lat":52.032,"lon":23.117,"pop":57541,"tz":"Europe/Warsaw"},{"id":572154,"name":"Borovichi","local":"Боровичи","country":"RU","lat":58.394,"lon":33.919,"pop":56571,"tz":"Europe/Moscow"},{"id":4884597,"name":"Berwyn","local":"Бервин","country":"US","lat":41.851,"lon":-87.794,"pop":56368,"tz":"America/Chicago"},{"id":341742,"name":"Bonga","local":"Бонга","country":"ET","lat":7.289,"lon":36.242,"pop":56000,"tz":"Africa/Addis_Ababa"},{"id":5063805,"name":"Bellevue","local":"Белвью","country":"US","lat":41.137,"lon":-95.891,"pop":55510,"tz":"America/Chicago"},{"id":2953504,"name":"Baden-Baden","local":"Баден-Баден","country":"DE","lat":48.761,"lon":8.24,"pop":55449,"tz":"Europe/Berlin"},{"id":64460,"name":"Beledweyne","local":"Беледуэйне","country":"SO","lat":4.736,"lon":45.204,"pop":55410,"tz":"Africa/Mogadishu"},{"id":3182007,"name":"Bisceglie","local":"Бишеллье","country":"IT","lat":41.243,"lon":16.501,"pop":55385,"tz":"Europe/Rome"},{"id":320557,"name":"Bozueyuek","local":"Бозӱйӱк","country":"TR","lat":39.908,"lon":30.037,"pop":55365,"tz":"Europe/Istanbul"},{"id":2388036,"name":"Bossangoa","local":"Босангоа","country":"CF","lat":6.493,"lon":17.455,"pop":55353,"tz":"Africa/Bangui"},{"id":2038421,"name":"Bayan","local":"Баян","country":"CN","lat":46.076,"lon":127.394,"pop":55186,"tz":"Asia/Shanghai"},{"id":2661513,"name":"Biel/Bienne","local":"Биль","country":"CH","lat":47.137,"lon":7.246,"pop":55120,"tz":"Europe/Zurich"},{"id":1510205,"name":"Berezovskiy","local":"Берёзовский","country":"RU","lat":55.67,"lon":86.275,"pop":55000,"tz":"Asia/Novokuznetsk"},{"id":2953358,"name":"Bad Salzuflen","local":"Бад-Зальцуфлен","country":"DE","lat":52.086,"lon":8.744,"pop":54899,"tz":"Europe/Berlin"},{"id":1328218,"name":"Bhamo","local":"Бамо","country":"MM","lat":24.253,"lon":97.234,"pop":54721,"tz":"Asia/Yangon"},{"id":2656235,"name":"Barry","local":"Барри","country":"GB","lat":51.4,"lon":-3.284,"pop":54673,"tz":"Europe/London"},{"id":3033791,"name":"Belfort","local":"Бельфор","country":"FR","lat":47.642,"lon":6.854,"pop":54562,"tz":"Europe/Paris"},{"id":577893,"name":"Belorechensk","local":"Белореченск","country":"RU","lat":44.77,"lon":39.872,"pop":54526,"tz":"Europe/Moscow"},{"id":4148708,"name":"Bradenton","local":"Брейдентон","country":"US","lat":27.499,"lon":-82.575,"pop":54437,"tz":"America/New_York"},{"id":3404766,"name":"Buique","local":"Буики","country":"BR","lat":-8.623,"lon":-37.156,"pop":54425,"tz":"America/Recife"},{"id":1277091,"name":"Baramati","local":"Барамати","country":"IN","lat":18.152,"lon":74.578,"pop":54415,"tz":"Asia/Kolkata"},{"id":4377664,"name":"Blue Springs","local":"Блу Спрингс","country":"US","lat":39.017,"lon":-94.282,"pop":54148,"tz":"America/Chicago"},{"id":240498,"name":"Bangassou","local":"Бангасу","country":"CF","lat":4.741,"lon":22.818,"pop":54059,"tz":"Africa/Bangui"},{"id":3689205,"name":"Barbosa","local":"Барбоза","country":"CO","lat":6.438,"lon":-75.331,"pop":53943,"tz":"America/Bogota"},{"id":140521,"name":"Bijar","local":"Биджар","country":"IR","lat":35.867,"lon":47.605,"pop":53871,"tz":"Asia/Tehran"},{"id":3032213,"name":"Blois","local":"Блуа","country":"FR","lat":47.594,"lon":1.329,"pop":53660,"tz":"Europe/Paris"},{"id":571159,"name":"Buguruslan","local":"Бугуруслан","country":"RU","lat":53.655,"lon":52.442,"pop":53511,"tz":"Asia/Yekaterinburg"},{"id":2654938,"name":"Braintree","local":"Брейнтрий","country":"GB","lat":51.878,"lon":0.553,"pop":53477,"tz":"Europe/London"},{"id":3029974,"name":"Brive-la-Gaillarde","local":"Бриве-ла-Гаилларде","country":"FR","lat":45.159,"lon":1.533,"pop":53466,"tz":"Europe/Paris"},{"id":3034006,"name":"Beauvais","local":"Бове","country":"FR","lat":49.433,"lon":2.083,"pop":53393,"tz":"Europe/Paris"},{"id":2525628,"name":"Bagheria","local":"Багерия","country":"IT","lat":38.079,"lon":13.512,"pop":53149,"tz":"Europe/Rome"},{"id":3405924,"name":"Beberibe","local":"Беберибе","country":"BR","lat":-4.18,"lon":-38.131,"pop":53114,"tz":"America/Fortaleza"},{"id":1014489,"name":"Butterworth","local":"Баттерворта","country":"ZA","lat":-32.331,"lon":28.15,"pop":53086,"tz":"Africa/Johannesburg"},{"id":321025,"name":"Bitlis","local":"Битлис","country":"TR","lat":38.401,"lon":42.108,"pop":53023,"tz":"Europe/Istanbul"},{"id":3127958,"name":"Boadilla del Monte","local":"Боадилья-дель-Монте","country":"ES","lat":40.405,"lon":-3.878,"pop":52626,"tz":"Europe/Madrid"},{"id":2654782,"name":"Brentwood","local":"Брентвуд","country":"GB","lat":51.621,"lon":0.306,"pop":52586,"tz":"Europe/London"},{"id":4458228,"name":"Burlington","local":"Берлингтон","country":"US","lat":36.096,"lon":-79.438,"pop":52472,"tz":"America/New_York"},{"id":2950344,"name":"Bergkamen","local":"Бергкамен","country":"DE","lat":51.616,"lon":7.645,"pop":52329,"tz":"Europe/Berlin"},{"id":2953436,"name":"Bad Homburg vor der Hoehe","local":"Бад-Хомбург","country":"DE","lat":50.227,"lon":8.618,"pop":51859,"tz":"Europe/Berlin"},{"id":2290836,"name":"Boundiali","local":"Бундиали","country":"CI","lat":9.522,"lon":-6.487,"pop":51803,"tz":"Africa/Abidjan"},{"id":3469516,"name":"Bom Despacho","local":"Бон-Деспашу","country":"BR","lat":-19.736,"lon":-45.252,"pop":51737,"tz":"America/Sao_Paulo"},{"id":4148533,"name":"Bonita Springs","local":"Бонита Спрингс","country":"US","lat":26.34,"lon":-81.779,"pop":51704,"tz":"America/New_York"},{"id":4985153,"name":"Battle Creek","local":"Батл Крик","country":"US","lat":42.317,"lon":-85.178,"pop":51589,"tz":"America/Detroit"},{"id":2271071,"name":"Barreiro","local":"Баррейру","country":"PT","lat":38.663,"lon":-9.072,"pop":51280,"tz":"Europe/Lisbon"},{"id":3470821,"name":"Barra","local":"Барра","country":"BR","lat":-11.089,"lon":-43.142,"pop":51092,"tz":"America/Bahia"},{"id":5287262,"name":"Buckeye","local":"Бакай","country":"US","lat":33.37,"lon":-112.584,"pop":50876,"tz":"America/Phoenix"},{"id":2656168,"name":"Batley","local":"Батли","country":"GB","lat":53.703,"lon":-1.634,"pop":50807,"tz":"Europe/London"},{"id":5897884,"name":"Belleville","local":"Бельвиль","country":"CA","lat":44.167,"lon":-77.383,"pop":50716,"tz":"America/Toronto"},{"id":5788516,"name":"Burien","local":"Берин","country":"US","lat":47.47,"lon":-122.347,"pop":50467,"tz":"America/Los_Angeles"},{"id":895061,"name":"Bindura","local":"Биндура","country":"ZW","lat":-17.302,"lon":31.331,"pop":50400,"tz":"Africa/Harare"},{"id":2655351,"name":"Bletchley","local":"Блечли","country":"GB","lat":51.993,"lon":-0.735,"pop":50193,"tz":"Europe/London"},{"id":1728336,"name":"Balayan","local":"Балаян","country":"PH","lat":13.937,"lon":120.732,"pop":50115,"tz":"Asia/Manila"},{"id":13561148,"name":"Bosse","local":"Боссе","country":"UA","lat":47.955,"lon":37.8,"pop":50000,"tz":"Europe/Kyiv"},{"id":2654755,"name":"Bridgend","local":"Бридженд","country":"GB","lat":51.506,"lon":-3.577,"pop":49597,"tz":"Europe/London"},{"id":1277950,"name":"Baduria","local":"Бадурии","country":"IN","lat":22.744,"lon":88.787,"pop":49547,"tz":"Asia/Kolkata"},{"id":2953386,"name":"Bad Oeynhausen","local":"Бад-Эйнхаузен","country":"DE","lat":52.207,"lon":8.804,"pop":49513,"tz":"Europe/Berlin"},{"id":4673094,"name":"Bedford","local":"Бедфорд","country":"US","lat":32.844,"lon":-97.143,"pop":49337,"tz":"America/Chicago"},{"id":5907896,"name":"Brandon","local":"Брэндон","country":"CA","lat":49.847,"lon":-99.953,"pop":48859,"tz":"America/Winnipeg"},{"id":1276867,"name":"Barpeta","local":"Барпета","country":"IN","lat":26.323,"lon":91.006,"pop":48824,"tz":"Asia/Kolkata"},{"id":2656406,"name":"Banbury","local":"Банбери","country":"GB","lat":52.063,"lon":-1.342,"pop":48651,"tz":"Europe/London"},{"id":2946111,"name":"Bornheim","local":"Борнхайм","country":"DE","lat":50.763,"lon":6.991,"pop":48523,"tz":"Europe/Berlin"},{"id":3567834,"name":"Baracoa","local":"Баракоа","country":"CU","lat":20.347,"lon":-74.496,"pop":48362,"tz":"America/Havana"},{"id":1727214,"name":"Bangued","local":"Бангед","country":"PH","lat":17.608,"lon":120.638,"pop":48331,"tz":"Asia/Manila"},{"id":3031815,"name":"Bondy","local":"Бонди","country":"FR","lat":48.902,"lon":2.489,"pop":48268,"tz":"Europe/Paris"},{"id":1215395,"name":"Berastagi","local":"Берастаги","country":"ID","lat":3.195,"lon":98.509,"pop":48244,"tz":"Asia/Jakarta"},{"id":750938,"name":"Bayburt","local":"Байбурт","country":"TR","lat":40.256,"lon":40.223,"pop":48036,"tz":"Europe/Istanbul"},{"id":3406263,"name":"Barras","local":"Баррас","country":"BR","lat":-4.244,"lon":-42.294,"pop":47938,"tz":"America/Fortaleza"},{"id":4929771,"name":"Barnstable","local":"Барнстабл","country":"US","lat":41.7,"lon":-70.299,"pop":47821,"tz":"America/New_York"},{"id":712160,"name":"Bilhorod-Dnistrovskyi","local":"Белгород-Днестровский","country":"UA","lat":46.195,"lon":30.348,"pop":47727,"tz":"Europe/Kyiv"},{"id":7257992,"name":"Bel Air South","local":"Бел Ер Саут","country":"US","lat":39.505,"lon":-76.32,"pop":47709,"tz":"America/New_York"},{"id":1250615,"name":"Badulla","local":"Бадуллы","country":"LK","lat":6.98,"lon":81.058,"pop":47587,"tz":"Asia/Colombo"},{"id":578155,"name":"Belaya Kalitva","local":"Белая Калитва","country":"RU","lat":48.179,"lon":40.779,"pop":47521,"tz":"Europe/Moscow"},{"id":239899,"name":"Bria","local":"Бриа","country":"CF","lat":6.542,"lon":21.986,"pop":47226,"tz":"Africa/Bangui"},{"id":3031133,"name":"Boulogne-sur-Mer","local":"Булонь-сюр-Мер","country":"FR","lat":50.725,"lon":1.614,"pop":47013,"tz":"Europe/Paris"},{"id":1510203,"name":"Beryozovsky","local":"Берёзовский","country":"RU","lat":56.908,"lon":60.802,"pop":47000,"tz":"Asia/Yekaterinburg"},{"id":2395261,"name":"Bassila","local":"Бассіла","country":"BJ","lat":9.008,"lon":1.665,"pop":46569,"tz":"Africa/Porto-Novo"},{"id":3511336,"name":"Boca Chica","local":"Бока Чика","country":"DO","lat":18.45,"lon":-69.6,"pop":46300,"tz":"America/Santo_Domingo"},{"id":2947444,"name":"Boeblingen","local":"Бёблинген","country":"DE","lat":48.682,"lon":9.012,"pop":46282,"tz":"Europe/Berlin"},{"id":2656379,"name":"Banstead","local":"Банстед","country":"GB","lat":51.322,"lon":-0.207,"pop":46280,"tz":"Europe/London"},{"id":4506008,"name":"Beavercreek","local":"Биверкрик","country":"US","lat":39.709,"lon":-84.063,"pop":46277,"tz":"America/New_York"},{"id":2801471,"name":"Borgerhout","local":"Боргерхаут","country":"BE","lat":51.21,"lon":4.435,"pop":46087,"tz":"Europe/Brussels"},{"id":5109177,"name":"Binghamton","local":"Бингемтон","country":"US","lat":42.099,"lon":-75.918,"pop":46032,"tz":"America/New_York"},{"id":1021396,"name":"Balfour","local":"Бальфур","country":"ZA","lat":-26.663,"lon":28.59,"pop":46008,"tz":"Africa/Johannesburg"},{"id":341397,"name":"Bure","local":"Буря","country":"ET","lat":10.7,"lon":37.067,"pop":46000,"tz":"Africa/Addis_Ababa"},{"id":13580096,"name":"Berezniaky","local":"Березняки","country":"UA","lat":50.426,"lon":30.602,"pop":46000,"tz":"Europe/Kyiv"},{"id":2218840,"name":"Bani Walid","local":"Бени-Валид","country":"LY","lat":31.746,"lon":13.984,"pop":45734,"tz":"Africa/Tripoli"},{"id":4418478,"name":"Biloxi","local":"Билокси","country":"US","lat":30.396,"lon":-88.885,"pop":45637,"tz":"America/Chicago"},{"id":2941694,"name":"Buende","local":"Бюнде","country":"DE","lat":52.198,"lon":8.586,"pop":45376,"tz":"Europe/Berlin"},{"id":2943560,"name":"Bruchsal","local":"Брухзаль","country":"DE","lat":49.124,"lon":8.598,"pop":45364,"tz":"Europe/Berlin"},{"id":3031009,"name":"Bourg-en-Bresse","local":"Бурк-ан-Брес","country":"FR","lat":46.206,"lon":5.226,"pop":45340,"tz":"Europe/Paris"},{"id":2802031,"name":"Beveren","local":"Беверен","country":"BE","lat":51.212,"lon":4.256,"pop":45179,"tz":"Europe/Brussels"},{"id":3032179,"name":"Bobigny","local":"Бобиньи","country":"FR","lat":48.91,"lon":2.45,"pop":44962,"tz":"Europe/Paris"},{"id":711369,"name":"Brianka","local":"Брянка","country":"UA","lat":48.511,"lon":38.672,"pop":44760,"tz":"Europe/Kyiv"},{"id":1020641,"name":"Beaufort West","local":"Бофорт-Уэст","country":"ZA","lat":-32.357,"lon":22.583,"pop":44737,"tz":"Africa/Johannesburg"},{"id":4101260,"name":"Bentonville","local":"Бентонвилле","country":"US","lat":36.373,"lon":-94.209,"pop":44499,"tz":"America/Chicago"},{"id":321191,"name":"Beysehir","local":"Бейшехир","country":"TR","lat":37.677,"lon":31.725,"pop":44460,"tz":"Europe/Istanbul"},{"id":3034475,"name":"Bayonne","local":"Байонна","country":"FR","lat":43.493,"lon":-1.473,"pop":44396,"tz":"Europe/Paris"},{"id":3620680,"name":"Bluefields","local":"Блуфилдс","country":"NI","lat":12.013,"lon":-83.764,"pop":44373,"tz":"America/Managua"},{"id":321062,"name":"Birecik","local":"Биреджик","country":"TR","lat":37.026,"lon":37.978,"pop":44284,"tz":"Europe/Istanbul"},{"id":4747845,"name":"Blacksburg","local":"Блэксбург","country":"US","lat":37.23,"lon":-80.414,"pop":44215,"tz":"America/New_York"},{"id":2943320,"name":"Bruehl","local":"Брюль","country":"DE","lat":50.829,"lon":6.905,"pop":44137,"tz":"Europe/Berlin"},{"id":5327098,"name":"Beaumont","local":"Бомонт","country":"US","lat":33.929,"lon":-116.977,"pop":43811,"tz":"America/Los_Angeles"},{"id":5771826,"name":"Bountiful","local":"Баунтифул","country":"US","lat":40.889,"lon":-111.881,"pop":43784,"tz":"America/Denver"},{"id":750317,"name":"Bulancak","local":"Буланджак","country":"TR","lat":40.938,"lon":38.231,"pop":43635,"tz":"Europe/Istanbul"},{"id":4677551,"name":"Burleson","local":"Бурлесоне","country":"US","lat":32.542,"lon":-97.321,"pop":43625,"tz":"America/Chicago"},{"id":5641727,"name":"Bozeman","local":"Бозмана","country":"US","lat":45.68,"lon":-111.039,"pop":43405,"tz":"America/Denver"},{"id":2661567,"name":"Bellinzona","local":"Беллинцона","country":"CH","lat":46.193,"lon":9.017,"pop":43220,"tz":"Europe/Zurich"},{"id":2953416,"name":"Bad Kreuznach","local":"Бад-Кройцнах","country":"DE","lat":49.841,"lon":7.867,"pop":43213,"tz":"Europe/Berlin"},{"id":203104,"name":"Byumba","local":"Биумба","country":"RW","lat":-1.576,"lon":30.067,"pop":43134,"tz":"Africa/Kigali"},{"id":5327319,"name":"Bell Gardens","local":"Белл-Гарденс","country":"US","lat":33.965,"lon":-118.151,"pop":43106,"tz":"America/Los_Angeles"},{"id":3182043,"name":"Biella","local":"Бьелла","country":"IT","lat":45.563,"lon":8.058,"pop":43030,"tz":"Europe/Rome"},{"id":5787829,"name":"Bothell","local":"Бодъл","country":"US","lat":47.762,"lon":-122.205,"pop":42939,"tz":"America/Los_Angeles"},{"id":1527004,"name":"Balykchy","local":"Балыкчи","country":"KG","lat":42.46,"lon":76.187,"pop":42875,"tz":"Asia/Bishkek"},{"id":2654186,"name":"Bury St Edmunds","local":"Бери-Сент-Эдмендс","country":"GB","lat":52.246,"lon":0.711,"pop":42812,"tz":"Europe/London"},{"id":6697039,"name":"Basauri","local":"Басаури","country":"ES","lat":43.24,"lon":-2.886,"pop":42657,"tz":"Europe/Madrid"},{"id":3470730,"name":"Barra de Sao Francisco","local":"Барра-де-Сан-Франциско","country":"BR","lat":-18.755,"lon":-40.891,"pop":42498,"tz":"America/Sao_Paulo"},{"id":5234372,"name":"Burlington","local":"Берлингтон","country":"US","lat":44.476,"lon":-73.212,"pop":42452,"tz":"America/New_York"},{"id":711350,"name":"Bucha","local":"Буча","country":"UA","lat":50.543,"lon":30.212,"pop":42279,"tz":"Europe/Kyiv"},{"id":587078,"name":"Bilajari","local":"Баладжары","country":"AZ","lat":40.444,"lon":49.806,"pop":42194,"tz":"Asia/Baku"},{"id":98112,"name":"Balad","local":"Балада","country":"IQ","lat":34.015,"lon":44.146,"pop":42088,"tz":"Asia/Baghdad"},{"id":4233813,"name":"Belleville","local":"Беллвилл","country":"US","lat":38.52,"lon":-89.984,"pop":42034,"tz":"America/Chicago"},{"id":2951881,"name":"Bautzen","local":"Баутцен","country":"DE","lat":51.18,"lon":14.435,"pop":41972,"tz":"Europe/Berlin"},{"id":2720383,"name":"Borlaenge","local":"Бурленге","country":"SE","lat":60.486,"lon":15.437,"pop":41955,"tz":"Europe/Stockholm"},{"id":5330582,"name":"Brea","local":"Брея","country":"US","lat":33.917,"lon":-117.9,"pop":41944,"tz":"America/Los_Angeles"},{"id":321337,"name":"Besni","local":"Бесни","country":"TR","lat":37.693,"lon":37.861,"pop":41892,"tz":"Europe/Istanbul"},{"id":2435124,"name":"Bitkine","local":"Биткине","country":"TD","lat":11.98,"lon":18.214,"pop":41871,"tz":"Africa/Ndjamena"},{"id":2949012,"name":"Bietigheim-Bissingen","local":"Битигхайм-Биссинген","country":"DE","lat":48.944,"lon":9.118,"pop":41769,"tz":"Europe/Berlin"},{"id":4608408,"name":"Brentwood","local":"Брентвуд","country":"US","lat":36.033,"lon":-86.783,"pop":41763,"tz":"America/Chicago"},{"id":4884141,"name":"Bartlett","local":"Бартлетт","country":"US","lat":41.995,"lon":-88.186,"pop":41545,"tz":"America/Chicago"},{"id":4885955,"name":"Buffalo Grove","local":"Бафало Гроув","country":"US","lat":42.151,"lon":-87.96,"pop":41496,"tz":"America/Chicago"},{"id":3203099,"name":"Bugojno","local":"Бугойно","country":"BA","lat":44.057,"lon":17.451,"pop":41378,"tz":"Europe/Sarajevo"},{"id":2655138,"name":"Boston","local":"Бостон","country":"GB","lat":52.976,"lon":-0.027,"pop":41340,"tz":"Europe/London"},{"id":2654730,"name":"Bridgwater","local":"Бриджуотер","country":"GB","lat":51.128,"lon":-3.004,"pop":41276,"tz":"Europe/London"},{"id":4930505,"name":"Beverly","local":"Беверли","country":"US","lat":42.558,"lon":-70.88,"pop":41186,"tz":"America/New_York"},{"id":2317285,"name":"Basankusu","local":"Басанкусу","country":"CD","lat":1.221,"lon":19.802,"pop":41141,"tz":"Africa/Kinshasa"},{"id":1276103,"name":"Bharthana","local":"Бхартхана","country":"IN","lat":26.752,"lon":79.222,"pop":41055,"tz":"Asia/Kolkata"},{"id":4749950,"name":"Burke","local":"Берк","country":"US","lat":38.793,"lon":-77.272,"pop":41055,"tz":"America/New_York"},{"id":576317,"name":"Birsk","local":"Бирск","country":"RU","lat":55.42,"lon":55.542,"pop":41014,"tz":"Asia/Yekaterinburg"},{"id":1528717,"name":"Bazar-Korgon","local":"Базар-Коргон","country":"KG","lat":41.038,"lon":72.746,"pop":41011,"tz":"Asia/Bishkek"},{"id":3034640,"name":"Bastia","local":"Бастия","country":"FR","lat":42.702,"lon":9.451,"pop":41001,"tz":"Europe/Paris"},{"id":2502939,"name":"Bou Ismail","local":"Бу-Исмаил","country":"DZ","lat":36.643,"lon":2.69,"pop":40984,"tz":"Africa/Algiers"},{"id":931865,"name":"Balaka","local":"Балака","country":"MW","lat":-14.979,"lon":34.956,"pop":40950,"tz":"Africa/Blantyre"},{"id":2802170,"name":"Beringen","local":"Берингене","country":"BE","lat":51.05,"lon":5.226,"pop":40930,"tz":"Europe/Brussels"},{"id":2946228,"name":"Borken","local":"Боркен","country":"DE","lat":51.844,"lon":6.858,"pop":40876,"tz":"Europe/Berlin"},{"id":2942323,"name":"Buchholz in der Nordheide","local":"Бухгольц-ин-дер-Нордхайде","country":"DE","lat":53.33,"lon":9.866,"pop":40849,"tz":"Europe/Berlin"},{"id":3102987,"name":"Boleslawiec","local":"Болеславец","country":"PL","lat":51.264,"lon":15.57,"pop":40682,"tz":"Europe/Warsaw"},{"id":2553751,"name":"Bouznika","local":"Бузнике","country":"MA","lat":33.789,"lon":-7.16,"pop":40663,"tz":"Africa/Casablanca"},{"id":1276330,"name":"Bhadra","local":"Бхадра","country":"IN","lat":29.103,"lon":75.171,"pop":40662,"tz":"Asia/Kolkata"},{"id":932886,"name":"Butha-Buthe","local":"Бута-Бутэ","country":"LS","lat":-28.767,"lon":28.249,"pop":40599,"tz":"Africa/Maseru"},{"id":3665016,"name":"Benjamin Constant","local":"Бенжамин-Констант","country":"BR","lat":-4.376,"lon":-70.032,"pop":40509,"tz":"America/Eirunepe"},{"id":2026303,"name":"Bol'soj Kamen'","local":"Большой Камень","country":"RU","lat":43.111,"lon":132.35,"pop":40387,"tz":"Asia/Vladivostok"},{"id":3127978,"name":"Blanes","local":"Бланес","country":"ES","lat":41.674,"lon":2.79,"pop":40047,"tz":"Europe/Madrid"},{"id":4930577,"name":"Billerica","local":"Биллерика","country":"US","lat":42.558,"lon":-71.269,"pop":39904,"tz":"America/New_York"},{"id":3469932,"name":"Boa Esperanca","local":"Боа-Эсперанса","country":"BR","lat":-21.09,"lon":-45.566,"pop":39848,"tz":"America/Sao_Paulo"},{"id":1209562,"name":"Bera","local":"Беру","country":"BD","lat":24.078,"lon":89.633,"pop":39604,"tz":"Asia/Dhaka"},{"id":5788054,"name":"Bremerton","local":"Бремертон","country":"US","lat":47.567,"lon":-122.633,"pop":39520,"tz":"America/Los_Angeles"},{"id":5287565,"name":"Bullhead City","local":"Буллгед-Сіті","country":"US","lat":35.148,"lon":-114.568,"pop":39445,"tz":"America/Phoenix"},{"id":2950978,"name":"Bensheim","local":"Бенсхайм","country":"DE","lat":49.684,"lon":8.618,"pop":39439,"tz":"Europe/Berlin"},{"id":7290718,"name":"Barra da Tijuca","local":"Бара да Тижука","country":"BR","lat":-22.998,"lon":-43.365,"pop":39403,"tz":"America/Sao_Paulo"},{"id":792456,"name":"Bor","local":"Бор","country":"RS","lat":44.075,"lon":22.096,"pop":39387,"tz":"Europe/Belgrade"},{"id":320995,"name":"Bodrum","local":"Бодрум","country":"TR","lat":37.038,"lon":27.429,"pop":39317,"tz":"Europe/Istanbul"},{"id":171830,"name":"Baniyas","local":"Банияс","country":"SY","lat":35.182,"lon":35.949,"pop":39066,"tz":"Asia/Damascus"},{"id":5906267,"name":"Boucherville","local":"Бушервиль","country":"CA","lat":45.591,"lon":-73.436,"pop":39062,"tz":"America/Toronto"},{"id":3203521,"name":"Brcko","local":"Брчко","country":"BA","lat":44.872,"lon":18.816,"pop":38968,"tz":"Europe/Sarajevo"},{"id":3035409,"name":"Bagneux","local":"Бањо","country":"FR","lat":48.796,"lon":2.308,"pop":38900,"tz":"Europe/Paris"},{"id":750637,"name":"Beypazari","local":"Бейпазары","country":"TR","lat":40.167,"lon":31.921,"pop":38769,"tz":"Europe/Istanbul"},{"id":2759426,"name":"Barendrecht","local":"Барендрехт","country":"NL","lat":51.857,"lon":4.535,"pop":38672,"tz":"Europe/Amsterdam"},{"id":1276652,"name":"Bayana","local":"Баян","country":"IN","lat":26.908,"lon":77.29,"pop":38502,"tz":"Asia/Kolkata"},{"id":1275389,"name":"Bodh Gaya","local":"Бодх-Гая","country":"IN","lat":24.698,"lon":84.987,"pop":38439,"tz":"Asia/Kolkata"},{"id":2520712,"name":"Burjassot","local":"Бурхасот","country":"ES","lat":39.51,"lon":-0.413,"pop":38433,"tz":"Europe/Madrid"},{"id":3102459,"name":"Brzeg","local":"Бжег","country":"PL","lat":50.861,"lon":17.467,"pop":38259,"tz":"Europe/Warsaw"},{"id":3182297,"name":"Bassano del Grappa","local":"Бассано-дель-Граппа","country":"IT","lat":45.767,"lon":11.727,"pop":38224,"tz":"Europe/Rome"},{"id":2940451,"name":"Buxtehude","local":"Букстехуде","country":"DE","lat":53.47,"lon":9.69,"pop":38192,"tz":"Europe/Berlin"},{"id":5246835,"name":"Brookfield","local":"Брукфилд","country":"US","lat":43.061,"lon":-88.106,"pop":38025,"tz":"America/Chicago"},{"id":3029931,"name":"Bron","local":"Брон","country":"FR","lat":45.739,"lon":4.913,"pop":37825,"tz":"Europe/Paris"},{"id":2951654,"name":"Beckum","local":"Беккум","country":"DE","lat":51.756,"lon":8.041,"pop":37814,"tz":"Europe/Berlin"},{"id":3055685,"name":"Baja","local":"Байя","country":"HU","lat":46.183,"lon":18.953,"pop":37714,"tz":"Europe/Budapest"},{"id":3204186,"name":"Bijeljina","local":"Биелине","country":"BA","lat":44.759,"lon":19.214,"pop":37692,"tz":"Europe/Sarajevo"},{"id":162158,"name":"Baeherden","local":"Бахарден","country":"TM","lat":38.436,"lon":57.432,"pop":37588,"tz":"Asia/Ashgabat"},{"id":2758998,"name":"Beverwijk","local":"Бевервейк","country":"NL","lat":52.483,"lon":4.657,"pop":37585,"tz":"Europe/Amsterdam"},{"id":5414941,"name":"Brighton","local":"Брайтон","country":"US","lat":39.985,"lon":-104.821,"pop":37585,"tz":"America/Denver"},{"id":579574,"name":"Baksan","local":"Баксан","country":"RU","lat":43.684,"lon":43.535,"pop":37519,"tz":"Europe/Moscow"},{"id":2801154,"name":"Braine-l'Alleud","local":"Брен-л'Аллё","country":"BE","lat":50.684,"lon":4.368,"pop":37512,"tz":"Europe/Brussels"},{"id":281146,"name":"Bayt Hanun","local":"Бейт-Ханун","country":"PS","lat":31.535,"lon":34.536,"pop":37392,"tz":"Asia/Gaza"},{"id":587057,"name":"Barda","local":"Барда","country":"AZ","lat":40.376,"lon":47.126,"pop":37372,"tz":"Asia/Baku"},{"id":2655315,"name":"Blyth","local":"Блит","country":"GB","lat":55.127,"lon":-1.509,"pop":37339,"tz":"Europe/London"},{"id":7257540,"name":"Braintree","local":"Брејнтри","country":"US","lat":42.204,"lon":-71.002,"pop":37297,"tz":"America/New_York"},{"id":2413876,"name":"Banjul","local":"Банжул","country":"GM","lat":13.453,"lon":-16.578,"pop":37274,"tz":"Africa/Banjul"},{"id":3469425,"name":"Bom Jesus do Itabapoana","local":"Бон-Жезус-ду-Итабапоана","country":"BR","lat":-21.134,"lon":-41.68,"pop":37172,"tz":"America/Sao_Paulo"},{"id":2801117,"name":"Brasschaat","local":"Брасхат","country":"BE","lat":51.291,"lon":4.492,"pop":37040,"tz":"Europe/Brussels"},{"id":1249978,"name":"Bentota","local":"Бентота","country":"LK","lat":6.426,"lon":79.996,"pop":37000,"tz":"Asia/Colombo"},{"id":1538311,"name":"Buston","local":"Бустон","country":"TJ","lat":40.234,"lon":69.695,"pop":36900,"tz":"Asia/Dushanbe"},{"id":5245387,"name":"Beloit","local":"Белойт","country":"US","lat":42.508,"lon":-89.032,"pop":36891,"tz":"America/Chicago"},{"id":575560,"name":"Bogorodsk","local":"Богородск","country":"RU","lat":56.101,"lon":43.51,"pop":36652,"tz":"Europe/Moscow"},{"id":5110159,"name":"Brighton","local":"Брайтон","country":"US","lat":43.148,"lon":-77.551,"pop":36609,"tz":"America/New_York"},{"id":4529987,"name":"Bartlesville","local":"Бартлсвилл","country":"US","lat":36.747,"lon":-95.981,"pop":36595,"tz":"America/Chicago"},{"id":342190,"name":"Bichena","local":"Бичена","country":"ET","lat":10.45,"lon":38.2,"pop":36500,"tz":"Africa/Addis_Ababa"},{"id":2388625,"name":"Bocaranga","local":"Бокаранга","country":"CF","lat":6.985,"lon":15.641,"pop":36418,"tz":"Africa/Bangui"},{"id":2291113,"name":"Bongouanou","local":"Бонгуану","country":"CI","lat":6.652,"lon":-4.204,"pop":36379,"tz":"Africa/Abidjan"},{"id":1066514,"name":"Betafo","local":"Бетафо","country":"MG","lat":-19.833,"lon":46.85,"pop":36364,"tz":"Indian/Antananarivo"},{"id":3351764,"name":"Balombo","local":"Баломбо","country":"AO","lat":-12.354,"lon":14.772,"pop":36361,"tz":"Africa/Luanda"},{"id":2655672,"name":"Billericay","local":"Биллерикей","country":"GB","lat":51.629,"lon":0.42,"pop":36338,"tz":"Europe/London"},{"id":1736902,"name":"Betong","local":"Бетонг","country":"MY","lat":1.4,"lon":111.517,"pop":36303,"tz":"Asia/Kuching"},{"id":2176632,"name":"Bathurst","local":"Бэтхерст","country":"AU","lat":-33.417,"lon":149.581,"pop":36230,"tz":"Australia/Sydney"},{"id":5327298,"name":"Bell","local":"Белла","country":"US","lat":33.978,"lon":-118.187,"pop":36205,"tz":"America/Los_Angeles"},{"id":833260,"name":"Butel","local":"Бутел","country":"MK","lat":42.031,"lon":21.447,"pop":36154,"tz":"Europe/Skopje"},{"id":1275368,"name":"Boisar","local":"Боисар","country":"IN","lat":19.804,"lon":72.756,"pop":36151,"tz":"Asia/Kolkata"},{"id":576172,"name":"Blagodarnyy","local":"Благодарный","country":"RU","lat":45.098,"lon":43.436,"pop":35995,"tz":"Europe/Moscow"},{"id":2953568,"name":"Backnang","local":"Бакнанг","country":"DE","lat":48.947,"lon":9.437,"pop":35778,"tz":"Europe/Berlin"},{"id":2655664,"name":"Billingham","local":"Биллингем","country":"GB","lat":54.589,"lon":-1.29,"pop":35708,"tz":"Europe/London"},{"id":576697,"name":"Beslan","local":"Беслан","country":"RU","lat":43.193,"lon":44.533,"pop":35604,"tz":"Europe/Moscow"},{"id":1278058,"name":"Babina","local":"Бабина","country":"IN","lat":25.239,"lon":78.47,"pop":35538,"tz":"Asia/Kolkata"},{"id":4848489,"name":"Bettendorf","local":"Бетендорф","country":"US","lat":41.524,"lon":-90.516,"pop":35505,"tz":"America/Chicago"},{"id":5147784,"name":"Boardman","local":"Бордман","country":"US","lat":41.024,"lon":-80.663,"pop":35376,"tz":"America/New_York"},{"id":2742027,"name":"Braganca","local":"Браганца","country":"PT","lat":41.807,"lon":-6.759,"pop":35341,"tz":"Europe/Lisbon"},{"id":2654668,"name":"Briton Ferry","local":"Бритън Фери","country":"GB","lat":51.631,"lon":-3.819,"pop":35179,"tz":"Europe/London"},{"id":2759407,"name":"Barneveld","local":"Барневелд","country":"NL","lat":52.14,"lon":5.585,"pop":35095,"tz":"Europe/Amsterdam"},{"id":3405051,"name":"Borba","local":"Борба","country":"BR","lat":-4.391,"lon":-59.589,"pop":34879,"tz":"America/Manaus"},{"id":5328041,"name":"Beverly Hills","local":"Беверли-Хиллз","country":"US","lat":34.074,"lon":-118.4,"pop":34869,"tz":"America/Los_Angeles"},{"id":2950096,"name":"Bernau bei Berlin","local":"Бернау","country":"DE","lat":52.68,"lon":13.587,"pop":34866,"tz":"Europe/Berlin"},{"id":5148480,"name":"Brunswick","local":"Брауншвейг","country":"US","lat":41.238,"lon":-81.842,"pop":34689,"tz":"America/New_York"},{"id":1277005,"name":"Bareli","local":"Барайли","country":"IN","lat":23.004,"lon":78.23,"pop":34663,"tz":"Asia/Kolkata"},{"id":2520709,"name":"Burriana","local":"Бурриана","country":"ES","lat":39.889,"lon":-0.085,"pop":34544,"tz":"Europe/Madrid"},{"id":2609906,"name":"Baltiysk","local":"Балтийск","country":"RU","lat":54.655,"lon":19.909,"pop":34540,"tz":"Europe/Kaliningrad"},{"id":2953089,"name":"Balingen","local":"Балинген","country":"DE","lat":48.275,"lon":8.855,"pop":34414,"tz":"Europe/Berlin"},{"id":711515,"name":"Boiarka","local":"Боярка","country":"UA","lat":50.319,"lon":30.297,"pop":34394,"tz":"Europe/Kyiv"},{"id":576116,"name":"Blagoveshchensk","local":"Благовещенск","country":"RU","lat":55.035,"lon":55.977,"pop":34238,"tz":"Asia/Yekaterinburg"},{"id":5642934,"name":"Butte","local":"Бьютт","country":"US","lat":46.004,"lon":-112.535,"pop":34190,"tz":"America/Denver"},{"id":4101241,"name":"Benton","local":"Бентон","country":"US","lat":34.565,"lon":-92.587,"pop":34177,"tz":"America/Chicago"},{"id":342856,"name":"Bako","local":"Бако","country":"ET","lat":5.783,"lon":36.567,"pop":34100,"tz":"Africa/Addis_Ababa"},{"id":3160881,"name":"Bodo","local":"Бодо","country":"NO","lat":67.283,"lon":14.375,"pop":34073,"tz":"Europe/Oslo"},{"id":161154,"name":"Biharamulo","local":"Бихарамуло","country":"TZ","lat":-2.632,"lon":31.309,"pop":34038,"tz":"Africa/Dar_es_Salaam"},{"id":4985180,"name":"Bay City","local":"Бей-Сити","country":"US","lat":43.594,"lon":-83.889,"pop":33917,"tz":"America/Detroit"},{"id":3469115,"name":"Braco do Norte","local":"Брасу-ду-Норти","country":"BR","lat":-28.275,"lon":-49.166,"pop":33773,"tz":"America/Sao_Paulo"},{"id":1725919,"name":"Bay","local":"Бей","country":"PH","lat":14.184,"lon":121.286,"pop":33547,"tz":"Asia/Manila"},{"id":3035403,"name":"Bagnolet","local":"Баньоле","country":"FR","lat":48.867,"lon":2.417,"pop":33504,"tz":"Europe/Paris"},{"id":3032797,"name":"Biarritz","local":"Биарриц","country":"FR","lat":43.481,"lon":-1.557,"pop":33188,"tz":"Europe/Paris"},{"id":3181495,"name":"Brugherio","local":"Бругерио","country":"IT","lat":45.553,"lon":9.299,"pop":33061,"tz":"Europe/Rome"},{"id":1275865,"name":"Bhokar","local":"Бхокар","country":"IN","lat":19.219,"lon":77.67,"pop":32899,"tz":"Asia/Kolkata"},{"id":2654715,"name":"Brighouse","local":"Бригаус","country":"GB","lat":53.703,"lon":-1.784,"pop":32872,"tz":"Europe/London"},{"id":2966022,"name":"Bray","local":"Брей","country":"IE","lat":53.203,"lon":-6.098,"pop":32600,"tz":"Europe/Dublin"},{"id":711669,"name":"Boryslav","local":"Борислав","country":"UA","lat":49.29,"lon":23.429,"pop":32473,"tz":"Europe/Kyiv"},{"id":320871,"name":"Bor","local":"Бор","country":"TR","lat":37.891,"lon":34.559,"pop":32435,"tz":"Europe/Istanbul"},{"id":4957280,"name":"Bangor","local":"Бангор","country":"US","lat":44.799,"lon":-68.773,"pop":32391,"tz":"America/New_York"},{"id":2949423,"name":"Biberach an der Riss","local":"Биберах-на-Рисе","country":"DE","lat":48.093,"lon":9.791,"pop":32333,"tz":"Europe/Berlin"},{"id":1509888,"name":"Bogdanovich","local":"Богданович","country":"RU","lat":56.777,"lon":62.051,"pop":32270,"tz":"Asia/Yekaterinburg"},{"id":5180199,"name":"Bethel Park","local":"Бетел Парк","country":"US","lat":40.328,"lon":-80.04,"pop":32118,"tz":"America/New_York"},{"id":2950073,"name":"Bernburg","local":"Бернбург","country":"DE","lat":51.795,"lon":11.74,"pop":32113,"tz":"Europe/Berlin"},{"id":2801922,"name":"Binche","local":"Бенш","country":"BE","lat":50.412,"lon":4.165,"pop":32030,"tz":"Europe/Brussels"},{"id":3469057,"name":"Brasilia de Minas","local":"Бразилия-ди-Минас","country":"BR","lat":-16.206,"lon":-44.433,"pop":32025,"tz":"America/Sao_Paulo"},{"id":1182665,"name":"Bhera","local":"Бхера","country":"PK","lat":32.482,"lon":72.909,"pop":31781,"tz":"Asia/Karachi"},{"id":2656281,"name":"Barnstaple","local":"Барнстапл","country":"GB","lat":51.08,"lon":-4.058,"pop":31616,"tz":"Europe/London"},{"id":3033002,"name":"Bethune","local":"Бетюн","country":"FR","lat":50.53,"lon":2.64,"pop":31568,"tz":"Europe/Paris"},{"id":1510916,"name":"Barabinsk","local":"Барабинск","country":"RU","lat":55.351,"lon":78.359,"pop":31508,"tz":"Asia/Novosibirsk"},{"id":1514396,"name":"Bektemir","local":"Бектемир","country":"UZ","lat":41.21,"lon":69.334,"pop":31400,"tz":"Asia/Tashkent"},{"id":2945474,"name":"Bramsche","local":"Брамше","country":"DE","lat":52.409,"lon":7.973,"pop":31394,"tz":"Europe/Berlin"},{"id":2758064,"name":"Bussum","local":"Бюссюм","country":"NL","lat":52.273,"lon":5.161,"pop":31334,"tz":"Europe/Amsterdam"},{"id":281148,"name":"Bani Suhayla","local":"Бани-Сухайла","country":"PS","lat":31.343,"lon":34.323,"pop":31272,"tz":"Asia/Gaza"},{"id":5147968,"name":"Bowling Green","local":"Боулинг-Грин","country":"US","lat":41.375,"lon":-83.651,"pop":31246,"tz":"America/New_York"},{"id":142255,"name":"Bafq","local":"Бафк","country":"IR","lat":31.604,"lon":55.402,"pop":31215,"tz":"Asia/Tehran"},{"id":428515,"name":"Bubanza","local":"Бубанза","country":"BI","lat":-3.08,"lon":29.391,"pop":30996,"tz":"Africa/Bujumbura"},{"id":1276449,"name":"Berasia","local":"Берасиа","country":"IN","lat":23.631,"lon":77.434,"pop":30951,"tz":"Asia/Kolkata"},{"id":5326032,"name":"Banning","local":"Банинг","country":"US","lat":33.926,"lon":-116.876,"pop":30945,"tz":"America/Los_Angeles"},{"id":1278017,"name":"Badami","local":"Бадами","country":"IN","lat":15.915,"lon":75.677,"pop":30943,"tz":"Asia/Kolkata"},{"id":2032533,"name":"Bayanhongor","local":"Баянхонгор","country":"MN","lat":46.194,"lon":100.718,"pop":30931,"tz":"Asia/Ulaanbaatar"},{"id":277130,"name":"Baalbek","local":"Баальбек","country":"LB","lat":34.006,"lon":36.218,"pop":30916,"tz":"Asia/Beirut"},{"id":2941405,"name":"Burgdorf","local":"Бургдорф (Ганновер)","country":"DE","lat":52.446,"lon":10.006,"pop":30899,"tz":"Europe/Berlin"},{"id":750605,"name":"Biga","local":"Биг","country":"TR","lat":40.228,"lon":27.242,"pop":30852,"tz":"Europe/Istanbul"},{"id":3579767,"name":"Baie-Mahault","local":"Баї-Мао","country":"GP","lat":16.267,"lon":-61.585,"pop":30837,"tz":"America/Guadeloupe"},{"id":5019330,"name":"Brooklyn Center","local":"Бруклин-Сентер","country":"US","lat":45.076,"lon":-93.333,"pop":30770,"tz":"America/Chicago"},{"id":2953321,"name":"Bad Vilbel","local":"Бад-Фильбель","country":"DE","lat":50.179,"lon":8.738,"pop":30736,"tz":"Europe/Berlin"},{"id":2953439,"name":"Bad Hersfeld","local":"Бад-Херсфельд","country":"DE","lat":50.872,"lon":9.709,"pop":30725,"tz":"Europe/Berlin"},{"id":1222175,"name":"Zarhalol","local":"Бошқалъа","country":"TJ","lat":37.465,"lon":68.169,"pop":30689,"tz":"Asia/Dushanbe"},{"id":3471061,"name":"Baixo Guandu","local":"Байшу-Гуанду","country":"BR","lat":-19.519,"lon":-41.016,"pop":30674,"tz":"America/Sao_Paulo"},{"id":285663,"name":"Bayan","local":"Баян","country":"KW","lat":29.303,"lon":48.049,"pop":30635,"tz":"Asia/Kuwait"},{"id":2655785,"name":"Beverley","local":"Бевърли","country":"GB","lat":53.846,"lon":-0.423,"pop":30587,"tz":"Europe/London"},{"id":4375663,"name":"Ballwin","local":"Болвин","country":"US","lat":38.595,"lon":-90.546,"pop":30577,"tz":"America/Chicago"},{"id":5331920,"name":"Burlingame","local":"Берлингем","country":"US","lat":37.584,"lon":-122.366,"pop":30459,"tz":"America/Los_Angeles"},{"id":2026126,"name":"Borzya","local":"Борзя","country":"RU","lat":50.391,"lon":116.534,"pop":30421,"tz":"Asia/Chita"},{"id":6243926,"name":"Blenheim","local":"Бленхейм","country":"NZ","lat":-41.516,"lon":173.953,"pop":30300,"tz":"Pacific/Auckland"},{"id":2953395,"name":"Bad Nauheim","local":"Бад-Наухайм","country":"DE","lat":50.365,"lon":8.739,"pop":30291,"tz":"Europe/Berlin"},{"id":1732871,"name":"Bakri","local":"Бакри","country":"MY","lat":2.044,"lon":102.653,"pop":30280,"tz":"Asia/Kuala_Lumpur"},{"id":725168,"name":"Bardejov","local":"Бардеёв","country":"SK","lat":49.292,"lon":21.273,"pop":30267,"tz":"Europe/Bratislava"},{"id":575591,"name":"Bogoroditsk","local":"Богородицк","country":"RU","lat":53.772,"lon":38.123,"pop":30216,"tz":"Europe/Moscow"},{"id":579529,"name":"Balabanovo","local":"Балабаново","country":"RU","lat":55.182,"lon":36.661,"pop":30194,"tz":"Europe/Moscow"},{"id":2656295,"name":"Barnet","local":"Барнет","country":"GB","lat":51.65,"lon":-0.2,"pop":30000,"tz":"Europe/London"},{"id":712631,"name":"Bilychi","local":"Біличі","country":"UA","lat":50.465,"lon":30.347,"pop":30000,"tz":"Europe/Kyiv"},