[{"id":1679432,"name":"Zamboanga","local":"Замбоанга","country":"PH","lat":6.91,"lon":122.074,"pop":1018849,"tz":"Asia/Manila"},{"id":2317765,"name":"Zaria","local":"Заря","country":"NG","lat":11.111,"lon":7.723,"pop":980000,"tz":"Africa/Lagos"},{"id":687700,"name":"Zaporizhzhya","local":"Запорожье","country":"UA","lat":47.852,"lon":35.117,"pop":710052,"tz":"Europe/Kyiv"},{"id":148730,"name":"Zanzibar","local":"Занзибар","country":"TZ","lat":-6.164,"lon":39.198,"pop":709809,"tz":"Africa/Dar_es_Salaam"},{"id":3186886,"name":"Zagreb","local":"Загреб","country":"HR","lat":45.814,"lon":15.978,"pop":663592,"tz":"Europe/Zagreb"},{"id":1159301,"name":"Zahedan","local":"Захедан","country":"IR","lat":29.496,"lon":60.863,"pop":551980,"tz":"Asia/Tehran"},{"id":7498240,"name":"West Jerusalem","local":"Западный Иерусалим","country":"IL","lat":31.782,"lon":35.22,"pop":400000,"tz":"Asia/Jerusalem"},{"id":111453,"name":"Zanjan","local":"Зенджан","country":"IR","lat":36.676,"lon":48.496,"pop":357471,"tz":"Asia/Tehran"},{"id":2437798,"name":"Zinder","local":"Зиндер","country":"NE","lat":13.807,"lon":8.988,"pop":318874,"tz":"Africa/Niamey"},{"id":3513966,"name":"Zumpango","local":"Зумпанго-де-Окампо","country":"MX","lat":19.797,"lon":-99.099,"pop":280455,"tz":"America/Mexico_City"},{"id":463829,"name":"Zelenograd","local":"Зеленоград","country":"RU","lat":55.983,"lon":37.181,"pop":215727,"tz":"Europe/Moscow"},{"id":2243940,"name":"Ziguinchor","local":"Зигиншор","country":"SN","lat":12.568,"lon":-16.273,"pop":214874,"tz":"Africa/Dakar"},{"id":2208485,"name":"Zliten","local":"Злитен","country":"LY","lat":32.467,"lon":14.569,"pop":203790,"tz":"Africa/Tripoli"},{"id":3080985,"name":"Zabrze","local":"Забже","country":"PL","lat":50.325,"lon":18.786,"pop":192177,"tz":"Europe/Warsaw"},{"id":462444,"name":"Zlatoust","local":"Златоуст","country":"RU","lat":55.172,"lon":59.655,"pop":191366,"tz":"Asia/Yekaterinburg"},{"id":3186573,"name":"Zenica","local":"Зеница","country":"BA","lat":44.202,"lon":17.904,"pop":164423,"tz":"Europe/Sarajevo"},{"id":2831580,"name":"Solingen","local":"Золинген","country":"DE","lat":51.173,"lon":7.085,"pop":164359,"tz":"Europe/Berlin"},{"id":2766824,"name":"Salzburg","local":"Зальцбург","country":"AT","lat":47.799,"lon":13.044,"pop":157245,"tz":"Europe/Vienna"},{"id":783920,"name":"Zemun","local":"Земун","country":"RS","lat":44.846,"lon":20.401,"pop":155591,"tz":"Europe/Belgrade"},{"id":1848004,"name":"Zama","local":"Зама","country":"JP","lat":35.488,"lon":139.391,"pop":132325,"tz":"Asia/Tokyo"},{"id":2743477,"name":"Zwolle","local":"Зволле","country":"NL","lat":52.513,"lon":6.094,"pop":129840,"tz":"Europe/Amsterdam"},{"id":461835,"name":"Zyablikovo","local":"Зябликово","country":"RU","lat":55.617,"lon":37.767,"pop":129000,"tz":"Europe/Moscow"},{"id":1113217,"name":"Zabol","local":"Заболь","country":"IR","lat":31.031,"lon":61.495,"pop":121989,"tz":"Asia/Tehran"},{"id":461740,"name":"Zyuzino","local":"Зюзино","country":"RU","lat":55.656,"lon":37.568,"pop":121000,"tz":"Europe/Moscow"},{"id":923295,"name":"Zomba","local":"Зомба","country":"MW","lat":-15.386,"lon":35.319,"pop":118440,"tz":"Africa/Blantyre"},{"id":3080165,"name":"Zielona Gora","local":"Зелёна-Гура","country":"PL","lat":51.935,"lon":15.506,"pop":118433,"tz":"Europe/Warsaw"},{"id":346030,"name":"Zefta","local":"Зифта","country":"EG","lat":30.714,"lon":31.244,"pop":111700,"tz":"Africa/Cairo"},{"id":5407933,"name":"West Covina","local":"Западная Ковина","country":"US","lat":34.069,"lon":-117.939,"pop":108484,"tz":"America/Los_Angeles"},{"id":2832495,"name":"Siegen","local":"Зиген","country":"DE","lat":50.875,"lon":8.024,"pop":107242,"tz":"Europe/Berlin"},{"id":2842150,"name":"Salzgitter","local":"Зальцгиттер","country":"DE","lat":52.157,"lon":10.415,"pop":103866,"tz":"Europe/Berlin"},{"id":737022,"name":"Zonguldak","local":"Зонгулдак","country":"TR","lat":41.451,"lon":31.793,"pop":101749,"tz":"Europe/Istanbul"},{"id":463835,"name":"Zelenodolsk","local":"Зеленодольск","country":"RU","lat":55.844,"lon":48.518,"pop":99600,"tz":"Europe/Moscow"},{"id":3427213,"name":"Zarate","local":"Зарате","country":"AR","lat":-34.096,"lon":-59.024,"pop":99061,"tz":"America/Argentina/Buenos_Aires"},{"id":89570,"name":"Zaxo","local":"Заху","country":"IQ","lat":37.149,"lon":42.686,"pop":95052,"tz":"Asia/Baghdad"},{"id":4736476,"name":"The Woodlands","local":"Зе-Вудлендс","country":"US","lat":30.158,"lon":-95.489,"pop":93847,"tz":"America/Chicago"},{"id":783814,"name":"Zrenjanin","local":"Зренянин","country":"RS","lat":45.384,"lon":20.382,"pop":79773,"tz":"Europe/Belgrade"},{"id":2470173,"name":"Zarzis","local":"Зарзис","country":"TN","lat":33.504,"lon":11.112,"pop":79316,"tz":"Africa/Tunis"},{"id":266045,"name":"Zahle","local":"Захла","country":"LB","lat":33.847,"lon":35.902,"pop":78145,"tz":"Asia/Beirut"},{"id":3625066,"name":"Zaraza","local":"Зараза","country":"VE","lat":9.35,"lon":-65.325,"pop":74017,"tz":"America/Caracas"},{"id":3061370,"name":"Zlin","local":"Злин","country":"CZ","lat":49.226,"lon":17.671,"pop":72973,"tz":"Europe/Prague"},{"id":2744118,"name":"Zaandam","local":"Зандам","country":"NL","lat":52.439,"lon":4.826,"pop":71708,"tz":"Europe/Amsterdam"},{"id":1488253,"name":"Zelenogorsk","local":"Зеленогорск","country":"RU","lat":56.109,"lon":94.587,"pop":71354,"tz":"Asia/Krasnoyarsk"},{"id":3186952,"name":"Zadar","local":"Задар","country":"HR","lat":44.116,"lon":15.225,"pop":67309,"tz":"Europe/Zagreb"},{"id":753866,"name":"Zamosc","local":"Замосць","country":"PL","lat":50.723,"lon":23.252,"pop":66034,"tz":"Europe/Warsaw"},{"id":11244752,"name":"Ban Khoan","local":"Золотий Трикутник","country":"LA","lat":20.35,"lon":100.09,"pop":65348,"tz":"Asia/Vientiane"},{"id":464625,"name":"Zarechnyy","local":"Заречный","country":"RU","lat":53.204,"lon":45.192,"pop":63579,"tz":"Europe/Moscow"},{"id":4845411,"name":"West Hartford","local":"Западный Хартфорд","country":"US","lat":41.762,"lon":-72.742,"pop":63268,"tz":"America/New_York"},{"id":831165,"name":"Zarechnyy","local":"Заречный","country":"RU","lat":53.133,"lon":46.583,"pop":62139,"tz":"Europe/Moscow"},{"id":3042638,"name":"Zalaegerszeg","local":"Залаэгерсег","country":"HU","lat":46.837,"lon":16.844,"pop":61898,"tz":"Europe/Budapest"},{"id":2831948,"name":"Sindelfingen","local":"Зиндельфинген","country":"DE","lat":48.7,"lon":9.017,"pop":61311,"tz":"Europe/Berlin"},{"id":2743977,"name":"Zeist","local":"Зейст","country":"NL","lat":52.09,"lon":5.233,"pop":60949,"tz":"Europe/Amsterdam"},{"id":3080251,"name":"Zgierz","local":"Згеж","country":"PL","lat":51.856,"lon":19.406,"pop":58036,"tz":"Europe/Warsaw"},{"id":699553,"name":"Zviahel","local":"Звягель","country":"UA","lat":50.594,"lon":27.616,"pop":55925,"tz":"Europe/Kyiv"},{"id":737054,"name":"Zile","local":"Зил","country":"TR","lat":40.303,"lon":35.886,"pop":55680,"tz":"Europe/Istanbul"},{"id":465057,"name":"Zamoskvorech'ye","local":"Замоскворечье","country":"RU","lat":55.733,"lon":37.633,"pop":55000,"tz":"Europe/Moscow"},{"id":3080526,"name":"Zawiercie","local":"Заверце","country":"PL","lat":50.488,"lon":19.417,"pop":53159,"tz":"Europe/Warsaw"},{"id":69500,"name":"Zabid","local":"Забид","country":"YE","lat":14.195,"lon":43.315,"pop":52590,"tz":"Asia/Aden"},{"id":662334,"name":"Zalau","local":"Залэу","country":"RO","lat":47.2,"lon":23.05,"pop":52359,"tz":"Europe/Bucharest"},{"id":1485439,"name":"Zarinsk","local":"Заринск","country":"RU","lat":53.708,"lon":84.943,"pop":52209,"tz":"Asia/Barnaul"},{"id":1120985,"name":"Zaranj","local":"Зарани","country":"AF","lat":30.96,"lon":61.86,"pop":49851,"tz":"Asia/Kabul"},{"id":784024,"name":"Zajecar","local":"Заечар","country":"RS","lat":43.904,"lon":22.264,"pop":49800,"tz":"Europe/Belgrade"},{"id":2831708,"name":"Soest","local":"Зоест","country":"DE","lat":51.576,"lon":8.106,"pop":48037,"tz":"Europe/Berlin"},{"id":2831924,"name":"Singen","local":"Зинген","country":"DE","lat":47.759,"lon":8.84,"pop":48033,"tz":"Europe/Berlin"},{"id":2743493,"name":"Zwijndrecht","local":"Звейндрехте","country":"NL","lat":51.818,"lon":4.633,"pop":45696,"tz":"Europe/Amsterdam"},{"id":8533869,"name":"West Vancouver","local":"Западен Ванкувър","country":"CA","lat":49.329,"lon":-123.16,"pop":45487,"tz":"America/Vancouver"},{"id":2747034,"name":"Soest","local":"Зоест","country":"NL","lat":52.173,"lon":5.292,"pop":45021,"tz":"Europe/Amsterdam"},{"id":1516438,"name":"Altay","local":"Зыряновск","country":"KZ","lat":49.736,"lon":84.254,"pop":44929,"tz":"Asia/Almaty"},{"id":3080414,"name":"Zdunska Wola","local":"Здуньская-Воля","country":"PL","lat":51.599,"lon":18.94,"pop":44515,"tz":"Europe/Warsaw"},{"id":2526452,"name":"Zagora","local":"Загора","country":"MA","lat":30.332,"lon":-5.838,"pop":43752,"tz":"Africa/Casablanca"},{"id":2824948,"name":"Suhl","local":"Зуль","country":"DE","lat":50.609,"lon":10.694,"pop":43509,"tz":"Europe/Berlin"},{"id":464101,"name":"Zavolzh'ye","local":"Заволжье","country":"RU","lat":56.641,"lon":43.394,"pop":42900,"tz":"Europe/Moscow"},{"id":465543,"name":"Zainsk","local":"Заинск","country":"RU","lat":55.319,"lon":52.069,"pop":42044,"tz":"Europe/Moscow"},{"id":463824,"name":"Zelenokumsk","local":"Зеленокумск","country":"RU","lat":44.41,"lon":43.88,"pop":41306,"tz":"Europe/Moscow"},{"id":2833564,"name":"Seevetal","local":"Зеветаль","country":"DE","lat":53.4,"lon":9.967,"pop":41266,"tz":"Europe/Berlin"},{"id":610824,"name":"Zugdidi","local":"Зугдиди","country":"GE","lat":42.508,"lon":41.868,"pop":40067,"tz":"Asia/Tbilisi"},{"id":3056459,"name":"Zvolen","local":"Зволен","country":"SK","lat":48.574,"lon":19.153,"pop":39844,"tz":"Europe/Bratislava"},{"id":3692667,"name":"Sana","local":"Зана","country":"PE","lat":-6.919,"lon":-79.582,"pop":39200,"tz":"America/Lima"},{"id":2832521,"name":"Siegburg","local":"Зигбург","country":"DE","lat":50.8,"lon":7.208,"pop":39135,"tz":"Europe/Berlin"},{"id":2272491,"name":"Zwedru","local":"Зведру","country":"LR","lat":6.068,"lon":-8.136,"pop":38269,"tz":"Africa/Monrovia"},{"id":7645176,"name":"Zira","local":"Зира","country":"IN","lat":30.969,"lon":74.991,"pop":37498,"tz":"Asia/Kolkata"},{"id":2743608,"name":"Zutphen","local":"Зютфен","country":"NL","lat":52.138,"lon":6.201,"pop":36188,"tz":"Europe/Amsterdam"},{"id":3061344,"name":"Znojmo","local":"Зноймо","country":"CZ","lat":48.855,"lon":16.049,"pop":35280,"tz":"Europe/Prague"},{"id":2831872,"name":"Sinsheim","local":"Зинсхайм","country":"DE","lat":49.253,"lon":8.879,"pop":35219,"tz":"Europe/Berlin"},{"id":363533,"name":"Zalinjay","local":"Залингее","country":"SD","lat":12.909,"lon":23.471,"pop":35061,"tz":"Africa/Khartoum"},{"id":2208425,"name":"Zuwarah","local":"Зуара","country":"LY","lat":32.931,"lon":12.082,"pop":33887,"tz":"Africa/Tripoli"},{"id":1252698,"name":"Zaidpur","local":"Заидпур","country":"IN","lat":26.831,"lon":81.329,"pop":33397,"tz":"Asia/Kolkata"},{"id":2012484,"name":"Zima","local":"Зима","country":"RU","lat":53.92,"lon":102.044,"pop":33323,"tz":"Asia/Irkutsk"},{"id":3080231,"name":"Zgorzelec","local":"Згожелец","country":"PL","lat":51.149,"lon":15.008,"pop":33247,"tz":"Europe/Warsaw"},{"id":2833641,"name":"Seelze","local":"Зельце","country":"DE","lat":52.396,"lon":9.597,"pop":32899,"tz":"Europe/Berlin"},{"id":584596,"name":"Zaqatala","local":"Загатала","country":"AZ","lat":41.632,"lon":46.645,"pop":32171,"tz":"Asia/Baku"},{"id":831130,"name":"Znamensk","local":"Знаменск","country":"RU","lat":48.584,"lon":45.734,"pop":31922,"tz":"Europe/Astrakhan"},{"id":6418201,"name":"Zagor'ye","local":"Загорье","country":"RU","lat":55.577,"lon":37.667,"pop":30000,"tz":"Europe/Moscow"},{"id":463637,"name":"Zernograd","local":"Зерноград","country":"RU","lat":46.849,"lon":40.312,"pop":29268,"tz":"Europe/Moscow"},{"id":2833073,"name":"Senftenberg","local":"Зенфтенберг","country":"DE","lat":51.525,"lon":14.002,"pop":28988,"tz":"Europe/Berlin"},{"id":697576,"name":"Zlatopil","local":"Златополь","country":"UA","lat":49.376,"lon":36.218,"pop":28510,"tz":"Europe/Kyiv"},{"id":2783310,"name":"Zaventem","local":"Завентем","country":"BE","lat":50.884,"lon":4.473,"pop":28188,"tz":"Europe/Brussels"},{"id":2842688,"name":"Saalfeld","local":"Заальфельд","country":"DE","lat":50.648,"lon":11.365,"pop":28023,"tz":"Europe/Berlin"},{"id":686875,"name":"Zolotonosha","local":"Золотоноша","country":"UA","lat":49.669,"lon":32.036,"pop":27818,"tz":"Europe/Kyiv"},{"id":1485445,"name":"Zarechnyy","local":"Заречный","country":"RU","lat":56.811,"lon":61.325,"pop":27758,"tz":"Asia/Yekaterinburg"},{"id":2526359,"name":"Zawyat ech Cheikh","local":"Завийя аш Шейх","country":"MA","lat":32.644,"lon":-5.918,"pop":27723,"tz":"Africa/Casablanca"},{"id":2824655,"name":"Sundern","local":"Зундерн","country":"DE","lat":51.328,"lon":8.004,"pop":27554,"tz":"Europe/Berlin"},{"id":2833170,"name":"Selm","local":"Зельм","country":"DE","lat":51.697,"lon":7.468,"pop":27540,"tz":"Europe/Berlin"},{"id":3080866,"name":"Zakopane","local":"Закопане","country":"PL","lat":49.299,"lon":19.949,"pop":27266,"tz":"Europe/Warsaw"},{"id":1215694,"name":"Zomin Shaharchasi","local":"Зомин","country":"UZ","lat":39.961,"lon":68.396,"pop":27077,"tz":"Asia/Samarkand"},{"id":7117880,"name":"Zarya","local":"Заря","country":"RU","lat":55.755,"lon":38.096,"pop":27000,"tz":"Europe/Moscow"},{"id":2012593,"name":"Zeya","local":"Зея","country":"RU","lat":53.736,"lon":127.256,"pop":26999,"tz":"Asia/Yakutsk"},{"id":895953,"name":"Zambezi","local":"Замбези","country":"ZM","lat":-13.543,"lon":23.105,"pop":26885,"tz":"Africa/Lusaka"},{"id":4267336,"name":"Zionsville","local":"Зајонсвил","country":"US","lat":39.951,"lon":-86.262,"pop":26296,"tz":"America/Indiana/Indianapolis"},{"id":2743949,"name":"Zevenaar","local":"Зевенар","country":"NL","lat":51.93,"lon":6.071,"pop":26063,"tz":"Europe/Amsterdam"},{"id":1485357,"name":"Zavodoukovsk","local":"Заводоуковск","country":"RU","lat":56.503,"lon":66.547,"pop":25682,"tz":"Asia/Yekaterinburg"},{"id":4528923,"name":"Zanesville","local":"Зејнсвил","country":"US","lat":39.94,"lon":-82.013,"pop":25498,"tz":"America/New_York"},{"id":461910,"name":"Zverevo","local":"Зверево","country":"RU","lat":48.027,"lon":40.123,"pop":24978,"tz":"Europe/Moscow"},{"id":1512287,"name":"Zafar","local":"Зафар","country":"UZ","lat":40.983,"lon":68.9,"pop":24781,"tz":"Asia/Tashkent"},{"id":3513967,"name":"Zumpango del Rio","local":"Зумпанго-дель-Рио","country":"MX","lat":17.654,"lon":-99.527,"pop":24719,"tz":"America/Mexico_City"},{"id":464687,"name":"Zaraysk","local":"Зарайск","country":"RU","lat":54.763,"lon":38.881,"pop":24637,"tz":"Europe/Moscow"},{"id":2842131,"name":"Salzkotten","local":"Зальцкоттен","country":"DE","lat":51.672,"lon":8.601,"pop":24561,"tz":"Europe/Berlin"},{"id":687432,"name":"Zdolbuniv","local":"Здолбунов","country":"UA","lat":50.522,"lon":26.248,"pop":24501,"tz":"Europe/Kyiv"},{"id":2317569,"name":"Zungeru","local":"Зунгеру","country":"NG","lat":9.807,"lon":6.152,"pop":24447,"tz":"Africa/Lagos"},{"id":2783175,"name":"Zottegem","local":"Зоттегем","country":"BE","lat":50.87,"lon":3.811,"pop":24434,"tz":"Europe/Brussels"},{"id":2824461,"name":"Syke","local":"Зике","country":"DE","lat":52.913,"lon":8.822,"pop":24274,"tz":"Europe/Berlin"},{"id":2831250,"name":"Sonneberg","local":"Зоннеберг","country":"DE","lat":50.359,"lon":11.175,"pop":23908,"tz":"Europe/Berlin"},{"id":754351,"name":"Zabki","local":"Зомбки","country":"PL","lat":52.293,"lon":21.105,"pop":23473,"tz":"Europe/Warsaw"},{"id":2783089,"name":"Zwevegem","local":"Звевегем","country":"BE","lat":50.813,"lon":3.338,"pop":23358,"tz":"Europe/Brussels"},{"id":2841693,"name":"Sangerhausen","local":"Зангерхаузен","country":"DE","lat":51.472,"lon":11.295,"pop":23347,"tz":"Europe/Berlin"},{"id":2833475,"name":"Sehnde","local":"Зенде","country":"DE","lat":52.314,"lon":9.968,"pop":23060,"tz":"Europe/Berlin"},{"id":753895,"name":"Zambrow","local":"Замбрув","country":"PL","lat":52.986,"lon":22.243,"pop":22857,"tz":"Europe/Warsaw"},{"id":686896,"name":"Zolochiv","local":"Золочев","country":"UA","lat":49.807,"lon":24.904,"pop":22608,"tz":"Europe/Kyiv"},{"id":686919,"name":"Znamyanka","local":"Знаменка","country":"UA","lat":48.721,"lon":32.658,"pop":22444,"tz":"Europe/Kyiv"},{"id":2783308,"name":"Zedelgem","local":"Зедельгем","country":"BE","lat":51.142,"lon":3.137,"pop":21968,"tz":"Europe/Brussels"},{"id":2831486,"name":"Soltau","local":"Зольтау","country":"DE","lat":52.986,"lon":9.843,"pop":21945,"tz":"Europe/Berlin"},{"id":2833592,"name":"Seesen","local":"Зезен","country":"DE","lat":51.891,"lon":10.178,"pop":21909,"tz":"Europe/Berlin"},{"id":2831276,"name":"Sondershausen","local":"Зондерсхаузен","country":"DE","lat":51.37,"lon":10.87,"pop":21802,"tz":"Europe/Berlin"},{"id":584614,"name":"Zabrat","local":"Забрат","country":"AZ","lat":40.477,"lon":49.942,"pop":21396,"tz":"Asia/Baku"},{"id":2831088,"name":"Sonthofen","local":"Зонтхофен","country":"DE","lat":47.518,"lon":10.283,"pop":21285,"tz":"Europe/Berlin"},{"id":463885,"name":"Zelenchukskaya","local":"Зеленчукская","country":"RU","lat":43.855,"lon":41.59,"pop":21117,"tz":"Europe/Moscow"},{"id":2783274,"name":"Zemst","local":"Земст","country":"BE","lat":50.983,"lon":4.461,"pop":21096,"tz":"Europe/Brussels"},{"id":2842112,"name":"Salzwedel","local":"Зальцведель","country":"DE","lat":52.854,"lon":11.152,"pop":21058,"tz":"Europe/Berlin"},{"id":2831403,"name":"Soemmerda","local":"Зёммерда","country":"DE","lat":51.159,"lon":11.115,"pop":20853,"tz":"Europe/Berlin"},{"id":2464041,"name":"Zaghouan","local":"Загуан","country":"TN","lat":36.403,"lon":10.143,"pop":20798,"tz":"Africa/Tunis"},{"id":2783293,"name":"Zele","local":"Зеле","country":"BE","lat":51.066,"lon":4.04,"pop":20236,"tz":"Europe/Brussels"},{"id":610864,"name":"Zestaponi","local":"Зестафони","country":"GE","lat":42.108,"lon":43.033,"pop":20183,"tz":"Asia/Tbilisi"},{"id":464176,"name":"Zavety Il'icha","local":"Заветы Ильича","country":"RU","lat":56.043,"lon":37.852,"pop":20000,"tz":"Europe/Moscow"},{"id":2783188,"name":"Zonhoven","local":"Зонховен","country":"BE","lat":50.991,"lon":5.368,"pop":19922,"tz":"Europe/Brussels"},{"id":2833242,"name":"Seligenstadt","local":"Зелигенштадт","country":"DE","lat":50.043,"lon":8.974,"pop":19569,"tz":"Europe/Berlin"},{"id":2824801,"name":"Sulzbach-Rosenberg","local":"Зульцбах-Розенберг","country":"DE","lat":49.501,"lon":11.746,"pop":19252,"tz":"Europe/Berlin"},{"id":2031533,"name":"Dzuunharaa","local":"Зуунэхараа","country":"MN","lat":48.852,"lon":106.458,"pop":18830,"tz":"Asia/Ulaanbaatar"},{"id":3186781,"name":"Zapresic","local":"Запрешич","country":"HR","lat":45.856,"lon":15.808,"pop":18768,"tz":"Europe/Zagreb"},{"id":2841386,"name":"Sarstedt","local":"Зарштедт","country":"DE","lat":52.235,"lon":9.854,"pop":18718,"tz":"Europe/Berlin"},{"id":3080071,"name":"Zlotow","local":"Злотув","country":"PL","lat":53.363,"lon":17.041,"pop":18395,"tz":"Europe/Warsaw"},{"id":2824841,"name":"Sulzbach","local":"Зульцбах","country":"DE","lat":49.299,"lon":7.057,"pop":18364,"tz":"Europe/Berlin"},{"id":2783081,"name":"Zwijndrecht","local":"Звейндрехт","country":"BE","lat":51.22,"lon":4.327,"pop":18249,"tz":"Europe/Brussels"},{"id":2831852,"name":"Sinzig","local":"Зинциг","country":"DE","lat":50.544,"lon":7.246,"pop":17880,"tz":"Europe/Berlin"},{"id":686818,"name":"Zuhres","local":"Зугрэс","country":"UA","lat":48.014,"lon":38.266,"pop":17871,"tz":"Europe/Kyiv"},{"id":464790,"name":"Zapolyarnyy","local":"Заполярный","country":"RU","lat":69.426,"lon":30.811,"pop":17789,"tz":"Europe/Moscow"},{"id":462522,"name":"Zimovniki","local":"Зимовники","country":"RU","lat":47.146,"lon":42.47,"pop":17678,"tz":"Europe/Moscow"},{"id":1517060,"name":"Zaysan","local":"Зайсан","country":"KZ","lat":47.467,"lon":84.871,"pop":17600,"tz":"Asia/Almaty"},{"id":753276,"name":"Zielonka","local":"Зеленка","country":"PL","lat":52.304,"lon":21.16,"pop":17518,"tz":"Europe/Warsaw"},{"id":619066,"name":"Zaslawye","local":"Заславль","country":"BY","lat":54.011,"lon":27.27,"pop":17404,"tz":"Europe/Minsk"},{"id":2833296,"name":"Selb","local":"Зельб","country":"DE","lat":50.171,"lon":12.131,"pop":17132,"tz":"Europe/Berlin"},{"id":13580320,"name":"Zvirynets","local":"Звіринець","country":"UA","lat":50.416,"lon":30.549,"pop":17000,"tz":"Europe/Kyiv"},{"id":783770,"name":"Zvecan","local":"Звечан","country":"XK","lat":42.907,"lon":20.84,"pop":17000,"tz":"Europe/Belgrade"},{"id":2031517,"name":"Dzuunmod","local":"Зуунмод","country":"MN","lat":47.707,"lon":106.953,"pop":16953,"tz":"Asia/Ulaanbaatar"},{"id":7648817,"name":"Zuunmod","local":"Зуунмод","country":"MN","lat":47.707,"lon":106.953,"pop":16953,"tz":"Asia/Ulaanbaatar"},{"id":2744042,"name":"Zandvoort","local":"Зандвоорт","country":"NL","lat":52.371,"lon":4.533,"pop":16868,"tz":"Europe/Amsterdam"},{"id":2766922,"name":"Saalfelden am Steinernen Meer","local":"Зальфельден-ам-Штайнернен-Меер","country":"AT","lat":47.427,"lon":12.848,"pop":16790,"tz":"Europe/Vienna"},{"id":2658564,"name":"Solothurn","local":"Золотурн","country":"CH","lat":47.208,"lon":7.537,"pop":16777,"tz":"Europe/Zurich"},{"id":2832232,"name":"Sigmaringen","local":"Зигмаринген","country":"DE","lat":48.088,"lon":9.23,"pop":16592,"tz":"Europe/Berlin"},{"id":686803,"name":"Zvenihorodka","local":"Звенигородка","country":"UA","lat":49.078,"lon":30.961,"pop":16490,"tz":"Europe/Kyiv"},{"id":4346788,"name":"Zachary","local":"Закари","country":"US","lat":30.649,"lon":-91.156,"pop":16448,"tz":"America/Chicago"},{"id":3337504,"name":"Seeheim-Jugenheim","local":"Зехайм-Югенхайм","country":"DE","lat":49.765,"lon":8.652,"pop":16395,"tz":"Europe/Berlin"},{"id":461920,"name":"Zvenigorod","local":"Звенигород","country":"RU","lat":55.734,"lon":36.859,"pop":16395,"tz":"Europe/Moscow"},{"id":2562266,"name":"Zabbar","local":"Забар","country":"MT","lat":35.877,"lon":14.536,"pop":15648,"tz":"Europe/Malta"},{"id":2832023,"name":"Simmerath","local":"Зиммерат","country":"DE","lat":50.6,"lon":6.3,"pop":15646,"tz":"Europe/Berlin"},{"id":463828,"name":"Zelenogradsk","local":"Зеленоградск","country":"RU","lat":54.959,"lon":20.477,"pop":15644,"tz":"Europe/Kaliningrad"},{"id":3080074,"name":"Zlotoryja","local":"Злоторыя","country":"PL","lat":51.126,"lon":15.92,"pop":15564,"tz":"Europe/Warsaw"},{"id":662187,"name":"Zimnicea","local":"Зимнича","country":"RO","lat":43.656,"lon":25.365,"pop":15228,"tz":"Europe/Bucharest"},{"id":3081046,"name":"Zabkowice Slaskie","local":"Зомбковице-Слёнске","country":"PL","lat":50.59,"lon":16.812,"pop":15004,"tz":"Europe/Warsaw"}]