[{"id":90000001,"name":"Zelenov","names":{"kk":"Зеленов","ru":"Зеленов","en":"Zelenov"},"country":"KZ","lat":51.213702,"lon":50.64751,"pop":0,"dumk_id":11259,"search_terms":["zelenov","зеленов"]},{"id":90000143,"name":"ZAVODSKOY auyly","names":{"kk":"ЗАВОДСКОЙ ауылы","ru":"ЗАВОДСКОЙ ауылы","en":"ZAVODSKOY auyly"},"country":"KZ","lat":52.468363,"lon":72.014478,"pop":0,"dumk_id":5733,"search_terms":["zavodskoy auyly","заводской ауылы"]},{"id":90000258,"name":"Zenkovka","names":{"kk":"Зенковка","ru":"Зенковка","en":"Zenkovka"},"country":"KZ","lat":50.787917,"lon":80.625899,"pop":0,"dumk_id":5868,"search_terms":["зенковка","zenkovka"]},{"id":90000261,"name":"Znamenka","names":{"kk":"Знаменка","ru":"Знаменка","en":"Znamenka"},"country":"KZ","lat":50.802401,"lon":80.997792,"pop":0,"dumk_id":5871,"search_terms":["знаменка","znamenka"]},{"id":90000270,"name":"Zubayr","names":{"kk":"Зубайр","ru":"Зубайр","en":"Zubayr"},"country":"KZ","lat":50.810159,"lon":80.297142,"pop":0,"dumk_id":5880,"search_terms":["зубайр","zubayr"]},{"id":90000556,"name":"Zaozernyy","names":{"kk":"Заозерный","ru":"Заозерный","en":"Zaozernyy"},"country":"KZ","lat":53.108665,"lon":71.157521,"pop":0,"dumk_id":6168,"search_terms":["zaozernyy","заозерный"]},{"id":90000557,"name":"Zauralovka","names":{"kk":"Заураловка","ru":"Заураловка","en":"Zauralovka"},"country":"KZ","lat":52.545946,"lon":70.776707,"pop":0,"dumk_id":6169,"search_terms":["zauralovka","заураловка"]},{"id":90000620,"name":"Zelёnyy bor","names":{"kk":"Зелёный бор","ru":"Зелёный бор","en":"Zelёnyy bor"},"country":"KZ","lat":53.103038,"lon":70.364291,"pop":0,"dumk_id":6232,"search_terms":["зелёный бор","zelёnyy bor"]},{"id":90000621,"name":"Zlatopole","names":{"kk":"Златополье","ru":"Златополье","en":"Zlatopole"},"country":"KZ","lat":52.863228,"lon":69.949341,"pop":0,"dumk_id":6233,"search_terms":["златополье","zlatopole"]},{"id":90000698,"name":"Zarechnoe","names":{"kk":"Заречное","ru":"Заречное","en":"Zarechnoe"},"country":"KZ","lat":52.233024,"lon":66.349204,"pop":0,"dumk_id":6310,"search_terms":["zarechnoe","заречное"]},{"id":90000699,"name":"Znamenka","names":{"kk":"Знаменка","ru":"Знаменка","en":"Znamenka"},"country":"KZ","lat":52.13389,"lon":66.211574,"pop":0,"dumk_id":6311,"search_terms":["знаменка","znamenka"]},{"id":90000719,"name":"Zaporozhe","names":{"kk":"Запороже","ru":"Запороже","en":"Zaporozhe"},"country":"KZ","lat":51.611584,"lon":67.423197,"pop":0,"dumk_id":6331,"search_terms":["zaporozhe","запороже"]},{"id":90000759,"name":"Zerenda","names":{"kk":"Зеренда","ru":"Зеренда","en":"Zerenda"},"country":"KZ","lat":52.906906,"lon":69.150433,"pop":0,"dumk_id":6372,"search_terms":["зеренда","zerenda"]},{"id":90000786,"name":"Zarechnoe","names":{"kk":"Заречное","ru":"Заречное","en":"Zarechnoe"},"country":"KZ","lat":53.199401,"lon":69.223385,"pop":0,"dumk_id":6399,"search_terms":["zarechnoe","заречное"]},{"id":90000920,"name":"Zelenyy gay","names":{"kk":"Зеленый гай","ru":"Зеленый гай","en":"Zelenyy gay"},"country":"KZ","lat":51.273652,"lon":70.476393,"pop":0,"dumk_id":6533,"search_terms":["zelenyy gay","зеленый гай"]},{"id":90000952,"name":"Zavodskoy","names":{"kk":"Заводской","ru":"Заводской","en":"Zavodskoy"},"country":"KZ","lat":52.468357,"lon":72.01447,"pop":0,"dumk_id":6565,"search_terms":["заводской","zavodskoy"]},{"id":90000959,"name":"Zelenoe","names":{"kk":"Зеленое","ru":"Зеленое","en":"Zelenoe"},"country":"KZ","lat":51.453885,"lon":69.775274,"pop":0,"dumk_id":6572,"search_terms":["zelenoe","зеленое"]},{"id":90001277,"name":"Zarechnyy","names":{"kk":"Заречный","ru":"Заречный","en":"Zarechnyy"},"country":"KZ","lat":43.719204,"lon":77.038528,"pop":0,"dumk_id":6890,"search_terms":["заречный","zarechnyy"]},{"id":90001667,"name":"Zineden","names":{"kk":"Зинеден","ru":"Зинеден","en":"Zineden"},"country":"KZ","lat":46.742731,"lon":50.143375,"pop":0,"dumk_id":7282,"search_terms":["зинеден","zineden"]},{"id":90001900,"name":"Zabrodino","names":{"kk":"Забродино","ru":"Забродино","en":"Zabrodino"},"country":"KZ","lat":51.051341,"lon":50.893397,"pop":0,"dumk_id":7516,"search_terms":["забродино","zabrodino"]},{"id":90002692,"name":"Zylikha tamshybay","names":{"kk":"Зылиха тамшыбай","ru":"Зылиха тамшыбай","en":"Zylikha tamshybay"},"country":"KZ","lat":44.947778,"lon":78.088338,"pop":0,"dumk_id":8313,"search_terms":["zylikha tamshybay","зылиха тамшыбай"]},{"id":90002925,"name":"Zarechnoe","names":{"kk":"Заречное","ru":"Заречное","en":"Zarechnoe"},"country":"KZ","lat":50.157887,"lon":71.445907,"pop":0,"dumk_id":8546,"search_terms":["zarechnoe","заречное"]},{"id":90003062,"name":"Zuevka","names":{"kk":"Зуевка","ru":"Зуевка","en":"Zuevka"},"country":"KZ","lat":53.219328,"lon":64.566591,"pop":0,"dumk_id":8683,"search_terms":["зуевка","zuevka"]},{"id":90003143,"name":"Zaayatskoe","names":{"kk":"Зааятское","ru":"Зааятское","en":"Zaayatskoe"},"country":"KZ","lat":52.88779,"lon":61.579243,"pop":0,"dumk_id":8764,"search_terms":["зааятское","zaayatskoe"]},{"id":90003195,"name":"Zabelov","names":{"kk":"Забелов","ru":"Забелов","en":"Zabelov"},"country":"KZ","lat":52.287753,"lon":61.327661,"pop":0,"dumk_id":8816,"search_terms":["zabelov","забелов"]},{"id":90003279,"name":"Zapadnoe","names":{"kk":"Западное","ru":"Западное","en":"Zapadnoe"},"country":"KZ","lat":52.937114,"lon":66.102324,"pop":0,"dumk_id":8900,"search_terms":["zapadnoe","западное"]},{"id":90003307,"name":"Zarya","names":{"kk":"Заря","ru":"Заря","en":"Zarya"},"country":"KZ","lat":51.528648,"lon":65.349356,"pop":0,"dumk_id":8928,"search_terms":["zarya","заря"]},{"id":90003315,"name":"Zelenovka","names":{"kk":"Зеленовка","ru":"Зеленовка","en":"Zelenovka"},"country":"KZ","lat":52.513601,"lon":65.42326,"pop":0,"dumk_id":8936,"search_terms":["zelenovka","зеленовка"]},{"id":90003326,"name":"Zagarinka","names":{"kk":"Загаринка","ru":"Загаринка","en":"Zagarinka"},"country":"KZ","lat":54.124241,"lon":63.820477,"pop":0,"dumk_id":8947,"search_terms":["загаринка","zagarinka"]},{"id":90003370,"name":"Zlatoust","names":{"kk":"Златоуст","ru":"Златоуст","en":"Zlatoust"},"country":"KZ","lat":53.567065,"lon":65.277769,"pop":0,"dumk_id":9000,"search_terms":["zlatoust","златоуст"]},{"id":90003471,"name":"Zapasnoe","names":{"kk":"Запасное","ru":"Запасное","en":"Zapasnoe"},"country":"KZ","lat":53.874121,"lon":62.409691,"pop":0,"dumk_id":9101,"search_terms":["zapasnoe","запасное"]},{"id":90003476,"name":"Zaozernoe","names":{"kk":"Заозерное","ru":"Заозерное","en":"Zaozernoe"},"country":"KZ","lat":53.987425,"lon":63.256272,"pop":0,"dumk_id":9106,"search_terms":["заозерное","zaozernoe"]},{"id":90003492,"name":"Zatyshenka","names":{"kk":"Затышенка","ru":"Затышенка","en":"Zatyshenka"},"country":"KZ","lat":53.749221,"lon":62.716088,"pop":0,"dumk_id":9122,"search_terms":["zatyshenka","затышенка"]},{"id":90003517,"name":"Zarechnoe","names":{"kk":"Заречное","ru":"Заречное","en":"Zarechnoe"},"country":"KZ","lat":53.235704,"lon":63.736754,"pop":0,"dumk_id":9147,"search_terms":["zarechnoe","заречное"]},{"id":90003906,"name":"Zakharovka","names":{"kk":"Захаровка","ru":"Захаровка","en":"Zakharovka"},"country":"KZ","lat":53.576246,"lon":75.594956,"pop":0,"dumk_id":9542,"search_terms":["захаровка","zakharovka"]},{"id":90003973,"name":"Zangghar","names":{"kk":"Заңғар","ru":"Зангар","en":"Zangghar"},"country":"KZ","lat":52.485735,"lon":77.19066,"pop":0,"dumk_id":9609,"search_terms":["зангар","заңғар","zangghar"]},{"id":90003977,"name":"Zarya","names":{"kk":"Заря","ru":"Заря","en":"Zarya"},"country":"KZ","lat":52.099065,"lon":77.102527,"pop":0,"dumk_id":9613,"search_terms":["zarya","заря"]},{"id":90003997,"name":"Zaozernoe","names":{"kk":"Заозерное","ru":"Заозерное","en":"Zaozernoe"},"country":"KZ","lat":52.314799,"lon":77.302528,"pop":0,"dumk_id":9633,"search_terms":["заозерное","zaozernoe"]},{"id":90004038,"name":"Zelennaya roshcha","names":{"kk":"Зеленная роща","ru":"Зеленная роща","en":"Zelennaya roshcha"},"country":"KZ","lat":53.232546,"lon":75.921628,"pop":0,"dumk_id":9674,"search_terms":["зеленная роща","zelennaya roshcha"]},{"id":90004079,"name":"Zaborovka","names":{"kk":"Заборовка","ru":"Заборовка","en":"Zaborovka"},"country":"KZ","lat":52.855845,"lon":78.010696,"pop":0,"dumk_id":9715,"search_terms":["zaborovka","заборовка"]},{"id":90004106,"name":"Zarya","names":{"kk":"Заря","ru":"Заря","en":"Zarya"},"country":"KZ","lat":53.512511,"lon":68.528943,"pop":0,"dumk_id":9742,"search_terms":["zarya","заря"]},{"id":90004152,"name":"Zarya","names":{"kk":"Заря","ru":"Заря","en":"Zarya"},"country":"KZ","lat":53.01557,"lon":68.609504,"pop":0,"dumk_id":9788,"search_terms":["zarya","заря"]},{"id":90004234,"name":"Zagradovka","names":{"kk":"Заградовка","ru":"Заградовка","en":"Zagradovka"},"country":"KZ","lat":53.839383,"lon":68.610573,"pop":0,"dumk_id":9870,"search_terms":["заградовка","zagradovka"]},{"id":90004334,"name":"Zaton","names":{"kk":"Затон","ru":"Затон","en":"Zaton"},"country":"KZ","lat":54.85631,"lon":68.992177,"pop":0,"dumk_id":9970,"search_terms":["zaton","затон"]},{"id":90004431,"name":"Zolotorunnoe","names":{"kk":"Золоторунное","ru":"Золоторунное","en":"Zolotorunnoe"},"country":"KZ","lat":53.57445,"lon":70.764652,"pop":0,"dumk_id":10067,"search_terms":["zolotorunnoe","золоторунное"]},{"id":90004466,"name":"Zarechnoe","names":{"kk":"Заречное","ru":"Заречное","en":"Zarechnoe"},"country":"KZ","lat":53.770433,"lon":69.769336,"pop":0,"dumk_id":10102,"search_terms":["zarechnoe","заречное"]},{"id":90004600,"name":"Zolotonosha","names":{"kk":"Золотоноша","ru":"Золотоноша","en":"Zolotonosha"},"country":"KZ","lat":52.822984,"lon":67.166791,"pop":0,"dumk_id":10236,"search_terms":["золотоноша","zolotonosha"]},{"id":90004754,"name":"Zerdeli","names":{"kk":"Зерделі","ru":"Зердели","en":"Zerdeli"},"country":"KZ","lat":40.974252,"lon":68.375753,"pop":0,"dumk_id":10390,"search_terms":["zerdeli","зердели","зерделі"]},{"id":90004783,"name":"Zangghar","names":{"kk":"Заңғар","ru":"Зангар","en":"Zangghar"},"country":"KZ","lat":41.646688,"lon":69.477123,"pop":0,"dumk_id":10419,"search_terms":["зангар","заңғар","zangghar"]},{"id":90005114,"name":"Zakh","names":{"kk":"Зах","ru":"Зах","en":"Zakh"},"country":"KZ","lat":41.452712,"lon":69.301404,"pop":0,"dumk_id":10751,"search_terms":["zakh","зах"]},{"id":90005201,"name":"Zaghambar","names":{"kk":"Зағамбар","ru":"Загамбар","en":"Zaghambar"},"country":"KZ","lat":42.097596,"lon":69.865438,"pop":0,"dumk_id":10838,"search_terms":["загамбар","зағамбар","zaghambar"]},{"id":90005206,"name":"Zertas","names":{"kk":"Зертас","ru":"Зертас","en":"Zertas"},"country":"KZ","lat":42.258698,"lon":69.913947,"pop":0,"dumk_id":10843,"search_terms":["зертас","zertas"]},{"id":90005390,"name":"Zarechnoe","names":{"kk":"Заречное","ru":"Заречное","en":"Zarechnoe"},"country":"KZ","lat":50.279831,"lon":82.26147,"pop":0,"dumk_id":11028,"search_terms":["zarechnoe","заречное"]},{"id":90005590,"name":"Zauba","names":{"kk":"Зауба","ru":"Зауба","en":"Zauba"},"country":"KZ","lat":50.4951,"lon":82.424631,"pop":0,"dumk_id":11229,"search_terms":["zauba","зауба"]},{"id":90005599,"name":"Zevakino","names":{"kk":"Зевакино","ru":"Зевакино","en":"Zevakino"},"country":"KZ","lat":50.224745,"lon":81.856636,"pop":0,"dumk_id":11238,"search_terms":["зевакино","zevakino"]}]