[{"id":90000057,"name":"Ryasinka","names":{"kk":"Рясинка","ru":"Рясинка","en":"Ryasinka"},"country":"KZ","lat":53.445746,"lon":67.208222,"pop":0,"dumk_id":11255,"search_terms":["рясинка","ryasinka"]},{"id":90000292,"name":"Remki","names":{"kk":"Ремки","ru":"Ремки","en":"Remki"},"country":"KZ","lat":50.899444,"lon":81.294713,"pop":0,"dumk_id":5902,"search_terms":["remki","ремки"]},{"id":90000429,"name":"Ramazan","names":{"kk":"Рамазан","ru":"Рамазан","en":"Ramazan"},"country":"KZ","lat":51.877858,"lon":71.16681,"pop":0,"dumk_id":6041,"search_terms":["ramazan","рамазан"]},{"id":90000483,"name":"Razezd №42","names":{"kk":"Разьезд №42","ru":"Разьезд №42","en":"Razezd №42"},"country":"KZ","lat":51.041167,"lon":71.857994,"pop":0,"dumk_id":6095,"search_terms":["разьезд №42","razezd №42"]},{"id":90000484,"name":"Rodniki","names":{"kk":"Родники","ru":"Родники","en":"Rodniki"},"country":"KZ","lat":50.862229,"lon":72.327419,"pop":0,"dumk_id":6096,"search_terms":["родники","rodniki"]},{"id":90000535,"name":"Rodionovka","names":{"kk":"Родионовка","ru":"Родионовка","en":"Rodionovka"},"country":"KZ","lat":51.689644,"lon":68.513411,"pop":0,"dumk_id":6147,"search_terms":["rodionovka","родионовка"]},{"id":90000645,"name":"Raygorodok","names":{"kk":"Райгородок","ru":"Райгородок","en":"Raygorodok"},"country":"KZ","lat":52.517081,"lon":69.693968,"pop":0,"dumk_id":6257,"search_terms":["райгородок","raygorodok"]},{"id":90000842,"name":"Razdolnoe","names":{"kk":"Раздолное","ru":"Раздолное","en":"Razdolnoe"},"country":"KZ","lat":52.483513,"lon":69.233096,"pop":0,"dumk_id":6455,"search_terms":["раздолное","razdolnoe"]},{"id":90000874,"name":"Rechnoe","names":{"kk":"Речное","ru":"Речное","en":"Rechnoe"},"country":"KZ","lat":52.572737,"lon":68.52396,"pop":0,"dumk_id":6487,"search_terms":["речное","rechnoe"]},{"id":90000899,"name":"Razdolnoe","names":{"kk":"Раздолное","ru":"Раздолное","en":"Razdolnoe"},"country":"KZ","lat":51.246279,"lon":71.036347,"pop":0,"dumk_id":6512,"search_terms":["раздолное","razdolnoe"]},{"id":90000906,"name":"Raqymzhan Qoshqarbaev","names":{"kk":"Рақымжан Қошқарбаев","ru":"Ракымжан Кошкарбаев","en":"Raqymzhan Qoshqarbaev"},"country":"KZ","lat":50.820346,"lon":71.329845,"pop":0,"dumk_id":6519,"search_terms":["raqymzhan qoshqarbaev","рақымжан қошқарбаев","ракымжан кошкарбаев"]},{"id":90000908,"name":"Rodina","names":{"kk":"Родина","ru":"Родина","en":"Rodina"},"country":"KZ","lat":51.302445,"lon":70.541645,"pop":0,"dumk_id":6521,"search_terms":["родина","rodina"]},{"id":90000947,"name":"Raevka","names":{"kk":"Раевка","ru":"Раевка","en":"Raevka"},"country":"KZ","lat":51.689196,"lon":70.812592,"pop":0,"dumk_id":6560,"search_terms":["raevka","раевка"]},{"id":90001110,"name":"Rodnikovka","names":{"kk":"Родниковка","ru":"Родниковка","en":"Rodnikovka"},"country":"KZ","lat":50.651753,"lon":57.175037,"pop":0,"dumk_id":6723,"search_terms":["родниковка","rodnikovka"]},{"id":90001352,"name":"Rakhat","names":{"kk":"Рахат","ru":"Рахат","en":"Rakhat"},"country":"KZ","lat":43.374446,"lon":77.363891,"pop":0,"dumk_id":6965,"search_terms":["rakhat","рахат"]},{"id":90001476,"name":"Rakhat","names":{"kk":"Рахат","ru":"Рахат","en":"Rakhat"},"country":"KZ","lat":43.345272,"lon":76.802498,"pop":0,"dumk_id":7091,"search_terms":["rakhat","рахат"]},{"id":90001497,"name":"Rayymbek","names":{"kk":"Райымбек","ru":"Райымбек","en":"Rayymbek"},"country":"KZ","lat":43.195916,"lon":76.750674,"pop":0,"dumk_id":7112,"search_terms":["райымбек","rayymbek"]},{"id":90001584,"name":"Rysqulov","names":{"kk":"Рысқұлов","ru":"Рыскулов","en":"Rysqulov"},"country":"KZ","lat":43.300444,"lon":77.282881,"pop":0,"dumk_id":7199,"search_terms":["rysqulov","рысқұлов","рыскулов"]},{"id":90001637,"name":"Rakhat","names":{"kk":"Рахат","ru":"Рахат","en":"Rakhat"},"country":"KZ","lat":43.751226,"lon":79.493851,"pop":0,"dumk_id":7252,"search_terms":["rakhat","рахат"]},{"id":90001905,"name":"Razdolnoe","names":{"kk":"Раздолное","ru":"Раздолное","en":"Razdolnoe"},"country":"KZ","lat":51.57184,"lon":51.837086,"pop":0,"dumk_id":7521,"search_terms":["раздолное","razdolnoe"]},{"id":90001906,"name":"Rubezhinskoe","names":{"kk":"Рубежинское","ru":"Рубежинское","en":"Rubezhinskoe"},"country":"KZ","lat":51.419541,"lon":51.961754,"pop":0,"dumk_id":7522,"search_terms":["rubezhinskoe","рубежинское"]},{"id":90002216,"name":"Rakhat","names":{"kk":"Рахат","ru":"Рахат","en":"Rakhat"},"country":"KZ","lat":43.035985,"lon":71.184291,"pop":0,"dumk_id":7833,"search_terms":["rakhat","рахат"]},{"id":90002262,"name":"Rysbek batyr","names":{"kk":"Рысбек батыр","ru":"Рысбек батыр","en":"Rysbek batyr"},"country":"KZ","lat":42.829307,"lon":70.407185,"pop":0,"dumk_id":7879,"search_terms":["рысбек батыр","rysbek batyr"]},{"id":90002463,"name":"Rakhym Sabdenov","names":{"kk":"Рахым Сәбденов","ru":"Рахым Сабденов","en":"Rakhym Sabdenov"},"country":"KZ","lat":42.97688,"lon":72.795311,"pop":0,"dumk_id":8083,"search_terms":["рахым сәбденов","rakhym sabdenov","рахым сабденов"]},{"id":90002849,"name":"Rostovka","names":{"kk":"Ростовка","ru":"Ростовка","en":"Rostovka"},"country":"KZ","lat":50.047841,"lon":72.681234,"pop":0,"dumk_id":8470,"search_terms":["rostovka","ростовка"]},{"id":90002949,"name":"Rodnichki","names":{"kk":"Роднички","ru":"Роднички","en":"Rodnichki"},"country":"KZ","lat":50.736177,"lon":73.551325,"pop":0,"dumk_id":8570,"search_terms":["роднички","rodnichki"]},{"id":90002983,"name":"Rodnikovskoe","names":{"kk":"Родниковское","ru":"Родниковское","en":"Rodnikovskoe"},"country":"KZ","lat":51.046278,"lon":73.993942,"pop":0,"dumk_id":8604,"search_terms":["родниковское","rodnikovskoe"]},{"id":90002986,"name":"Russkaya ivanovka","names":{"kk":"Русская ивановка","ru":"Русская ивановка","en":"Russkaya ivanovka"},"country":"KZ","lat":50.319585,"lon":73.077868,"pop":0,"dumk_id":8607,"search_terms":["russkaya ivanovka","русская ивановка"]},{"id":90003269,"name":"Rybkino","names":{"kk":"Рыбкино","ru":"Рыбкино","en":"Rybkino"},"country":"KZ","lat":53.646354,"lon":62.003032,"pop":0,"dumk_id":8890,"search_terms":["rybkino","рыбкино"]},{"id":90003361,"name":"Razdolnoe","names":{"kk":"Раздольное","ru":"Раздольное","en":"Razdolnoe"},"country":"KZ","lat":51.465176,"lon":63.18835,"pop":0,"dumk_id":8991,"search_terms":["razdolnoe","раздольное"]},{"id":90003428,"name":"Rechnoe","names":{"kk":"Речное","ru":"Речное","en":"Rechnoe"},"country":"KZ","lat":54.219168,"lon":65.871879,"pop":0,"dumk_id":9058,"search_terms":["речное","rechnoe"]},{"id":90003429,"name":"Ryazhskoe","names":{"kk":"Ряжское","ru":"Ряжское","en":"Ryazhskoe"},"country":"KZ","lat":54.063696,"lon":65.551683,"pop":0,"dumk_id":9059,"search_terms":["ряжское","ryazhskoe"]},{"id":90003520,"name":"Ryspay","names":{"kk":"Рыспай","ru":"Рыспай","en":"Ryspay"},"country":"KZ","lat":52.985168,"lon":63.623467,"pop":0,"dumk_id":9150,"search_terms":["ryspay","рыспай"]},{"id":90003524,"name":"Ryazanovka","names":{"kk":"Рязановка","ru":"Рязановка","en":"Ryazanovka"},"country":"KZ","lat":53.335279,"lon":63.423961,"pop":0,"dumk_id":9154,"search_terms":["ryazanovka","рязановка"]},{"id":90003541,"name":"Rybnoe","names":{"kk":"Рыбное","ru":"Рыбное","en":"Rybnoe"},"country":"KZ","lat":53.254531,"lon":63.894301,"pop":0,"dumk_id":9171,"search_terms":["rybnoe","рыбное"]},{"id":90003612,"name":"Raym","names":{"kk":"Райм","ru":"Райм","en":"Raym"},"country":"KZ","lat":46.073021,"lon":61.739907,"pop":0,"dumk_id":9242,"search_terms":["raym","райм"]},{"id":90003990,"name":"Rozhdestvenka","names":{"kk":"Рождественка","ru":"Рождественка","en":"Rozhdestvenka"},"country":"KZ","lat":52.664352,"lon":77.516479,"pop":0,"dumk_id":9626,"search_terms":["rozhdestvenka","рождественка"]},{"id":90003991,"name":"Rozovka","names":{"kk":"Розовка","ru":"Розовка","en":"Rozovka"},"country":"KZ","lat":52.608356,"lon":77.429441,"pop":0,"dumk_id":9627,"search_terms":["rozovka","розовка"]},{"id":90004057,"name":"Ravnopol","names":{"kk":"Равнополь","ru":"Равнополь","en":"Ravnopol"},"country":"KZ","lat":52.783519,"lon":77.260962,"pop":0,"dumk_id":9693,"search_terms":["ravnopol","равнополь"]},{"id":90004194,"name":"Rublevka","names":{"kk":"Рублевка","ru":"Рублевка","en":"Rublevka"},"country":"KZ","lat":54.270506,"lon":69.141558,"pop":0,"dumk_id":9830,"search_terms":["рублевка","rublevka"]},{"id":90004287,"name":"Rozhdestvenka","names":{"kk":"Рождественка","ru":"Рождественка","en":"Rozhdestvenka"},"country":"KZ","lat":54.470499,"lon":67.209255,"pop":0,"dumk_id":9923,"search_terms":["rozhdestvenka","рождественка"]},{"id":90004350,"name":"Roshino","names":{"kk":"Рошино","ru":"Рошино","en":"Roshino"},"country":"KZ","lat":54.670071,"lon":70.361802,"pop":0,"dumk_id":9986,"search_terms":["рошино","roshino"]},{"id":90004362,"name":"Ryavkino","names":{"kk":"Рявкино","ru":"Рявкино","en":"Ryavkino"},"country":"KZ","lat":54.978565,"lon":70.095892,"pop":0,"dumk_id":9998,"search_terms":["ryavkino","рявкино"]},{"id":90004414,"name":"Razdolnoe","names":{"kk":"Раздольное","ru":"Раздольное","en":"Razdolnoe"},"country":"KZ","lat":54.565457,"lon":67.792782,"pop":0,"dumk_id":10050,"search_terms":["razdolnoe","раздольное"]},{"id":90004474,"name":"Roshinskoe","names":{"kk":"Рошинское","ru":"Рошинское","en":"Roshinskoe"},"country":"KZ","lat":54.059722,"lon":69.147927,"pop":0,"dumk_id":10110,"search_terms":["рошинское","roshinskoe"]},{"id":90004504,"name":"Rakitnoe","names":{"kk":"Ракитное","ru":"Ракитное","en":"Rakitnoe"},"country":"KZ","lat":53.930687,"lon":66.822889,"pop":0,"dumk_id":10140,"search_terms":["rakitnoe","ракитное"]},{"id":90004549,"name":"Rovnoe","names":{"kk":"Ровное","ru":"Ровное","en":"Rovnoe"},"country":"KZ","lat":53.769672,"lon":67.605484,"pop":0,"dumk_id":10185,"search_terms":["rovnoe","ровное"]},{"id":90004571,"name":"Raisovka","names":{"kk":"Раисовка","ru":"Раисовка","en":"Raisovka"},"country":"KZ","lat":52.919097,"lon":67.472928,"pop":0,"dumk_id":10207,"search_terms":["раисовка","raisovka"]},{"id":90004601,"name":"Ruzaevka","names":{"kk":"Рузаевка","ru":"Рузаевка","en":"Ruzaevka"},"country":"KZ","lat":52.821765,"lon":66.951582,"pop":0,"dumk_id":10237,"search_terms":["ruzaevka","рузаевка"]},{"id":90004608,"name":"Rukhlovka","names":{"kk":"Рухловка","ru":"Рухловка","en":"Rukhlovka"},"country":"KZ","lat":52.698713,"lon":67.643105,"pop":0,"dumk_id":10244,"search_terms":["рухловка","rukhlovka"]},{"id":90004619,"name":"Razgulnoe","names":{"kk":"Разгульное","ru":"Разгульное","en":"Razgulnoe"},"country":"KZ","lat":52.395913,"lon":66.681629,"pop":0,"dumk_id":10255,"search_terms":["разгульное","razgulnoe"]},{"id":90004793,"name":"Rabat","names":{"kk":"Рабат","ru":"Рабат","en":"Rabat"},"country":"KZ","lat":42.060354,"lon":69.525686,"pop":0,"dumk_id":10429,"search_terms":["rabat","рабат"]},{"id":90005244,"name":"Razezd 115","names":{"kk":"Разъезд 115","ru":"Разъезд 115","en":"Razezd 115"},"country":"KZ","lat":42.49008,"lon":70.44248,"pop":0,"dumk_id":10881,"search_terms":["разъезд 115","razezd 115"]},{"id":90005250,"name":"Rysqul","names":{"kk":"Рысқұл","ru":"Рыскул","en":"Rysqul"},"country":"KZ","lat":42.518103,"lon":70.198327,"pop":0,"dumk_id":10887,"search_terms":["рысқұл","rysqul","рыскул"]},{"id":90005288,"name":"Razezd 114","names":{"kk":"Разъезд 114","ru":"Разъезд 114","en":"Razezd 114"},"country":"KZ","lat":42.490818,"lon":70.563249,"pop":0,"dumk_id":10926,"search_terms":["razezd 114","разъезд 114"]},{"id":90005448,"name":"Rakhman qaynary","names":{"kk":"Рахман қайнары","ru":"Рахман кайнары","en":"Rakhman qaynary"},"country":"KZ","lat":49.522092,"lon":86.537128,"pop":0,"dumk_id":11086,"search_terms":["рахман кайнары","рахман қайнары","rakhman qaynary"]},{"id":90005515,"name":"Razdolnoe","names":{"kk":"Раздолное","ru":"Раздолное","en":"Razdolnoe"},"country":"KZ","lat":49.058451,"lon":83.512141,"pop":0,"dumk_id":11154,"search_terms":["раздолное","razdolnoe"]},{"id":90005604,"name":"Rassypnoe","names":{"kk":"Рассыпное","ru":"Рассыпное","en":"Rassypnoe"},"country":"KZ","lat":50.480555,"lon":81.906232,"pop":0,"dumk_id":11243,"search_terms":["rassypnoe","рассыпное"]},{"id":90005605,"name":"Rulikha","names":{"kk":"Рулиха","ru":"Рулиха","en":"Rulikha"},"country":"KZ","lat":50.484991,"lon":81.987772,"pop":0,"dumk_id":11244,"search_terms":["rulikha","рулиха"]}]