[{"id":3451190,"name":"Rio de Janeiro","local":"Рио-де-Жанейро","country":"BR","lat":-22.906,"lon":-43.182,"pop":6747815,"tz":"America/Sao_Paulo"},{"id":1166993,"name":"Rawalpindi","local":"Равалпинди","country":"PK","lat":33.597,"lon":73.048,"pop":3357612,"tz":"Asia/Karachi"},{"id":3169070,"name":"Rome","local":"Рим","country":"IT","lat":41.892,"lon":12.511,"pop":2318895,"tz":"Europe/Rome"},{"id":2538475,"name":"Rabat","local":"Рабат","country":"MA","lat":34.013,"lon":-6.833,"pop":1655753,"tz":"Africa/Casablanca"},{"id":3390760,"name":"Recife","local":"Ресифи","country":"BR","lat":-8.054,"lon":-34.881,"pop":1653461,"tz":"America/Recife"},{"id":1258847,"name":"Rajkot","local":"Раджкот","country":"IN","lat":22.292,"lon":70.793,"pop":1390640,"tz":"Asia/Kolkata"},{"id":501175,"name":"Rostov-na-Donu","local":"Ростов-на-Дону","country":"RU","lat":47.22,"lon":39.708,"pop":1130305,"tz":"Europe/Moscow"},{"id":1258526,"name":"Ranchi","local":"Ранчи","country":"IN","lat":23.343,"lon":85.309,"pop":1120374,"tz":"Asia/Kolkata"},{"id":1185188,"name":"Rangpur","local":"Рангпур","country":"BD","lat":25.747,"lon":89.252,"pop":1031388,"tz":"Asia/Dhaka"},{"id":1258980,"name":"Raipur","local":"Райпур","country":"IN","lat":21.233,"lon":81.633,"pop":1027264,"tz":"Asia/Kolkata"},{"id":3838583,"name":"Rosario","local":"Росарио","country":"AR","lat":-32.947,"lon":-60.639,"pop":948312,"tz":"America/Argentina/Cordoba"},{"id":2747891,"name":"Rotterdam","local":"Роттердам","country":"NL","lat":51.922,"lon":4.479,"pop":868135,"tz":"Europe/Amsterdam"},{"id":1185128,"name":"Rajshahi","local":"Раджшахи","country":"BD","lat":24.374,"lon":88.601,"pop":763580,"tz":"Asia/Dhaka"},{"id":456172,"name":"Riga","local":"Рига","country":"LV","lat":56.946,"lon":24.106,"pop":742572,"tz":"Europe/Riga"},{"id":3451328,"name":"Ribeirao Preto","local":"Рибейран-Прету","country":"BR","lat":-21.177,"lon":-47.81,"pop":711825,"tz":"America/Sao_Paulo"},{"id":118743,"name":"Rasht","local":"Решт","country":"IR","lat":37.276,"lon":49.589,"pop":594590,"tz":"Asia/Tehran"},{"id":3520339,"name":"Reynosa","local":"Рейноса","country":"MX","lat":26.08,"lon":-98.285,"pop":589466,"tz":"America/Matamoros"},{"id":500096,"name":"Ryazan'","local":"Рязань","country":"RU","lat":54.627,"lon":39.704,"pop":538962,"tz":"Europe/Moscow"},{"id":1167460,"name":"Rahim Yar Khan","local":"Рахимъярхан","country":"PK","lat":28.42,"lon":70.303,"pop":517000,"tz":"Asia/Karachi"},{"id":181032,"name":"Ruiru","local":"Руиру","country":"KE","lat":-1.147,"lon":36.961,"pop":490120,"tz":"Africa/Nairobi"},{"id":4487042,"name":"Raleigh","local":"Роли","country":"US","lat":35.772,"lon":-78.639,"pop":482295,"tz":"America/New_York"},{"id":1568510,"name":"Rach Gia","local":"Ратьзя","country":"VN","lat":10.012,"lon":105.081,"pop":459860,"tz":"Asia/Ho_Chi_Minh"},{"id":3662574,"name":"Rio Branco","local":"Риу-Бранку","country":"BR","lat":-9.975,"lon":-67.81,"pop":419452,"tz":"America/Rio_Branco"},{"id":1258932,"name":"Rajamahendravaram","local":"Раджамандри","country":"IN","lat":17.005,"lon":81.778,"pop":376333,"tz":"Asia/Kolkata"},{"id":1258076,"name":"Rohtak","local":"Рохтак","country":"IN","lat":28.894,"lon":76.589,"pop":374292,"tz":"Asia/Kolkata"},{"id":958724,"name":"Rustenburg","local":"Рюстенбург","country":"ZA","lat":-25.668,"lon":27.242,"pop":373695,"tz":"Africa/Johannesburg"},{"id":291074,"name":"Ras Al Khaimah","local":"Рас-эль-Хайма","country":"AE","lat":25.79,"lon":55.943,"pop":351943,"tz":"Asia/Dubai"},{"id":963241,"name":"Randburg","local":"Рандбург","country":"ZA","lat":-26.094,"lon":28.001,"pop":337053,"tz":"Africa/Johannesburg"},{"id":936374,"name":"Roodepoort","local":"Рудепурт","country":"ZA","lat":-26.163,"lon":27.872,"pop":326416,"tz":"Africa/Johannesburg"},{"id":2639577,"name":"Reading","local":"Рединг","country":"GB","lat":51.456,"lon":-0.971,"pop":318014,"tz":"Europe/London"},{"id":5387877,"name":"Riverside","local":"Риверсайд","country":"US","lat":33.953,"lon":-117.396,"pop":317261,"tz":"America/Los_Angeles"},{"id":350203,"name":"Rosetta","local":"Рашид","country":"EG","lat":31.4,"lon":30.417,"pop":301795,"tz":"Africa/Cairo"},{"id":2246512,"name":"Rufisque","local":"Рюфиск","country":"SN","lat":14.715,"lon":-17.273,"pop":295459,"tz":"Africa/Dakar"},{"id":3429577,"name":"Resistencia","local":"Ресистенсия","country":"AR","lat":-27.464,"lon":-58.987,"pop":290793,"tz":"America/Argentina/Cordoba"},{"id":1258315,"name":"Rourkela","local":"Руркела","country":"IN","lat":22.225,"lon":84.864,"pop":273317,"tz":"Asia/Kolkata"},{"id":5511077,"name":"Reno","local":"Рино","country":"US","lat":39.53,"lon":-119.814,"pop":264165,"tz":"America/Los_Angeles"},{"id":3652350,"name":"Riobamba","local":"Риобамба","country":"EC","lat":-1.665,"lon":-78.659,"pop":264048,"tz":"America/Guayaquil"},{"id":293703,"name":"Rishon LeTsiyyon","local":"Ришон-ле-Цион","country":"IL","lat":31.971,"lon":34.789,"pop":258535,"tz":"Asia/Jerusalem"},{"id":962367,"name":"Richards Bay","local":"Ричардс-Бей","country":"ZA","lat":-28.783,"lon":32.038,"pop":252968,"tz":"Africa/Johannesburg"},{"id":695594,"name":"Rivne","local":"Ровно","country":"UA","lat":50.62,"lon":26.237,"pop":245289,"tz":"Europe/Kyiv"},{"id":8347656,"name":"Ramagundam","local":"Рамагундам","country":"IN","lat":18.755,"lon":79.474,"pop":242979,"tz":"Asia/Kolkata"},{"id":1258182,"name":"Rewa","local":"Рева","country":"IN","lat":24.533,"lon":81.292,"pop":235654,"tz":"Asia/Kolkata"},{"id":1259012,"name":"Raichur","local":"Райчур","country":"IN","lat":16.205,"lon":77.356,"pop":234073,"tz":"Asia/Kolkata"},{"id":2983990,"name":"Rennes","local":"Ренн","country":"FR","lat":48.111,"lon":-1.674,"pop":227830,"tz":"Europe/Paris"},{"id":760778,"name":"Radom","local":"Радом","country":"PL","lat":51.403,"lon":21.147,"pop":226794,"tz":"Europe/Warsaw"},{"id":4781708,"name":"Richmond","local":"Ричмонд","country":"US","lat":37.554,"lon":-77.46,"pop":226610,"tz":"America/New_York"},{"id":6119109,"name":"Regina","local":"Реджайна","country":"CA","lat":50.45,"lon":-104.618,"pop":226404,"tz":"America/Regina"},{"id":3451055,"name":"Rio Verde","local":"Риу-Верди","country":"BR","lat":-17.798,"lon":-50.928,"pop":225696,"tz":"America/Sao_Paulo"},{"id":500004,"name":"Rybinsk","local":"Рыбинск","country":"RU","lat":58.046,"lon":38.838,"pop":216724,"tz":"Europe/Moscow"},{"id":3873775,"name":"Rancagua","local":"Ранкагуа","country":"CL","lat":-34.169,"lon":-70.741,"pop":212695,"tz":"America/Santiago"},{"id":6122085,"name":"Richmond","local":"Ричмонд","country":"CA","lat":49.17,"lon":-123.137,"pop":209937,"tz":"America/Vancouver"},{"id":5134086,"name":"Rochester","local":"Рочестер","country":"US","lat":43.155,"lon":-77.616,"pop":209802,"tz":"America/New_York"},{"id":6122091,"name":"Richmond Hill","local":"Ричмонд-Хилл","country":"CA","lat":43.871,"lon":-79.437,"pop":202022,"tz":"America/Toronto"},{"id":13561808,"name":"Rayon KTZ","local":"Район ХТЗ","country":"UA","lat":49.943,"lon":36.37,"pop":200000,"tz":"Europe/Kyiv"},{"id":2844588,"name":"Rostock","local":"Росток","country":"DE","lat":54.089,"lon":12.14,"pop":198293,"tz":"Europe/Berlin"},{"id":2984114,"name":"Reims","local":"Реймс","country":"FR","lat":49.265,"lon":4.029,"pop":196565,"tz":"Europe/Paris"},{"id":3451138,"name":"Rio Grande","local":"Рио-Гранде","country":"BR","lat":-32.035,"lon":-52.099,"pop":187838,"tz":"America/Sao_Paulo"},{"id":1259064,"name":"Raebareli","local":"Рай-Барели","country":"IN","lat":26.231,"lon":81.233,"pop":186433,"tz":"Asia/Kolkata"},{"id":1691444,"name":"Roxas City","local":"Рохас","country":"PH","lat":11.585,"lon":122.751,"pop":185236,"tz":"Asia/Manila"},{"id":2523630,"name":"Reggio Calabria","local":"Реджо-ди-Калабрия","country":"IT","lat":38.11,"lon":15.661,"pop":182455,"tz":"Europe/Rome"},{"id":5385955,"name":"Rancho Cucamonga","local":"Ранчо-Кукамонга","country":"US","lat":34.106,"lon":-117.593,"pop":175236,"tz":"America/Los_Angeles"},{"id":3169522,"name":"Reggio nell'Emilia","local":"Реджо-Эмилия","country":"IT","lat":44.698,"lon":10.631,"pop":171944,"tz":"Europe/Rome"},{"id":293788,"name":"Ramat Gan","local":"Рамат-Ган","country":"IL","lat":32.082,"lon":34.811,"pop":170822,"tz":"Asia/Jerusalem"},{"id":1258109,"name":"Robertsonpet","local":"Роберцонпет","country":"IN","lat":12.956,"lon":78.275,"pop":162230,"tz":"Asia/Kolkata"},{"id":1493467,"name":"Rubtsovsk","local":"Рубцовск","country":"RU","lat":51.515,"lon":81.206,"pop":161065,"tz":"Asia/Barnaul"},{"id":3838874,"name":"Rio Cuarto","local":"Рио-Куарто","country":"AR","lat":-33.13,"lon":-64.353,"pop":157010,"tz":"America/Argentina/Cordoba"},{"id":8740322,"name":"Rudrapur","local":"Рудрапур","country":"IN","lat":28.98,"lon":79.4,"pop":154554,"tz":"Asia/Kolkata"},{"id":201521,"name":"Musanze","local":"Рухенгери","country":"RW","lat":-1.5,"lon":29.635,"pop":153368,"tz":"Africa/Kigali"},{"id":1259005,"name":"Raigarh","local":"Райгарх","country":"IN","lat":21.898,"lon":83.397,"pop":150019,"tz":"Asia/Kolkata"},{"id":293725,"name":"Rehovot","local":"Реховот","country":"IL","lat":31.894,"lon":34.812,"pop":149392,"tz":"Asia/Jerusalem"},{"id":3169361,"name":"Rimini","local":"Римини","country":"IT","lat":44.058,"lon":12.565,"pop":148688,"tz":"Europe/Rome"},{"id":4907959,"name":"Rockford","local":"Рокфорд","country":"US","lat":42.271,"lon":-89.094,"pop":148278,"tz":"America/Chicago"},{"id":118994,"name":"Rafsanjan","local":"Рафсанджане","country":"IR","lat":30.407,"lon":55.994,"pop":147680,"tz":"Asia/Tehran"},{"id":3873454,"name":"Renca","local":"Ренка","country":"CL","lat":-33.402,"lon":-70.706,"pop":147151,"tz":"America/Santiago"},{"id":3086800,"name":"Ruda Slaska","local":"Руда-Сленска","country":"PL","lat":50.258,"lon":18.856,"pop":146189,"tz":"Europe/Warsaw"},{"id":3086586,"name":"Rybnik","local":"Рыбник","country":"PL","lat":50.097,"lon":18.542,"pop":142510,"tz":"Europe/Warsaw"},{"id":368277,"name":"Rabak","local":"Рабак","country":"SD","lat":13.181,"lon":32.74,"pop":135281,"tz":"Africa/Khartoum"},{"id":1699296,"name":"Rodriguez","local":"Родригес","country":"PH","lat":14.76,"lon":121.2,"pop":134432,"tz":"Asia/Manila"},{"id":963230,"name":"Randfontein","local":"Рандфонтейн","country":"ZA","lat":-26.184,"lon":27.702,"pop":133654,"tz":"Africa/Johannesburg"},{"id":1258470,"name":"Raniganj","local":"Ранигандже","country":"IN","lat":23.616,"lon":87.131,"pop":131261,"tz":"Asia/Kolkata"},{"id":5388881,"name":"Roseville","local":"Розвелл","country":"US","lat":38.752,"lon":-121.288,"pop":130269,"tz":"America/Los_Angeles"},{"id":502971,"name":"Ramenki","local":"Раменки","country":"RU","lat":55.7,"lon":37.5,"pop":130000,"tz":"Europe/Moscow"},{"id":2849483,"name":"Regensburg","local":"Регенсбург","country":"DE","lat":49.015,"lon":12.102,"pop":129151,"tz":"Europe/Berlin"},{"id":612287,"name":"Rustavi","local":"Рустави","country":"GE","lat":41.563,"lon":44.979,"pop":128249,"tz":"Asia/Tbilisi"},{"id":3670730,"name":"Rionegro","local":"Рионегро","country":"CO","lat":6.155,"lon":-75.374,"pop":128153,"tz":"America/Bogota"},{"id":281102,"name":"Rafah","local":"Рафах","country":"PS","lat":31.297,"lon":34.244,"pop":126305,"tz":"Asia/Gaza"},{"id":1519843,"name":"Rudnyy","local":"Рудный","country":"KZ","lat":52.972,"lon":63.111,"pop":124000,"tz":"Asia/Qostanay"},{"id":2849647,"name":"Recklinghausen","local":"Реклингхаузен","country":"DE","lat":51.614,"lon":7.197,"pop":122438,"tz":"Europe/Berlin"},{"id":727523,"name":"Ruse","local":"Русе","country":"BG","lat":43.849,"lon":25.953,"pop":121168,"tz":"Europe/Sofia"},{"id":289011,"name":"Rustaq","local":"Рустака","country":"OM","lat":23.391,"lon":57.424,"pop":120000,"tz":"Asia/Muscat"},{"id":740483,"name":"Rize","local":"Ризе","country":"TR","lat":41.021,"lon":40.522,"pop":119828,"tz":"Europe/Istanbul"},{"id":3413829,"name":"Reykjavik","local":"Рейкьявик","country":"IS","lat":64.135,"lon":-21.895,"pop":118918,"tz":"Atlantic/Reykjavik"},{"id":2639093,"name":"Rotherham","local":"Ротерем","country":"GB","lat":53.43,"lon":-1.357,"pop":117618,"tz":"Europe/London"},{"id":2848273,"name":"Remscheid","local":"Ремшайд","country":"DE","lat":51.18,"lon":7.192,"pop":117118,"tz":"Europe/Berlin"},{"id":2982652,"name":"Rouen","local":"Руан","country":"FR","lat":49.443,"lon":1.099,"pop":116331,"tz":"Europe/Paris"},{"id":4724129,"name":"Round Rock","local":"Раунд-Рок","country":"US","lat":30.508,"lon":-97.679,"pop":115997,"tz":"America/Chicago"},{"id":385038,"name":"Ar Rifa'","local":"Риффа","country":"BH","lat":26.13,"lon":50.555,"pop":115495,"tz":"Asia/Bahrain"},{"id":2847736,"name":"Reutlingen","local":"Ройтлинген","country":"DE","lat":48.491,"lon":9.204,"pop":112627,"tz":"Europe/Berlin"},{"id":5043473,"name":"Rochester","local":"Рочестер","country":"US","lat":44.022,"lon":-92.47,"pop":112225,"tz":"America/Chicago"},{"id":3451668,"name":"Resende","local":"Резенди","country":"BR","lat":-22.469,"lon":-44.447,"pop":111514,"tz":"America/Sao_Paulo"},{"id":4722625,"name":"Richardson","local":"Ричардсон","country":"US","lat":32.948,"lon":-96.73,"pop":110815,"tz":"America/Chicago"},{"id":5387428,"name":"Richmond","local":"Ричмонд","country":"US","lat":37.936,"lon":-122.348,"pop":109708,"tz":"America/Los_Angeles"},{"id":3191648,"name":"Rijeka","local":"Риека","country":"HR","lat":45.327,"lon":14.442,"pop":107964,"tz":"Europe/Zagreb"},{"id":1607017,"name":"Rayong","local":"Районг","country":"TH","lat":12.681,"lon":101.258,"pop":106737,"tz":"Asia/Bangkok"},{"id":1258044,"name":"Roorkee","local":"Рурки","country":"IN","lat":29.866,"lon":77.891,"pop":103894,"tz":"Asia/Kolkata"},{"id":3111933,"name":"Reus","local":"Реус","country":"ES","lat":41.156,"lon":1.107,"pop":103477,"tz":"Europe/Madrid"},{"id":5387288,"name":"Rialto","local":"Риальто","country":"US","lat":34.106,"lon":-117.37,"pop":103132,"tz":"America/Los_Angeles"},{"id":508751,"name":"Ryazanskiy","local":"Рязанский","country":"RU","lat":55.733,"lon":37.767,"pop":101000,"tz":"Europe/Moscow"},{"id":6118158,"name":"Red Deer","local":"Ред-Дир","country":"CA","lat":52.267,"lon":-113.802,"pop":100844,"tz":"America/Edmonton"},{"id":3988392,"name":"Rosarito","local":"Росарито","country":"MX","lat":32.36,"lon":-117.046,"pop":100660,"tz":"America/Tijuana"},{"id":5808189,"name":"Renton","local":"Рентон","country":"US","lat":47.483,"lon":-122.217,"pop":100242,"tz":"America/Los_Angeles"},{"id":4782167,"name":"Roanoke","local":"Роанок","country":"US","lat":37.271,"lon":-79.941,"pop":100011,"tz":"America/New_York"},{"id":2982681,"name":"Roubaix","local":"Рубе","country":"FR","lat":50.694,"lon":3.175,"pop":99507,"tz":"Europe/Paris"},{"id":3906466,"name":"Riberalta","local":"Риберальта","country":"BO","lat":-11.01,"lon":-66.053,"pop":99070,"tz":"America/La_Paz"},{"id":2639272,"name":"Rochdale","local":"Рочдейл","country":"GB","lat":53.618,"lon":-2.155,"pop":97550,"tz":"Europe/London"},{"id":502965,"name":"Ramenskoye","local":"Раменское","country":"RU","lat":55.563,"lon":38.242,"pop":96000,"tz":"Europe/Moscow"},{"id":3838859,"name":"Rio Gallegos","local":"Рио-Гальегос","country":"AR","lat":-51.625,"lon":-69.252,"pop":95796,"tz":"America/Argentina/Rio_Gallegos"},{"id":3520271,"name":"Ciudad Rio Bravo","local":"Рио-Браво","country":"MX","lat":25.985,"lon":-98.09,"pop":95647,"tz":"America/Monterrey"},{"id":1258744,"name":"Closepet","local":"Раманагарам","country":"IN","lat":12.722,"lon":77.281,"pop":95167,"tz":"Asia/Kolkata"},{"id":2511716,"name":"Roquetas de Mar","local":"Рокетас-де-Мар","country":"ES","lat":36.764,"lon":-2.615,"pop":94925,"tz":"Europe/Madrid"},{"id":4219934,"name":"Roswell","local":"Розвел","country":"US","lat":34.023,"lon":-84.362,"pop":94501,"tz":"America/New_York"},{"id":882009,"name":"Ruwa","local":"Рува","country":"ZW","lat":-17.89,"lon":31.245,"pop":94083,"tz":"Africa/Harare"},{"id":3628952,"name":"Rubio","local":"Рубио","country":"VE","lat":7.702,"lon":-72.356,"pop":93197,"tz":"America/Caracas"},{"id":668872,"name":"Ramnicu Valcea","local":"Рымнику-Вылча","country":"RO","lat":45.1,"lon":24.367,"pop":93151,"tz":"Europe/Bucharest"},{"id":2850872,"name":"Rahlstedt","local":"Ралштет","country":"DE","lat":53.602,"lon":10.157,"pop":92511,"tz":"Europe/Berlin"},{"id":1150954,"name":"Ratchaburi","local":"Ратчабури","country":"TH","lat":13.537,"lon":99.817,"pop":92448,"tz":"Asia/Bangkok"},{"id":2850174,"name":"Ratingen","local":"Ратинген","country":"DE","lat":51.297,"lon":6.849,"pop":91606,"tz":"Europe/Berlin"},{"id":5570160,"name":"Redding","local":"Реддинг","country":"US","lat":40.587,"lon":-122.392,"pop":91582,"tz":"America/Los_Angeles"},{"id":3590858,"name":"Retalhuleu","local":"Реталулеу","country":"GT","lat":14.536,"lon":-91.678,"pop":90505,"tz":"America/Guatemala"},{"id":3429594,"name":"Reconquista","local":"Реконкиста","country":"AR","lat":-29.15,"lon":-59.65,"pop":90184,"tz":"America/Argentina/Cordoba"},{"id":3839479,"name":"Rafaela","local":"Рафаэла","country":"AR","lat":-31.253,"lon":-61.491,"pop":88713,"tz":"America/Argentina/Cordoba"},{"id":5207728,"name":"Reading","local":"Рединг","country":"US","lat":40.336,"lon":-75.927,"pop":87879,"tz":"America/New_York"},{"id":5487811,"name":"Rio Rancho","local":"Рио-Ранчо","country":"US","lat":35.233,"lon":-106.664,"pop":87521,"tz":"America/Denver"},{"id":2111258,"name":"Ryugasaki","local":"Рюгасаки","country":"JP","lat":35.9,"lon":140.183,"pop":85761,"tz":"Asia/Tokyo"},{"id":5386834,"name":"Redwood City","local":"Редвуд Сити","country":"US","lat":37.485,"lon":-122.236,"pop":85288,"tz":"America/Los_Angeles"},{"id":6119518,"name":"Repentigny","local":"Репантиньи","country":"CA","lat":45.742,"lon":-73.45,"pop":84965,"tz":"America/Toronto"},{"id":2639557,"name":"Redditch","local":"Реддитч","country":"GB","lat":52.306,"lon":-1.946,"pop":84300,"tz":"Europe/London"},{"id":3628966,"name":"La Villa del Rosario","local":"Росарио","country":"VE","lat":10.326,"lon":-72.313,"pop":82766,"tz":"America/Caracas"},{"id":206047,"name":"Rutshuru","local":"Рутшуру","country":"CD","lat":-1.187,"lon":29.447,"pop":82680,"tz":"Africa/Lubumbashi"},{"id":668954,"name":"Resita","local":"Решица","country":"RO","lat":45.301,"lon":21.889,"pop":81228,"tz":"Europe/Bucharest"},{"id":2151437,"name":"Rockhampton","local":"Рокхемптон","country":"AU","lat":-23.38,"lon":150.506,"pop":81021,"tz":"Australia/Brisbane"},{"id":3169561,"name":"Ravenna","local":"Равенна","country":"IT","lat":44.413,"lon":12.201,"pop":80868,"tz":"Europe/Rome"},{"id":502018,"name":"Reutov","local":"Реутов","country":"RU","lat":55.763,"lon":37.863,"pop":78370,"tz":"Europe/Moscow"},{"id":5268249,"name":"Racine","local":"Расин","country":"US","lat":42.726,"lon":-87.783,"pop":77742,"tz":"America/Chicago"},{"id":2747930,"name":"Roosendaal","local":"Розендаль","country":"NL","lat":51.531,"lon":4.465,"pop":77725,"tz":"Europe/Amsterdam"},{"id":2982235,"name":"Rueil-Malmaison","local":"Рюэй-Мальмезон","country":"FR","lat":48.877,"lon":2.19,"pop":76616,"tz":"Europe/Paris"},{"id":2847645,"name":"Rheine","local":"Райн","country":"DE","lat":52.285,"lon":7.441,"pop":76491,"tz":"Europe/Berlin"},{"id":293768,"name":"Ramla","local":"Рамла","country":"IL","lat":31.926,"lon":34.864,"pop":76246,"tz":"Asia/Jerusalem"},{"id":1258338,"name":"Ratnagiri","local":"Ратнагири","country":"IN","lat":16.992,"lon":73.31,"pop":76229,"tz":"Asia/Kolkata"},{"id":3353383,"name":"Rundu","local":"Рунду","country":"NA","lat":-17.918,"lon":19.773,"pop":75180,"tz":"Africa/Windhoek"},{"id":2523650,"name":"Ragusa","local":"Рагуза","country":"IT","lat":36.926,"lon":14.724,"pop":74251,"tz":"Europe/Rome"},{"id":5768233,"name":"Rapid City","local":"Рапид-Сити","country":"US","lat":44.081,"lon":-103.231,"pop":73569,"tz":"America/Denver"},{"id":5007402,"name":"Rochester Hills","local":"Рочестер-Хилс","country":"US","lat":42.658,"lon":-83.15,"pop":73424,"tz":"America/Detroit"},{"id":2638978,"name":"Rugby","local":"Рагби","country":"GB","lat":52.371,"lon":-1.264,"pop":73150,"tz":"Europe/London"},{"id":3111294,"name":"Rubi","local":"Руби","country":"ES","lat":41.492,"lon":2.033,"pop":72987,"tz":"Europe/Madrid"},{"id":3451152,"name":"Rio do Sul","local":"Риу-ду-Сул","country":"BR","lat":-27.214,"lon":-49.643,"pop":72587,"tz":"America/Sao_Paulo"},{"id":4170156,"name":"Riverview","local":"Ривервью","country":"US","lat":27.866,"lon":-82.326,"pop":71050,"tz":"America/New_York"},{"id":5386754,"name":"Redlands","local":"Редлендс","country":"US","lat":34.056,"lon":-117.183,"pop":71035,"tz":"America/Los_Angeles"},{"id":5385941,"name":"Rancho Cordova","local":"Ранчо Кордова","country":"US","lat":38.589,"lon":-121.303,"pop":71017,"tz":"America/Los_Angeles"},{"id":2639022,"name":"Royal Tunbridge Wells","local":"Ројал Танбриџ Велс","country":"GB","lat":51.133,"lon":0.263,"pop":68910,"tz":"Europe/London"},{"id":5386785,"name":"Redondo Beach","local":"Редондо-Бич","country":"US","lat":33.849,"lon":-118.388,"pop":68166,"tz":"America/Los_Angeles"},{"id":668732,"name":"Roman","local":"Роман","country":"RO","lat":46.921,"lon":26.926,"pop":67819,"tz":"Europe/Bucharest"},{"id":4367175,"name":"Rockville","local":"Роквилл","country":"US","lat":39.084,"lon":-77.153,"pop":66980,"tz":"America/New_York"},{"id":3991043,"name":"Ramos Arizpe","local":"Рамос-Ариспе","country":"MX","lat":25.539,"lon":-100.947,"pop":66554,"tz":"America/Monterrey"},{"id":1258128,"name":"Rishikesh","local":"Ришикеш","country":"IN","lat":30.108,"lon":78.293,"pop":66390,"tz":"Asia/Kolkata"},{"id":2042645,"name":"Rajin","local":"Радзин","country":"KP","lat":42.256,"lon":130.283,"pop":66224,"tz":"Asia/Pyongyang"},{"id":6241325,"name":"Rotorua","local":"Роторуа","country":"NZ","lat":-38.139,"lon":176.245,"pop":65901,"tz":"Pacific/Auckland"},{"id":2633485,"name":"Wrexham","local":"Рексем","country":"GB","lat":53.047,"lon":-2.991,"pop":65692,"tz":"Europe/London"},{"id":638936,"name":"Rovaniemi","local":"Рованиеми","country":"FI","lat":66.499,"lon":25.689,"pop":65670,"tz":"Europe/Helsinki"},{"id":1258740,"name":"Ramanathapuram","local":"Раманатхапурама","country":"IN","lat":9.372,"lon":78.831,"pop":65314,"tz":"Asia/Kolkata"},{"id":622794,"name":"Rechytsa","local":"Речица","country":"BY","lat":52.362,"lon":30.392,"pop":65213,"tz":"Europe/Minsk"},{"id":1185236,"name":"Raipur","local":"Райпур","country":"BD","lat":23.039,"lon":90.768,"pop":64652,"tz":"Asia/Dhaka"},{"id":3440781,"name":"Rivera","local":"Ривера","country":"UY","lat":-30.905,"lon":-55.551,"pop":64631,"tz":"America/Montevideo"},{"id":501215,"name":"Rossosh'","local":"Россошь","country":"RU","lat":51.121,"lon":38.512,"pop":64323,"tz":"Europe/Moscow"},{"id":4128894,"name":"Rogers","local":"Роджерс","country":"US","lat":36.332,"lon":-94.119,"pop":63159,"tz":"America/Chicago"},{"id":2638960,"name":"Runcorn","local":"Ранкорн","country":"GB","lat":53.342,"lon":-2.731,"pop":62872,"tz":"Europe/London"},{"id":2615006,"name":"Randers","local":"Рандерс","country":"DK","lat":56.461,"lon":10.036,"pop":62802,"tz":"Europe/Copenhagen"},{"id":499717,"name":"Rzhev","local":"Ржев","country":"RU","lat":56.263,"lon":34.329,"pop":62246,"tz":"Europe/Moscow"},{"id":501231,"name":"Rossosh'","local":"Россошь","country":"RU","lat":50.196,"lon":39.566,"pop":62000,"tz":"Europe/Moscow"},{"id":502011,"name":"Revda","local":"Ревда","country":"RU","lat":56.802,"lon":59.938,"pop":61785,"tz":"Asia/Yekaterinburg"},{"id":1258352,"name":"Rath","local":"Рата","country":"IN","lat":25.595,"lon":79.567,"pop":61728,"tz":"Asia/Kolkata"},{"id":5388319,"name":"Rocklin","local":"Роклин","country":"US","lat":38.791,"lon":-121.236,"pop":61213,"tz":"America/Los_Angeles"},{"id":5808079,"name":"Redmond","local":"Редмонд","country":"US","lat":47.674,"lon":-122.122,"pop":60598,"tz":"America/Los_Angeles"},{"id":2844988,"name":"Rosenheim","local":"Розенхайм","country":"DE","lat":47.856,"lon":12.122,"pop":60167,"tz":"Europe/Berlin"},{"id":2467815,"name":"Rades","local":"Радес","country":"TN","lat":36.769,"lon":10.275,"pop":59998,"tz":"Africa/Tunis"},{"id":2842884,"name":"Ruesselsheim am Main","local":"Рюссельсхайм","country":"DE","lat":49.99,"lon":8.423,"pop":59730,"tz":"Europe/Berlin"},{"id":2639447,"name":"Rhondda","local":"Ронда","country":"GB","lat":51.659,"lon":-3.449,"pop":59450,"tz":"Europe/London"},{"id":5007804,"name":"Royal Oak","local":"Ройал-Ок","country":"US","lat":42.489,"lon":-83.145,"pop":59008,"tz":"America/Detroit"},{"id":3087584,"name":"Raciborz","local":"Ратибор","country":"PL","lat":50.092,"lon":18.219,"pop":58464,"tz":"Europe/Warsaw"},{"id":4781530,"name":"Reston","local":"Рестон","country":"US","lat":38.969,"lon":-77.341,"pop":58404,"tz":"America/New_York"},{"id":302355,"name":"Reyhanli","local":"Рейханлы","country":"TR","lat":36.268,"lon":36.567,"pop":56995,"tz":"Europe/Istanbul"},{"id":501283,"name":"Roslavl'","local":"Рославль","country":"RU","lat":53.954,"lon":32.864,"pop":56971,"tz":"Europe/Moscow"},{"id":400666,"name":"Rodos","local":"Родос","country":"GR","lat":36.436,"lon":28.222,"pop":56128,"tz":"Europe/Athens"},{"id":2787889,"name":"Roeselare","local":"Руселаре","country":"BE","lat":50.947,"lon":3.123,"pop":56016,"tz":"Europe/Brussels"},{"id":4488762,"name":"Rocky Mount","local":"Роки-Маунт","country":"US","lat":35.938,"lon":-77.791,"pop":55806,"tz":"America/New_York"},{"id":1258294,"name":"Raxaul","local":"Раксаул","country":"IN","lat":26.98,"lon":84.851,"pop":55536,"tz":"Asia/Kolkata"},{"id":617486,"name":"Ribnita","local":"Рыбница","country":"MD","lat":47.768,"lon":29.01,"pop":55455,"tz":"Europe/Chisinau"},{"id":695274,"name":"Rubizhne","local":"Рубежное","country":"UA","lat":49.006,"lon":38.381,"pop":55247,"tz":"Europe/Kyiv"},{"id":500019,"name":"Rybatskoye","local":"Рыбацкое","country":"RU","lat":59.839,"lon":30.499,"pop":55076,"tz":"Europe/Moscow"},{"id":5388867,"name":"Rosemead","local":"Роузмид","country":"US","lat":34.081,"lon":-118.073,"pop":54908,"tz":"America/Los_Angeles"},{"id":5808276,"name":"Richland","local":"Ричленд","country":"US","lat":46.286,"lon":-119.284,"pop":54248,"tz":"America/Los_Angeles"},{"id":4832294,"name":"Revere","local":"Ревир","country":"US","lat":42.408,"lon":-71.012,"pop":53422,"tz":"America/New_York"},{"id":3838854,"name":"Rio Grande","local":"Рио-Гранде","country":"AR","lat":-53.788,"lon":-67.71,"pop":52681,"tz":"America/Argentina/Ushuaia"},{"id":2639506,"name":"Reigate","local":"Райгейт","country":"GB","lat":51.237,"lon":-0.206,"pop":52123,"tz":"Europe/London"},{"id":2614481,"name":"Roskilde","local":"Роскилле","country":"DK","lat":55.642,"lon":12.08,"pop":51916,"tz":"Europe/Copenhagen"},{"id":1258201,"name":"Repalle","local":"Репалле","country":"IN","lat":16.018,"lon":80.83,"pop":50866,"tz":"Asia/Kolkata"},{"id":3168843,"name":"Rovigo","local":"Ровиго","country":"IT","lat":45.07,"lon":11.79,"pop":50279,"tz":"Europe/Rome"},{"id":1161983,"name":"Rawalakot","local":"Равалакот","country":"PK","lat":33.858,"lon":73.76,"pop":50000,"tz":"Asia/Karachi"},{"id":2735083,"name":"Rio Tinto","local":"Риу-Тинту","country":"PT","lat":41.179,"lon":-8.56,"pop":49966,"tz":"Europe/Lisbon"},{"id":5006917,"name":"Redford","local":"Редфорд","country":"US","lat":42.383,"lon":-83.297,"pop":49936,"tz":"America/Detroit"},{"id":616629,"name":"Hrazdan","local":"Раздан","country":"AM","lat":40.517,"lon":44.756,"pop":49500,"tz":"Asia/Yerevan"},{"id":5386082,"name":"Rancho Santa Margarita","local":"Ранчо Санта Маргарита","country":"US","lat":33.641,"lon":-117.603,"pop":49324,"tz":"America/Los_Angeles"},{"id":500299,"name":"Ruzayevka","local":"Рузаевка","country":"RU","lat":54.06,"lon":44.949,"pop":49311,"tz":"Europe/Moscow"},{"id":5389126,"name":"Rowland Heights","local":"Ровланд Хајтс","country":"US","lat":33.976,"lon":-117.905,"pop":48993,"tz":"America/Los_Angeles"},{"id":2849802,"name":"Ravensburg","local":"Равенсбург","country":"DE","lat":47.782,"lon":9.611,"pop":48825,"tz":"Europe/Berlin"},{"id":3169231,"name":"Rivoli","local":"Риволи","country":"IT","lat":45.071,"lon":7.515,"pop":48629,"tz":"Europe/Rome"},{"id":5488441,"name":"Roswell","local":"Розуэлл","country":"US","lat":33.394,"lon":-104.525,"pop":48544,"tz":"America/Denver"},{"id":2850257,"name":"Rastatt","local":"Раштатт","country":"DE","lat":48.859,"lon":8.21,"pop":47906,"tz":"Europe/Berlin"},{"id":1228730,"name":"Ratnapura","local":"Ратнапуры","country":"LK","lat":6.686,"lon":80.404,"pop":47832,"tz":"Asia/Colombo"},{"id":1167031,"name":"Ratodero","local":"Ратодеро","country":"PK","lat":27.802,"lon":68.289,"pop":47819,"tz":"Asia/Karachi"},{"id":1540356,"name":"Raduzhny","local":"Радужный","country":"RU","lat":62.096,"lon":77.475,"pop":47679,"tz":"Asia/Yekaterinburg"},{"id":5007655,"name":"Roseville","local":"Розвелл","country":"US","lat":42.497,"lon":-82.937,"pop":47637,"tz":"America/Detroit"},{"id":293783,"name":"Ramat HaSharon","local":"Рамат-ха-Шарон","country":"IL","lat":32.146,"lon":34.839,"pop":47245,"tz":"Asia/Jerusalem"},{"id":201463,"name":"Rwamagana","local":"Рвамагана","country":"RW","lat":-1.949,"lon":30.435,"pop":47203,"tz":"Africa/Kigali"},{"id":3169447,"name":"Rho","local":"Ро","country":"IT","lat":45.532,"lon":9.04,"pop":47086,"tz":"Europe/Rome"},{"id":2847690,"name":"Rheda-Wiedenbrueck","local":"Ред-Виденбрюк","country":"DE","lat":51.85,"lon":8.3,"pop":46123,"tz":"Europe/Berlin"},{"id":502793,"name":"Rasskazovo","local":"Рассказово","country":"RU","lat":52.664,"lon":41.889,"pop":45957,"tz":"Europe/Moscow"},{"id":695379,"name":"Rovenky","local":"Ровеньки","country":"UA","lat":48.083,"lon":39.378,"pop":45514,"tz":"Europe/Kyiv"},{"id":2748172,"name":"Ridderkerk","local":"Риддеркерк","country":"NL","lat":51.873,"lon":4.603,"pop":45189,"tz":"Europe/Amsterdam"},{"id":2748000,"name":"Roermond","local":"Рурмонда","country":"NL","lat":51.194,"lon":5.987,"pop":44975,"tz":"Europe/Amsterdam"},{"id":2483936,"name":"Ras el Oued","local":"Рас-эль-Уэд","country":"DZ","lat":35.944,"lon":5.031,"pop":44947,"tz":"Africa/Algiers"},{"id":1258698,"name":"Rameswaram","local":"Рамешварам","country":"IN","lat":9.289,"lon":79.313,"pop":44856,"tz":"Asia/Kolkata"},{"id":3086706,"name":"Rumia","local":"Румя","country":"PL","lat":54.571,"lon":18.388,"pop":44791,"tz":"Europe/Warsaw"},{"id":3087497,"name":"Radomsko","local":"Радомско","country":"PL","lat":51.067,"lon":19.445,"pop":44700,"tz":"Europe/Warsaw"},{"id":500886,"name":"Rtishchevo","local":"Ртищево","country":"RU","lat":52.26,"lon":43.787,"pop":44013,"tz":"Europe/Saratov"},{"id":5133640,"name":"Rego Park","local":"Риго-Парк","country":"US","lat":40.726,"lon":-73.853,"pop":43925,"tz":"America/New_York"},{"id":282239,"name":"Ramallah","local":"Рамалла","country":"PS","lat":31.9,"lon":35.204,"pop":43880,"tz":"Asia/Hebron"},{"id":3336893,"name":"Rodgau","local":"Родгау","country":"DE","lat":50.026,"lon":8.886,"pop":43315,"tz":"Europe/Berlin"},{"id":5386035,"name":"Rancho Palos Verdes","local":"Ранчо Палос Вердес","country":"US","lat":33.744,"lon":-118.387,"pop":42732,"tz":"America/Los_Angeles"},{"id":2639524,"name":"Redruth","local":"Редрът","country":"GB","lat":50.233,"lon":-5.224,"pop":42690,"tz":"Europe/London"},{"id":4723406,"name":"Rockwall","local":"Роквол","country":"US","lat":32.931,"lon":-96.46,"pop":42566,"tz":"America/Chicago"},{"id":5388564,"name":"Rohnert Park","local":"Ронерт Парк","country":"US","lat":38.34,"lon":-122.701,"pop":42407,"tz":"America/Los_Angeles"},{"id":6354895,"name":"Rimouski","local":"Римуски","country":"CA","lat":48.449,"lon":-68.524,"pop":42240,"tz":"America/Toronto"},{"id":5780557,"name":"Riverton","local":"Ривертон","country":"US","lat":40.522,"lon":-111.939,"pop":41900,"tz":"America/Denver"},{"id":2982757,"name":"Rosny-sous-Bois","local":"Рони-су-Буа","country":"FR","lat":48.87,"lon":2.499,"pop":41627,"tz":"Europe/Paris"},{"id":1258864,"name":"Rajgir","local":"Раджгир","country":"IN","lat":25.028,"lon":85.421,"pop":41587,"tz":"Asia/Kolkata"},{"id":1629380,"name":"Ruteng","local":"Рутенг","country":"ID","lat":-8.611,"lon":120.464,"pop":41533,"tz":"Asia/Makassar"},{"id":882599,"name":"Redcliff","local":"Рэдклифф","country":"ZW","lat":-19.033,"lon":29.783,"pop":41526,"tz":"Africa/Harare"},{"id":2614600,"name":"Rodovre","local":"Редовре","country":"DK","lat":55.681,"lon":12.454,"pop":40652,"tz":"Europe/Copenhagen"},{"id":3520274,"name":"Rio Blanco","local":"Рио-Бланко","country":"MX","lat":18.83,"lon":-97.156,"pop":40611,"tz":"America/Mexico_City"},{"id":2983362,"name":"Roanne","local":"Роанн","country":"FR","lat":46.036,"lon":4.068,"pop":39840,"tz":"Europe/Paris"},{"id":4908068,"name":"Romeoville","local":"Ромиовил","country":"US","lat":41.648,"lon":-88.09,"pop":39719,"tz":"America/Chicago"},{"id":1607001,"name":"Roi Et","local":"Рои Эт","country":"TH","lat":16.057,"lon":103.653,"pop":39328,"tz":"Asia/Bangkok"},{"id":2983770,"name":"Reze","local":"Реза","country":"FR","lat":47.191,"lon":-1.569,"pop":39248,"tz":"Europe/Paris"},{"id":3169412,"name":"Rieti","local":"Риети","country":"IT","lat":42.405,"lon":12.857,"pop":39068,"tz":"Europe/Rome"},{"id":639734,"name":"Rauma","local":"Раума","country":"FI","lat":61.127,"lon":21.511,"pop":38909,"tz":"Europe/Helsinki"},{"id":2511852,"name":"Rincon de la Victoria","local":"Ринкон-де-ла-Виктория","country":"ES","lat":36.717,"lon":-4.276,"pop":38666,"tz":"Europe/Madrid"},{"id":3429576,"name":"Retiro","local":"Ретиро","country":"AR","lat":-34.583,"lon":-58.383,"pop":38635,"tz":"America/Argentina/Buenos_Aires"},{"id":2639660,"name":"Ramsgate","local":"Рамсгейт","country":"GB","lat":51.336,"lon":1.418,"pop":38624,"tz":"Europe/London"},{"id":4907907,"name":"Rock Island","local":"Рок-Айленд","country":"US","lat":41.509,"lon":-90.579,"pop":38620,"tz":"America/Chicago"},{"id":668873,"name":"Ramnicu Sarat","local":"Рымнику-Сэрат","country":"RO","lat":45.383,"lon":27.05,"pop":38526,"tz":"Europe/Bucharest"},{"id":3111605,"name":"Ripollet","local":"Рипольет","country":"ES","lat":41.497,"lon":2.157,"pop":38347,"tz":"Europe/Madrid"},{"id":695464,"name":"Romny","local":"Ромни","country":"UA","lat":50.751,"lon":33.475,"pop":38305,"tz":"Europe/Kyiv"},{"id":3873441,"name":"Rengo","local":"Ренго","country":"CL","lat":-34.406,"lon":-70.858,"pop":38100,"tz":"America/Santiago"},{"id":5780802,"name":"Roy","local":"Рой","country":"US","lat":41.162,"lon":-112.026,"pop":37964,"tz":"America/Denver"},{"id":1258111,"name":"Robertsganj","local":"Робертсгандж","country":"IN","lat":24.689,"lon":83.068,"pop":37855,"tz":"Asia/Kolkata"},{"id":4170617,"name":"Royal Palm Beach","local":"Ројал Пам Бич","country":"US","lat":26.708,"lon":-80.231,"pop":37633,"tz":"America/New_York"},{"id":3451241,"name":"Rio Brilhante","local":"Риу-Брильянти","country":"BR","lat":-21.802,"lon":-54.546,"pop":37601,"tz":"America/Campo_Grande"},{"id":2638946,"name":"Rushden","local":"Ръшдън","country":"GB","lat":52.289,"lon":-0.602,"pop":37584,"tz":"Europe/London"},{"id":3451242,"name":"Rio Branco do Sul","local":"Риу-Бранку-ду-Сул","country":"BR","lat":-25.19,"lon":-49.314,"pop":37558,"tz":"America/Sao_Paulo"},{"id":1493648,"name":"Rezh","local":"Реж","country":"RU","lat":57.371,"lon":61.404,"pop":37420,"tz":"Asia/Yekaterinburg"},{"id":2639563,"name":"Redcar","local":"Редкар","country":"GB","lat":54.617,"lon":-1.06,"pop":37203,"tz":"Europe/London"},{"id":4522411,"name":"Reynoldsburg","local":"Рејнолдсберг","country":"US","lat":39.955,"lon":-82.812,"pop":37158,"tz":"America/New_York"},{"id":2846939,"name":"Riesa","local":"Риза","country":"DE","lat":51.308,"lon":13.292,"pop":37156,"tz":"Europe/Berlin"},{"id":1258347,"name":"Ratia","local":"Ратиа","country":"IN","lat":29.69,"lon":75.577,"pop":37152,"tz":"Asia/Kolkata"},{"id":1166933,"name":"Renala Khurd","local":"Ренала-Кхерд","country":"PK","lat":30.879,"lon":73.599,"pop":37111,"tz":"Asia/Karachi"},{"id":501187,"name":"Rostokino","local":"Ростокино","country":"RU","lat":55.833,"lon":37.667,"pop":37000,"tz":"Europe/Moscow"},{"id":2511730,"name":"Ronda","local":"Ронда","country":"ES","lat":36.742,"lon":-5.167,"pop":36827,"tz":"Europe/Madrid"},{"id":3450873,"name":"Rosario do Sul","local":"Росарио-ду-Сул","country":"BR","lat":-30.258,"lon":-54.914,"pop":36630,"tz":"America/Sao_Paulo"},{"id":4219762,"name":"Rome","local":"Ром","country":"US","lat":34.257,"lon":-85.165,"pop":36323,"tz":"America/New_York"},{"id":1691911,"name":"Ramon","local":"Рамон","country":"PH","lat":16.784,"lon":121.535,"pop":36307,"tz":"Asia/Manila"},{"id":5043193,"name":"Richfield","local":"Ричфилд","country":"US","lat":44.883,"lon":-93.283,"pop":36216,"tz":"America/Chicago"},{"id":4170005,"name":"Richmond West","local":"Ричмонд-Уэст","country":"US","lat":25.61,"lon":-80.43,"pop":35884,"tz":"America/New_York"},{"id":4263681,"name":"Richmond","local":"Ричмонд","country":"US","lat":39.829,"lon":-84.89,"pop":35854,"tz":"America/Indiana/Indianapolis"},{"id":5043799,"name":"Roseville","local":"Розвелл","country":"US","lat":45.006,"lon":-93.157,"pop":35580,"tz":"America/Chicago"},{"id":4723914,"name":"Rosenberg","local":"Розенберг","country":"US","lat":29.557,"lon":-95.809,"pop":35510,"tz":"America/Chicago"},{"id":2983011,"name":"Romans-sur-Isere","local":"Роман-сюр-Изер","country":"FR","lat":45.05,"lon":5.066,"pop":35002,"tz":"Europe/Paris"},{"id":13580121,"name":"Rayduzhnyi Masyv","local":"Райдужний масив","country":"UA","lat":50.486,"lon":30.586,"pop":35000,"tz":"Europe/Kyiv"},{"id":1265830,"name":"Rairangpur","local":"Райрангпур","country":"IN","lat":22.267,"lon":86.174,"pop":34929,"tz":"Asia/Kolkata"},{"id":1512955,"name":"Rishton","local":"Риштан","country":"UZ","lat":40.357,"lon":71.285,"pop":34800,"tz":"Asia/Tashkent"},{"id":2659099,"name":"Rapperswil","local":"Рапперсвиль","country":"CH","lat":47.226,"lon":8.822,"pop":34776,"tz":"Europe/Zurich"},{"id":3451102,"name":"Rio Pardo","local":"Рио-Пардо","country":"BR","lat":-29.99,"lon":-52.378,"pop":34654,"tz":"America/Sao_Paulo"},{"id":5389213,"name":"Rubidoux","local":"Рубиду","country":"US","lat":33.996,"lon":-117.406,"pop":34280,"tz":"America/Los_Angeles"},{"id":3353540,"name":"Rehoboth","local":"Рехобот","country":"NA","lat":-23.317,"lon":17.09,"pop":34185,"tz":"Africa/Windhoek"},{"id":3168854,"name":"Rovereto","local":"Роверето","country":"IT","lat":45.89,"lon":11.041,"pop":34152,"tz":"Europe/Rome"},{"id":3542455,"name":"Remedios","local":"Ремедиос","country":"CU","lat":22.495,"lon":-79.545,"pop":34108,"tz":"America/Havana"},{"id":4170174,"name":"Riviera Beach","local":"Ривијера Бич","country":"US","lat":26.775,"lon":-80.058,"pop":34005,"tz":"America/New_York"},{"id":2356228,"name":"Reo","local":"Рео","country":"BF","lat":12.32,"lon":-2.471,"pop":33894,"tz":"Africa/Ouagadougou"},{"id":7091912,"name":"Ban Ratsada","local":"Ратсада","country":"TH","lat":7.91,"lon":98.402,"pop":33534,"tz":"Asia/Bangkok"},{"id":4305974,"name":"Richmond","local":"Ричмонд","country":"US","lat":37.748,"lon":-84.295,"pop":33533,"tz":"America/New_York"},{"id":1258229,"name":"Remuna","local":"Ремуна","country":"IN","lat":21.528,"lon":86.872,"pop":33378,"tz":"Asia/Kolkata"},{"id":4218165,"name":"Redan","local":"Редан","country":"US","lat":33.745,"lon":-84.132,"pop":33015,"tz":"America/New_York"},{"id":3169424,"name":"Riccione","local":"Риччоне","country":"IT","lat":43.999,"lon":12.657,"pop":32744,"tz":"Europe/Rome"},{"id":2851077,"name":"Radebeul","local":"Радебойль","country":"DE","lat":51.107,"lon":13.66,"pop":32643,"tz":"Europe/Berlin"},{"id":5134295,"name":"Rome","local":"Рим","country":"US","lat":43.213,"lon":-75.456,"pop":32573,"tz":"America/New_York"},{"id":2847639,"name":"Rheinfelden","local":"Райнфельден","country":"DE","lat":47.56,"lon":7.787,"pop":32535,"tz":"Europe/Berlin"},{"id":254352,"name":"Rethymno","local":"Ретимнон","country":"GR","lat":35.366,"lon":24.482,"pop":32468,"tz":"Europe/Athens"},{"id":4366476,"name":"Randallstown","local":"Рандалстаун","country":"US","lat":39.367,"lon":-76.795,"pop":32430,"tz":"America/New_York"},{"id":3191429,"name":"Ruma","local":"Рума","country":"RS","lat":45.008,"lon":19.822,"pop":32229,"tz":"Europe/Belgrade"},{"id":4948403,"name":"Randolph","local":"Рандольф","country":"US","lat":42.163,"lon":-71.041,"pop":32112,"tz":"America/New_York"},{"id":367927,"name":"Rumbek","local":"Румбеке","country":"SS","lat":6.806,"lon":29.677,"pop":32083,"tz":"Africa/Juba"},{"id":622739,"name":"Rahachow","local":"Рогачев","country":"BY","lat":53.093,"lon":30.049,"pop":31821,"tz":"Europe/Minsk"},{"id":2638926,"name":"Rutherglen","local":"Рутерглен","country":"GB","lat":55.829,"lon":-4.214,"pop":31180,"tz":"Europe/London"},{"id":501183,"name":"Rostov","local":"Ростов Великий","country":"RU","lat":57.191,"lon":39.413,"pop":31039,"tz":"Europe/Moscow"},{"id":3451448,"name":"Riacho de Santana","local":"Риашу-ди-Сантана","country":"BR","lat":-13.609,"lon":-42.939,"pop":30711,"tz":"America/Bahia"},{"id":2850954,"name":"Radolfzell","local":"Радольфцелль","country":"DE","lat":47.742,"lon":8.971,"pop":30096,"tz":"Europe/Berlin"},{"id":5091872,"name":"Rochester","local":"Рочестер","country":"US","lat":43.305,"lon":-70.976,"pop":30038,"tz":"America/New_York"},{"id":3617052,"name":"Rivas","local":"Ривас","country":"NI","lat":11.44,"lon":-85.827,"pop":30000,"tz":"America/Managua"},{"id":5103055,"name":"Rahway","local":"Рахвзй","country":"US","lat":40.608,"lon":-74.278,"pop":29508,"tz":"America/New_York"},{"id":2983276,"name":"Rochefort","local":"Рошфор","country":"FR","lat":45.943,"lon":-0.968,"pop":29427,"tz":"Europe/Paris"},{"id":4405188,"name":"Raytown","local":"Рејтаун","country":"US","lat":39.009,"lon":-94.464,"pop":29401,"tz":"America/Chicago"},{"id":3112154,"name":"Redondela","local":"Редондела","country":"ES","lat":42.283,"lon":-8.61,"pop":29194,"tz":"Europe/Madrid"},{"id":4129397,"name":"Russellville","local":"Раселвил","country":"US","lat":35.278,"lon":-93.134,"pop":29166,"tz":"America/Chicago"},{"id":727696,"name":"Razgrad","local":"Разград","country":"BG","lat":43.533,"lon":26.518,"pop":28931,"tz":"Europe/Sofia"},{"id":2511700,"name":"Rota","local":"Рота","country":"ES","lat":36.624,"lon":-6.36,"pop":28848,"tz":"Europe/Madrid"},{"id":5387494,"name":"Ridgecrest","local":"Риджкрест","country":"US","lat":35.622,"lon":-117.671,"pop":28780,"tz":"America/Los_Angeles"},{"id":2846843,"name":"Rietberg","local":"Ритберг","country":"DE","lat":51.809,"lon":8.428,"pop":28672,"tz":"Europe/Berlin"},{"id":2639268,"name":"Rochester","local":"Рочестер","country":"GB","lat":51.388,"lon":0.505,"pop":28671,"tz":"Europe/London"},{"id":5747882,"name":"Redmond","local":"Редмонд","country":"US","lat":44.273,"lon":-121.174,"pop":28654,"tz":"America/Los_Angeles"},{"id":639406,"name":"Riihimaeki","local":"Рийхимяки","country":"FI","lat":60.738,"lon":24.777,"pop":28610,"tz":"Europe/Helsinki"},{"id":2983154,"name":"Rodez","local":"Родез","country":"FR","lat":44.353,"lon":2.573,"pop":28337,"tz":"Europe/Paris"},{"id":2848245,"name":"Rendsburg","local":"Рендсбург","country":"DE","lat":54.302,"lon":9.672,"pop":28323,"tz":"Europe/Berlin"},{"id":2983536,"name":"Rillieux-la-Pape","local":"Риллиэукс-ла-Пап","country":"FR","lat":45.817,"lon":4.9,"pop":28076,"tz":"Europe/Paris"},{"id":3988651,"name":"Rincon de Romos","local":"Ринкон-де-Ромос","country":"MX","lat":22.228,"lon":-102.322,"pop":27988,"tz":"America/Mexico_City"},{"id":501730,"name":"Rodniki","local":"Родники","country":"RU","lat":57.105,"lon":41.736,"pop":27681,"tz":"Europe/Moscow"},{"id":5605242,"name":"Rexburg","local":"Рексберг","country":"US","lat":43.826,"lon":-111.79,"pop":27663,"tz":"America/Boise"},{"id":13580324,"name":"Rusanivka","local":"Русанівка","country":"UA","lat":50.44,"lon":30.597,"pop":27400,"tz":"Europe/Kyiv"},{"id":2850213,"name":"Rathenow","local":"Ратенов","country":"DE","lat":52.607,"lon":12.337,"pop":27115,"tz":"Europe/Berlin"},{"id":3169602,"name":"Rapallo","local":"Рапалло","country":"IT","lat":44.35,"lon":9.228,"pop":26993,"tz":"Europe/Rome"},{"id":639853,"name":"Raseborg","local":"Расеборг","country":"FI","lat":59.977,"lon":23.44,"pop":26982,"tz":"Europe/Helsinki"},{"id":2844862,"name":"Roesrath","local":"Рёсрат","country":"DE","lat":50.896,"lon":7.182,"pop":26868,"tz":"Europe/Berlin"},{"id":2984513,"name":"Rambouillet","local":"Рамбуйе","country":"FR","lat":48.644,"lon":1.83,"pop":26674,"tz":"Europe/Paris"},{"id":3057789,"name":"Ruzomberok","local":"Ружомберок","country":"SK","lat":49.075,"lon":19.308,"pop":26671,"tz":"Europe/Bratislava"},{"id":2128382,"name":"Rumoi","local":"Румои","country":"JP","lat":43.934,"lon":141.643,"pop":26454,"tz":"Asia/Tokyo"},{"id":456202,"name":"Rezekne","local":"Резекне","country":"LV","lat":56.51,"lon":27.34,"pop":26429,"tz":"Europe/Riga"},{"id":3839307,"name":"Rawson","local":"Роусон","country":"AR","lat":-43.3,"lon":-65.106,"pop":26335,"tz":"America/Argentina/Catamarca"},{"id":2847666,"name":"Rheinbach","local":"Райнбах","country":"DE","lat":50.626,"lon":6.949,"pop":26262,"tz":"Europe/Berlin"},{"id":1691606,"name":"Rizal","local":"Ризал","country":"PH","lat":15.712,"lon":121.106,"pop":26201,"tz":"Asia/Manila"},{"id":2638911,"name":"Ryde","local":"Райд","country":"GB","lat":50.73,"lon":-1.162,"pop":26082,"tz":"Europe/London"},{"id":4366647,"name":"Reisterstown","local":"Рајстерстаун","country":"US","lat":39.47,"lon":-76.832,"pop":25968,"tz":"America/New_York"},{"id":2639409,"name":"Rhyl","local":"Рил","country":"GB","lat":53.319,"lon":-3.492,"pop":25874,"tz":"Europe/London"},{"id":640124,"name":"Raisio","local":"Райсио","country":"FI","lat":60.486,"lon":22.169,"pop":25846,"tz":"Europe/Helsinki"},{"id":5042561,"name":"Ramsey","local":"Рамси","country":"US","lat":45.261,"lon":-93.45,"pop":25828,"tz":"America/Chicago"},{"id":8469295,"name":"Randolph","local":"Рандольф Тауншип","country":"US","lat":40.848,"lon":-74.581,"pop":25734,"tz":"America/New_York"},{"id":2846523,"name":"Rinteln","local":"Ринтельн","country":"DE","lat":52.186,"lon":9.079,"pop":25626,"tz":"Europe/Berlin"},{"id":5103269,"name":"Ridgewood","local":"Риджвуд","country":"US","lat":40.979,"lon":-74.117,"pop":25621,"tz":"America/New_York"},{"id":5386984,"name":"Reedley","local":"Ридли","country":"US","lat":36.596,"lon":-119.45,"pop":25569,"tz":"America/Los_Angeles"},{"id":3440777,"name":"Rocha","local":"Роча","country":"UY","lat":-34.48,"lon":-54.331,"pop":25515,"tz":"America/Montevideo"},{"id":2843636,"name":"Rottweil","local":"Ротвайль","country":"DE","lat":48.168,"lon":8.627,"pop":25510,"tz":"Europe/Berlin"},{"id":2843355,"name":"Rudolstadt","local":"Рудольштадт","country":"DE","lat":50.72,"lon":11.34,"pop":25476,"tz":"Europe/Berlin"},{"id":2848845,"name":"Reinbek","local":"Райнбек","country":"DE","lat":53.517,"lon":10.249,"pop":25261,"tz":"Europe/Berlin"},{"id":1258477,"name":"Rania","local":"Рания","country":"IN","lat":29.525,"lon":74.837,"pop":25123,"tz":"Asia/Kolkata"},{"id":2844265,"name":"Roth","local":"Рота","country":"DE","lat":49.248,"lon":11.091,"pop":25083,"tz":"Europe/Berlin"},{"id":2983440,"name":"Ris-Orangis","local":"Риз Оранжис","country":"FR","lat":48.651,"lon":2.414,"pop":25082,"tz":"Europe/Paris"},{"id":786565,"name":"Radovis","local":"Радовиш","country":"MK","lat":41.638,"lon":22.465,"pop":24984,"tz":"Europe/Skopje"},{"id":4522586,"name":"Riverside","local":"Риверсайд","country":"US","lat":39.78,"lon":-84.124,"pop":24972,"tz":"America/New_York"},{"id":4170358,"name":"Rockledge","local":"Рокледж","country":"US","lat":28.351,"lon":-80.725,"pop":24926,"tz":"America/New_York"},{"id":2983026,"name":"Romainville","local":"Роменвиль","country":"FR","lat":48.885,"lon":2.435,"pop":24772,"tz":"Europe/Paris"},{"id":4948462,"name":"Reading","local":"Рединг","country":"US","lat":42.526,"lon":-71.095,"pop":24747,"tz":"America/New_York"},{"id":1150965,"name":"Ranong","local":"Ранонг","country":"TH","lat":9.966,"lon":98.635,"pop":24561,"tz":"Asia/Bangkok"},{"id":1607983,"name":"Pathum Thani","local":"Ратхум Тхани","country":"TH","lat":14.013,"lon":100.53,"pop":24547,"tz":"Asia/Bangkok"},{"id":7538520,"name":"Rocinha","local":"Росинья","country":"BR","lat":-22.989,"lon":-43.249,"pop":24543,"tz":"America/Sao_Paulo"},{"id":4443296,"name":"Ridgeland","local":"Риджланд","country":"US","lat":32.428,"lon":-90.132,"pop":24351,"tz":"America/Chicago"},{"id":2787769,"name":"Ronse","local":"Ронсе","country":"BE","lat":50.746,"lon":3.6,"pop":24204,"tz":"Europe/Brussels"},{"id":5134203,"name":"Rockville Centre","local":"Роквил Центер","country":"US","lat":40.659,"lon":-73.641,"pop":24201,"tz":"America/New_York"},{"id":4908052,"name":"Rolling Meadows","local":"Ролинг Медоус","country":"US","lat":42.084,"lon":-88.013,"pop":24190,"tz":"America/Chicago"},{"id":5387844,"name":"Riverbank","local":"Ривербанк","country":"US","lat":37.736,"lon":-120.935,"pop":24122,"tz":"America/Los_Angeles"},{"id":2850995,"name":"Radevormwald","local":"Радеформвальд","country":"DE","lat":51.202,"lon":7.36,"pop":24100,"tz":"Europe/Berlin"},{"id":2638977,"name":"Rugeley","local":"Ръджли","country":"GB","lat":52.759,"lon":-1.937,"pop":24033,"tz":"Europe/London"},{"id":5836898,"name":"Rock Springs","local":"Рок-Спрингс","country":"US","lat":41.587,"lon":-109.203,"pop":23962,"tz":"America/Denver"},{"id":3168770,"name":"Ruvo di Puglia","local":"Руво-ди-Пулья","country":"IT","lat":41.118,"lon":16.484,"pop":23938,"tz":"Europe/Rome"},{"id":669289,"name":"Radauti","local":"Рэдэуци","country":"RO","lat":47.85,"lon":25.917,"pop":23822,"tz":"Europe/Bucharest"},{"id":1258203,"name":"Reoti","local":"Реоти","country":"IN","lat":25.851,"lon":84.378,"pop":23819,"tz":"Asia/Kolkata"},{"id":2017487,"name":"Raychikhinsk","local":"Райчихинск","country":"RU","lat":49.796,"lon":129.403,"pop":23745,"tz":"Asia/Yakutsk"},{"id":640276,"name":"Raahe","local":"Рахе","country":"FI","lat":64.683,"lon":24.483,"pop":23566,"tz":"Europe/Helsinki"},{"id":6128577,"name":"Rouyn-Noranda","local":"Руэн-Норанда","country":"CA","lat":48.237,"lon":-79.023,"pop":23504,"tz":"America/Toronto"},{"id":5007531,"name":"Romulus","local":"Ромул","country":"US","lat":42.222,"lon":-83.397,"pop":23417,"tz":"America/Detroit"},{"id":2845222,"name":"Ronnenberg","local":"Ронненберг","country":"DE","lat":52.319,"lon":9.655,"pop":23416,"tz":"Europe/Berlin"},{"id":5043779,"name":"Rosemount","local":"Росмаунт","country":"US","lat":44.739,"lon":-93.126,"pop":23413,"tz":"America/Chicago"},{"id":1258553,"name":"Ramtek","local":"Рамтек","country":"IN","lat":21.396,"lon":79.327,"pop":23404,"tz":"Asia/Kolkata"},{"id":1258061,"name":"Ron","local":"Рона","country":"IN","lat":15.699,"lon":75.734,"pop":23311,"tz":"Asia/Kolkata"},{"id":4178775,"name":"Wright","local":"Райт","country":"US","lat":30.456,"lon":-86.638,"pop":23127,"tz":"America/Chicago"},{"id":2614764,"name":"Ringsted","local":"Рингстед","country":"DK","lat":55.443,"lon":11.79,"pop":23086,"tz":"Europe/Copenhagen"},{"id":92002,"name":"Ruwandiz","local":"Равандуз","country":"IQ","lat":36.611,"lon":44.522,"pop":22943,"tz":"Asia/Baghdad"},{"id":5388873,"name":"Rosemont","local":"Роземонт","country":"US","lat":38.552,"lon":-121.365,"pop":22681,"tz":"America/Los_Angeles"},{"id":2849548,"name":"Rees","local":"Рес","country":"DE","lat":51.763,"lon":6.398,"pop":22544,"tz":"Europe/Berlin"},{"id":4305504,"name":"Radcliff","local":"Радклиф","country":"US","lat":37.84,"lon":-85.949,"pop":22387,"tz":"America/New_York"},{"id":4339348,"name":"Ruston","local":"Растон","country":"US","lat":32.523,"lon":-92.638,"pop":22340,"tz":"America/Chicago"},{"id":2844437,"name":"Rotenburg","local":"Ротенбург","country":"DE","lat":53.11,"lon":9.404,"pop":22139,"tz":"Europe/Berlin"},{"id":5749352,"name":"Roseburg","local":"Росберг","country":"US","lat":43.217,"lon":-123.342,"pop":22114,"tz":"America/Los_Angeles"},{"id":500047,"name":"Ryazhsk","local":"Ряжск","country":"RU","lat":53.706,"lon":40.08,"pop":22041,"tz":"Europe/Moscow"},{"id":2639495,"name":"Renfrew","local":"Ренфру","country":"GB","lat":55.872,"lon":-4.393,"pop":22010,"tz":"Europe/London"},{"id":501320,"name":"Roshal'","local":"Рошаль","country":"RU","lat":55.669,"lon":39.875,"pop":21951,"tz":"Europe/Moscow"},{"id":760503,"name":"Rembertow","local":"Рембертув","country":"PL","lat":52.261,"lon":21.164,"pop":21893,"tz":"Europe/Warsaw"},{"id":3086531,"name":"Rydultowy","local":"Рыдултовы","country":"PL","lat":50.059,"lon":18.417,"pop":21887,"tz":"Europe/Warsaw"},{"id":5103500,"name":"Roselle","local":"Розел","country":"US","lat":40.652,"lon":-74.259,"pop":21670,"tz":"America/New_York"},{"id":2787989,"name":"Rixensart","local":"Риксенсарт","country":"BE","lat":50.712,"lon":4.525,"pop":21616,"tz":"Europe/Brussels"},{"id":723736,"name":"Rimavska Sobota","local":"Римавска Собота","country":"SK","lat":48.383,"lon":20.022,"pop":21434,"tz":"Europe/Bratislava"},{"id":3087307,"name":"Rawicz","local":"Равич","country":"PL","lat":51.609,"lon":16.859,"pop":21380,"tz":"Europe/Warsaw"},{"id":3272941,"name":"Riedstadt","local":"Ридштадт","country":"DE","lat":49.834,"lon":8.496,"pop":21362,"tz":"Europe/Berlin"},{"id":2639325,"name":"Ripley","local":"Рипли","country":"GB","lat":53.033,"lon":-1.4,"pop":21097,"tz":"Europe/London"},{"id":2983074,"name":"Roissy-en-Brie","local":"Руасси-ан-Бри","country":"FR","lat":48.792,"lon":2.647,"pop":20933,"tz":"Europe/Paris"},{"id":2659070,"name":"Renens","local":"Ренан","country":"CH","lat":46.54,"lon":6.588,"pop":20927,"tz":"Europe/Zurich"},{"id":6122758,"name":"Riverview","local":"Ривервью","country":"CA","lat":46.055,"lon":-64.816,"pop":20584,"tz":"America/Moncton"},{"id":2511752,"name":"Rojales","local":"Рохалес","country":"ES","lat":38.088,"lon":-0.725,"pop":20510,"tz":"Europe/Madrid"},{"id":2538027,"name":"Recani","local":"Рисани","country":"MA","lat":31.283,"lon":-4.266,"pop":20469,"tz":"Africa/Casablanca"},{"id":6558039,"name":"Rheinstetten","local":"Райнштеттен","country":"DE","lat":48.968,"lon":8.307,"pop":20378,"tz":"Europe/Berlin"},{"id":5168491,"name":"Rocky River","local":"Роки-Ривер","country":"US","lat":41.476,"lon":-81.839,"pop":20376,"tz":"America/New_York"},{"id":4405180,"name":"Raymore","local":"Реймор","country":"US","lat":38.802,"lon":-94.453,"pop":20374,"tz":"America/Chicago"},{"id":5385793,"name":"Ramona","local":"Рамона","country":"US","lat":33.042,"lon":-116.868,"pop":20292,"tz":"America/Los_Angeles"},{"id":2511930,"name":"Requena","local":"Рекена","country":"ES","lat":39.488,"lon":-1.1,"pop":20227,"tz":"Europe/Madrid"},{"id":4782864,"name":"Rose Hill","local":"Роуз Хил","country":"US","lat":38.789,"lon":-77.113,"pop":20226,"tz":"America/New_York"},{"id":2983489,"name":"Riom","local":"Рьом","country":"FR","lat":45.894,"lon":3.113,"pop":20142,"tz":"Europe/Paris"},{"id":502540,"name":"Rayevskiy","local":"Раевский","country":"RU","lat":54.064,"lon":54.934,"pop":20060,"tz":"Asia/Yekaterinburg"},{"id":2850253,"name":"Rastede","local":"Растеде","country":"DE","lat":53.245,"lon":8.197,"pop":20046,"tz":"Europe/Berlin"},{"id":4406282,"name":"Rolla","local":"Ролла","country":"US","lat":37.951,"lon":-91.771,"pop":20019,"tz":"America/Chicago"},{"id":2748371,"name":"Raalte","local":"Раалт","country":"NL","lat":52.386,"lon":6.275,"pop":20015,"tz":"Europe/Amsterdam"},{"id":1258292,"name":"Raya","local":"Рая","country":"IN","lat":27.556,"lon":77.79,"pop":20008,"tz":"Asia/Kolkata"},{"id":3206590,"name":"Riehen","local":"Риен","country":"CH","lat":47.579,"lon":7.647,"pop":20000,"tz":"Europe/Zurich"},{"id":500843,"name":"Rublevo","local":"Рублёво","country":"RU","lat":55.785,"lon":37.355,"pop":20000,"tz":"Europe/Moscow"},{"id":2982967,"name":"Romorantin-Lanthenay","local":"Роморантен-Лантене","country":"FR","lat":47.367,"lon":1.75,"pop":19953,"tz":"Europe/Paris"},{"id":2183472,"name":"Richmond","local":"Ричмонд","country":"NZ","lat":-41.333,"lon":173.183,"pop":19700,"tz":"Pacific/Auckland"},{"id":8184212,"name":"Rahat","local":"Рахат","country":"IL","lat":31.395,"lon":34.757,"pop":19586,"tz":"Asia/Jerusalem"},{"id":3111348,"name":"Roses","local":"Росас","country":"ES","lat":42.262,"lon":3.177,"pop":19319,"tz":"Europe/Madrid"},{"id":4367372,"name":"Rosedale","local":"Роуздейл","country":"US","lat":39.32,"lon":-76.516,"pop":19257,"tz":"America/New_York"},{"id":6698588,"name":"Reinach","local":"Райнах","country":"CH","lat":47.497,"lon":7.592,"pop":19216,"tz":"Europe/Zurich"},{"id":3541999,"name":"Rodas","local":"Родас","country":"CU","lat":22.342,"lon":-80.556,"pop":19212,"tz":"America/Havana"},{"id":499975,"name":"Rybnoye","local":"Рыбное","country":"RU","lat":54.725,"lon":39.513,"pop":19159,"tz":"Europe/Moscow"},{"id":2847689,"name":"Rhede","local":"Реде","country":"DE","lat":51.835,"lon":6.696,"pop":19140,"tz":"Europe/Berlin"},{"id":5134316,"name":"Ronkonkoma","local":"Ронконкома","country":"US","lat":40.821,"lon":-73.143,"pop":19082,"tz":"America/New_York"},{"id":2982343,"name":"Royan","local":"Руайан","country":"FR","lat":45.628,"lon":-1.032,"pop":19017,"tz":"Europe/Paris"},{"id":2851079,"name":"Radeberg","local":"Радеберг","country":"DE","lat":51.111,"lon":13.912,"pop":18747,"tz":"Europe/Berlin"},{"id":5103580,"name":"Rutherford","local":"Радерфорд","country":"US","lat":40.826,"lon":-74.107,"pop":18690,"tz":"America/New_York"},{"id":6354897,"name":"Riviere-du-Loup","local":"Ривьер-дю-Лу","country":"CA","lat":47.827,"lon":-69.542,"pop":18586,"tz":"America/Toronto"},{"id":12129128,"name":"Reni","local":"Рени","country":"UA","lat":45.454,"lon":28.277,"pop":18530,"tz":"Europe/Kyiv"},{"id":2982944,"name":"Ronchin","local":"Роншен","country":"FR","lat":50.599,"lon":3.091,"pop":18331,"tz":"Europe/Paris"},{"id":2748178,"name":"Rhoon","local":"Рон","country":"NL","lat":51.858,"lon":4.422,"pop":18250,"tz":"Europe/Amsterdam"},{"id":5388735,"name":"Rosamond","local":"Розамонд","country":"US","lat":34.864,"lon":-118.163,"pop":18150,"tz":"America/Los_Angeles"},{"id":3087281,"name":"Reda","local":"Реда","country":"PL","lat":54.605,"lon":18.347,"pop":18116,"tz":"Europe/Warsaw"},{"id":5386015,"name":"Rancho Mirage","local":"Ранчо Мираж","country":"US","lat":33.74,"lon":-116.413,"pop":18083,"tz":"America/Los_Angeles"},{"id":2748185,"name":"Rhenen","local":"Ренен","country":"NL","lat":51.959,"lon":5.568,"pop":18061,"tz":"Europe/Amsterdam"},{"id":4948924,"name":"Rockland","local":"Роклэнд","country":"US","lat":42.131,"lon":-70.916,"pop":17982,"tz":"America/New_York"},{"id":3451232,"name":"Rio Claro","local":"Риу-Клару","country":"BR","lat":-22.723,"lon":-44.136,"pop":17950,"tz":"America/Sao_Paulo"},{"id":695344,"name":"Rozdilna","local":"Раздельная","country":"UA","lat":46.855,"lon":30.071,"pop":17858,"tz":"Europe/Kyiv"},{"id":2848762,"name":"Reinheim","local":"Райнхайм","country":"DE","lat":49.829,"lon":8.836,"pop":17841,"tz":"Europe/Berlin"},{"id":7117885,"name":"Raduzhnyy","local":"Радужный","country":"RU","lat":56.004,"lon":40.339,"pop":17811,"tz":"Europe/Moscow"},{"id":760584,"name":"Rawa Mazowiecka","local":"Рава-Мазовецкая","country":"PL","lat":51.764,"lon":20.255,"pop":17770,"tz":"Europe/Warsaw"},{"id":1493687,"name":"Reftinskiy","local":"Рефтинский","country":"RU","lat":57.09,"lon":61.677,"pop":17673,"tz":"Asia/Yekaterinburg"},{"id":2523619,"name":"Ribera","local":"Рибера","country":"IT","lat":37.498,"lon":13.267,"pop":17664,"tz":"Europe/Rome"},{"id":1259026,"name":"Rahimatpur","local":"Рахиматпур","country":"IN","lat":17.592,"lon":74.2,"pop":17633,"tz":"Asia/Kolkata"},{"id":2848175,"name":"Renningen","local":"Реннинген","country":"DE","lat":48.77,"lon":8.939,"pop":17442,"tz":"Europe/Berlin"},{"id":4780837,"name":"Radford","local":"Радфорд","country":"US","lat":37.132,"lon":-80.576,"pop":17403,"tz":"America/New_York"},{"id":2961911,"name":"Rathfarnham","local":"Ратфарнем","country":"IE","lat":53.301,"lon":-6.283,"pop":17333,"tz":"Europe/Dublin"},{"id":3066651,"name":"Roznov pod Radhostem","local":"Рожнов-под-Радгоштем","country":"CZ","lat":49.459,"lon":18.143,"pop":17238,"tz":"Europe/Prague"},{"id":3451650,"name":"Resplendor","local":"Респлендор","country":"BR","lat":-19.326,"lon":-41.255,"pop":17226,"tz":"America/Sao_Paulo"},{"id":4170688,"name":"Ruskin","local":"Раскин","country":"US","lat":27.721,"lon":-82.433,"pop":17208,"tz":"America/New_York"},{"id":3087418,"name":"Radzionkow","local":"Радзёнкув","country":"PL","lat":50.4,"lon":18.902,"pop":17167,"tz":"Europe/Warsaw"},{"id":2847524,"name":"Ribnitz-Damgarten","local":"Рибниц-Дамгартен","country":"DE","lat":54.242,"lon":12.457,"pop":17152,"tz":"Europe/Berlin"},{"id":3066878,"name":"Ricany","local":"Ржичани","country":"CZ","lat":49.992,"lon":14.654,"pop":17143,"tz":"Europe/Prague"},{"id":723713,"name":"Roznava","local":"Рожнява","country":"SK","lat":48.66,"lon":20.538,"pop":17122,"tz":"Europe/Bratislava"},{"id":2843965,"name":"Rotherbaum","local":"Ротербаум","country":"DE","lat":53.566,"lon":9.993,"pop":17114,"tz":"Europe/Berlin"},{"id":695019,"name":"Ryl'sk","local":"Рыльск","country":"RU","lat":51.571,"lon":34.683,"pop":17007,"tz":"Europe/Moscow"},{"id":2639265,"name":"Rochford","local":"Рочфорд","country":"GB","lat":51.582,"lon":0.707,"pop":16739,"tz":"Europe/London"},{"id":3086511,"name":"Rypin","local":"Рыпин","country":"PL","lat":53.066,"lon":19.409,"pop":16589,"tz":"Europe/Warsaw"},{"id":3575635,"name":"Roseau","local":"Розо","country":"DM","lat":15.302,"lon":-61.388,"pop":16571,"tz":"America/Dominica"},{"id":786341,"name":"Resen","local":"Ресен","country":"MK","lat":41.09,"lon":21.009,"pop":16539,"tz":"Europe/Skopje"},{"id":5042773,"name":"Red Wing","local":"Ред-Уинг","country":"US","lat":44.562,"lon":-92.534,"pop":16445,"tz":"America/Chicago"},{"id":2639323,"name":"Ripon","local":"Рипон","country":"GB","lat":54.136,"lon":-1.528,"pop":16363,"tz":"Europe/London"},{"id":595449,"name":"Radviliskis","local":"Радвилишкис","country":"LT","lat":55.817,"lon":23.533,"pop":16344,"tz":"Europe/Vilnius"},{"id":2848335,"name":"Remagen","local":"Ремаген","country":"DE","lat":50.579,"lon":7.227,"pop":16280,"tz":"Europe/Berlin"},{"id":5134323,"name":"Roosevelt","local":"Рузвельт","country":"US","lat":40.679,"lon":-73.589,"pop":16258,"tz":"America/New_York"},{"id":2850887,"name":"Rahden","local":"Раден","country":"DE","lat":52.434,"lon":8.613,"pop":16140,"tz":"Europe/Berlin"},{"id":2639223,"name":"Roehampton","local":"Рогемптон","country":"GB","lat":51.452,"lon":-0.244,"pop":16132,"tz":"Europe/London"},{"id":760680,"name":"Radzyn Podlaski","local":"Радзынь-Подляский","country":"PL","lat":51.783,"lon":22.617,"pop":16071,"tz":"Europe/Warsaw"},{"id":2846455,"name":"Rissen","local":"Рисен","country":"DE","lat":53.585,"lon":9.766,"pop":16051,"tz":"Europe/Berlin"},{"id":5134693,"name":"Rye","local":"Рай","country":"US","lat":40.981,"lon":-73.684,"pop":16046,"tz":"America/New_York"},{"id":4405434,"name":"Republic","local":"Репаблик","country":"US","lat":37.12,"lon":-93.48,"pop":16005,"tz":"America/Chicago"},{"id":4219001,"name":"Riverdale","local":"Ривердејл","country":"US","lat":33.573,"lon":-84.413,"pop":15989,"tz":"America/New_York"},{"id":2850235,"name":"Ratekau","local":"Ратекау","country":"DE","lat":53.946,"lon":10.731,"pop":15921,"tz":"Europe/Berlin"},{"id":2376898,"name":"Rosso","local":"Росо","country":"MR","lat":16.514,"lon":-15.805,"pop":15870,"tz":"Africa/Nouakchott"},{"id":5240509,"name":"Rutland","local":"Ратленд","country":"US","lat":43.611,"lon":-72.973,"pop":15824,"tz":"America/New_York"},{"id":2847033,"name":"Riegelsberg","local":"Ригельсберг","country":"DE","lat":49.3,"lon":6.933,"pop":15647,"tz":"Europe/Berlin"},{"id":695859,"name":"Rakhiv","local":"Рахов","country":"UA","lat":48.055,"lon":24.203,"pop":15621,"tz":"Europe/Kyiv"},{"id":502400,"name":"Razumnoye","local":"Разумное","country":"RU","lat":50.534,"lon":36.685,"pop":15529,"tz":"Europe/Moscow"},{"id":2151443,"name":"Rockdale","local":"Рокдејл","country":"AU","lat":-33.95,"lon":151.133,"pop":15436,"tz":"Australia/Sydney"},{"id":4488232,"name":"Roanoke Rapids","local":"Роаноук Рапидс","country":"US","lat":36.462,"lon":-77.654,"pop":15345,"tz":"America/New_York"},{"id":1691538,"name":"Romblon","local":"Ромблон","country":"PH","lat":12.575,"lon":122.271,"pop":15316,"tz":"Asia/Manila"},{"id":2062338,"name":"Rockingham","local":"Рокингам","country":"AU","lat":-32.277,"lon":115.73,"pop":15312,"tz":"Australia/Perth"},{"id":760343,"name":"Ropczyce","local":"Ропчице","country":"PL","lat":50.052,"lon":21.609,"pop":15279,"tz":"Europe/Warsaw"},{"id":5268986,"name":"River Falls","local":"Ривер-Фолс","country":"US","lat":44.861,"lon":-92.624,"pop":15269,"tz":"America/Chicago"},{"id":668828,"name":"Rasnov","local":"Ръшнов","country":"RO","lat":45.583,"lon":25.45,"pop":15253,"tz":"Europe/Bucharest"},{"id":695912,"name":"Radomyshl","local":"Радомышль","country":"UA","lat":50.496,"lon":29.229,"pop":15252,"tz":"Europe/Kyiv"},{"id":7302802,"name":"Rondebosch","local":"Рондебош","country":"ZA","lat":-33.963,"lon":18.476,"pop":15158,"tz":"Africa/Johannesburg"},{"id":5387749,"name":"Ripon","local":"Рипон","country":"US","lat":37.742,"lon":-121.124,"pop":15151,"tz":"America/Los_Angeles"},{"id":5387687,"name":"Rio Linda","local":"Рио Линда","country":"US","lat":38.691,"lon":-121.449,"pop":15106,"tz":"America/Los_Angeles"},{"id":5103086,"name":"Ramsey","local":"Рэмси","country":"US","lat":41.057,"lon":-74.141,"pop":15102,"tz":"America/New_York"},{"id":2787662,"name":"Rotselaar","local":"Ротселар","country":"BE","lat":50.953,"lon":4.717,"pop":15007,"tz":"Europe/Brussels"},{"id":3577430,"name":"Road Town","local":"Род-Таун","country":"VG","lat":18.427,"lon":-64.621,"pop":8449,"tz":"America/Tortola"}]