[{"id":745044,"name":"Istanbul","local":"Стамбул","country":"TR","lat":41.014,"lon":28.95,"pop":15701602,"tz":"Europe/Istanbul"},{"id":3448439,"name":"Sao Paulo","local":"Сан-Паулу","country":"BR","lat":-23.547,"lon":-46.636,"pop":12400232,"tz":"America/Sao_Paulo"},{"id":1835848,"name":"Seoul","local":"Сеул","country":"KR","lat":37.566,"lon":126.978,"pop":10349312,"tz":"Asia/Seoul"},{"id":1790630,"name":"Xi'an","local":"Сиань","country":"CN","lat":34.258,"lon":108.929,"pop":9600000,"tz":"Asia/Shanghai"},{"id":1886760,"name":"Suzhou","local":"Сучжоу","country":"CN","lat":31.304,"lon":120.595,"pop":6715559,"tz":"Asia/Shanghai"},{"id":1880252,"name":"Singapore","local":"Сингапур","country":"SG","lat":1.29,"lon":103.85,"pop":5638700,"tz":"Asia/Singapore"},{"id":2147714,"name":"Sydney","local":"Сидней","country":"AU","lat":-33.868,"lon":151.207,"pop":5557233,"tz":"Australia/Sydney"},{"id":498817,"name":"Saint Petersburg","local":"Санкт-Петербург","country":"RU","lat":59.939,"lon":30.314,"pop":5351935,"tz":"Europe/Moscow"},{"id":3871336,"name":"Santiago","local":"Сантьяго","country":"CL","lat":-33.457,"lon":-70.648,"pop":4837295,"tz":"America/Santiago"},{"id":1790645,"name":"Xiamen","local":"Сямэнь","country":"CN","lat":24.48,"lon":118.082,"pop":4617251,"tz":"Asia/Shanghai"},{"id":1255364,"name":"Surat","local":"Сурат","country":"IN","lat":21.196,"lon":72.83,"pop":4591246,"tz":"Asia/Kolkata"},{"id":1625822,"name":"Surabaya","local":"Сурабая","country":"ID","lat":-7.249,"lon":112.751,"pop":2874314,"tz":"Asia/Jakarta"},{"id":3450554,"name":"Salvador","local":"Салвадор","country":"BR","lat":-12.976,"lon":-38.491,"pop":2711840,"tz":"America/Bahia"},{"id":3492908,"name":"Santo Domingo","local":"Санто-Доминго","country":"DO","lat":18.472,"lon":-69.892,"pop":2201941,"tz":"America/Santo_Domingo"},{"id":2128295,"name":"Sapporo","local":"Саппоро","country":"JP","lat":43.067,"lon":141.35,"pop":1973832,"tz":"Asia/Tokyo"},{"id":71137,"name":"Sanaa","local":"Сана","country":"YE","lat":15.355,"lon":44.206,"pop":1937451,"tz":"Asia/Aden"},{"id":3904906,"name":"Santa Cruz de la Sierra","local":"Санта-Крус-де-ла-Сиерра","country":"BO","lat":-17.786,"lon":-63.181,"pop":1831434,"tz":"America/La_Paz"},{"id":953781,"name":"Soweto","local":"Соуэто","country":"ZA","lat":-26.268,"lon":27.858,"pop":1695047,"tz":"Africa/Johannesburg"},{"id":1788852,"name":"Xining","local":"Синин","country":"CN","lat":36.626,"lon":101.757,"pop":1677177,"tz":"Asia/Shanghai"},{"id":1627896,"name":"Semarang","local":"Семаранг","country":"ID","lat":-6.993,"lon":110.421,"pop":1653524,"tz":"Asia/Jakarta"},{"id":1793743,"name":"Suzhou","local":"Сучжоу","country":"CN","lat":33.636,"lon":116.979,"pop":1647642,"tz":"Asia/Shanghai"},{"id":4726206,"name":"San Antonio","local":"Сан-Антонио","country":"US","lat":29.424,"lon":-98.494,"pop":1526656,"tz":"America/Chicago"},{"id":2673730,"name":"Stockholm","local":"Стокгольм","country":"SE","lat":59.329,"lon":18.069,"pop":1515017,"tz":"Europe/Stockholm"},{"id":4013708,"name":"Ciudad Juarez","local":"Сьюдад-Хуарес","country":"MX","lat":31.72,"lon":-106.461,"pop":1512450,"tz":"America/Ciudad_Juarez"},{"id":3979770,"name":"Zapopan","local":"Сапопан","country":"MX","lat":20.721,"lon":-103.387,"pop":1476491,"tz":"America/Mexico_City"},{"id":5391811,"name":"San Diego","local":"Сан-Диего","country":"US","lat":32.716,"lon":-117.165,"pop":1404452,"tz":"America/Los_Angeles"},{"id":6940394,"name":"Saitama","local":"Саитама","country":"JP","lat":35.908,"lon":139.657,"pop":1324854,"tz":"Asia/Tokyo"},{"id":1790587,"name":"Xiangyang","local":"Сянъян","country":"CN","lat":32.042,"lon":112.145,"pop":1294733,"tz":"Asia/Shanghai"},{"id":10630003,"name":"Xuzhou","local":"Сюйчжоу","country":"CN","lat":34.204,"lon":117.284,"pop":1253991,"tz":"Asia/Shanghai"},{"id":3492914,"name":"Santiago de los Caballeros","local":"Сантьяго-де-лос-Кабальерос","country":"DO","lat":19.45,"lon":-70.691,"pop":1200000,"tz":"America/Santo_Domingo"},{"id":1835553,"name":"Suwon","local":"Сувон","country":"KR","lat":37.291,"lon":127.009,"pop":1191063,"tz":"Asia/Seoul"},{"id":499099,"name":"Samara","local":"Самара","country":"RU","lat":53.208,"lon":50.136,"pop":1163399,"tz":"Europe/Samara"},{"id":727011,"name":"Sofia","local":"София","country":"BG","lat":42.698,"lon":23.324,"pop":1152556,"tz":"Europe/Sofia"},{"id":2111149,"name":"Sendai","local":"Сендай","country":"JP","lat":38.267,"lon":140.867,"pop":1096704,"tz":"Asia/Tokyo"},{"id":1788572,"name":"Xinxiang","local":"Синьсян","country":"CN","lat":35.19,"lon":113.802,"pop":1047088,"tz":"Asia/Shanghai"},{"id":2322911,"name":"Sokoto","local":"Сокото","country":"NG","lat":13.063,"lon":5.243,"pop":1040000,"tz":"Africa/Lagos"},{"id":1790353,"name":"Xianyang","local":"Саньян","country":"CN","lat":34.338,"lon":108.703,"pop":1034081,"tz":"Asia/Shanghai"},{"id":1796556,"name":"Sanya","local":"Санья","country":"CN","lat":18.254,"lon":109.509,"pop":1031396,"tz":"Asia/Shanghai"},{"id":379251,"name":"Khartoum North","local":"Северный Хартум","country":"SD","lat":15.649,"lon":32.535,"pop":1012211,"tz":"Africa/Khartoum"},{"id":5392171,"name":"San Jose","local":"Сан-Хосе","country":"US","lat":37.339,"lon":-121.895,"pop":997368,"tz":"America/Los_Angeles"},{"id":1256436,"name":"Sholapur","local":"Солапур","country":"IN","lat":17.672,"lon":75.91,"pop":997281,"tz":"Asia/Kolkata"},{"id":3645528,"name":"Ciudad Guayana","local":"Сьюдад-Гуаяна","country":"VE","lat":8.351,"lon":-62.641,"pop":978202,"tz":"America/Caracas"},{"id":1166000,"name":"Sargodha","local":"Саргодха","country":"PK","lat":32.086,"lon":72.674,"pop":975886,"tz":"Asia/Karachi"},{"id":2537763,"name":"Sale","local":"Сале","country":"MA","lat":34.053,"lon":-6.798,"pop":972299,"tz":"Africa/Casablanca"},{"id":1717512,"name":"Cebu City","local":"Себу","country":"PH","lat":10.317,"lon":123.891,"pop":965332,"tz":"Asia/Manila"},{"id":1790492,"name":"Xiangtan","local":"Сянтань","country":"CN","lat":27.85,"lon":112.9,"pop":959303,"tz":"Asia/Shanghai"},{"id":1257629,"name":"Salem","local":"Салем","country":"IN","lat":11.654,"lon":78.155,"pop":917414,"tz":"Asia/Kolkata"},{"id":3388368,"name":"Sao Luis","local":"Сан-Луис","country":"BR","lat":-2.53,"lon":-44.303,"pop":917237,"tz":"America/Fortaleza"},{"id":1164909,"name":"Sialkot","local":"Сиалкот","country":"PK","lat":32.493,"lon":74.531,"pop":911817,"tz":"Asia/Karachi"},{"id":1790254,"name":"Xiaogan","local":"Сяогань","country":"CN","lat":30.927,"lon":113.922,"pop":908266,"tz":"Asia/Shanghai"},{"id":98463,"name":"Sulaymaniyah","local":"Сулеймания","country":"IQ","lat":35.565,"lon":45.433,"pop":878146,"tz":"Asia/Baghdad"},{"id":498677,"name":"Saratov","local":"Саратов","country":"RU","lat":51.54,"lon":45.99,"pop":844858,"tz":"Europe/Saratov"},{"id":1788508,"name":"Xinyu","local":"Синьюй","country":"CN","lat":27.804,"lon":114.933,"pop":839488,"tz":"Asia/Shanghai"},{"id":1629001,"name":"Samarinda","local":"Самаринда","country":"ID","lat":-0.492,"lon":117.146,"pop":831460,"tz":"Asia/Makassar"},{"id":5391959,"name":"San Francisco","local":"Сан-Франциско","country":"US","lat":37.775,"lon":-122.419,"pop":827526,"tz":"America/Los_Angeles"},{"id":1853195,"name":"Sakai","local":"Сакаи","country":"JP","lat":34.582,"lon":135.467,"pop":826161,"tz":"Asia/Tokyo"},{"id":3601782,"name":"San Pedro Sula","local":"Сан-Педро-Сула","country":"HN","lat":15.506,"lon":-88.026,"pop":801259,"tz":"America/Tegucigalpa"},{"id":1788927,"name":"Xingtai","local":"Синтай","country":"CN","lat":37.062,"lon":114.493,"pop":798770,"tz":"Asia/Shanghai"},{"id":5809844,"name":"Seattle","local":"Сиэтл","country":"US","lat":47.606,"lon":-122.332,"pop":780995,"tz":"America/Los_Angeles"},{"id":3449344,"name":"Sao Bernardo do Campo","local":"Сан-Бернардо-ду-Кампу","country":"BR","lat":-23.694,"lon":-46.565,"pop":743372,"tz":"America/Sao_Paulo"},{"id":3448636,"name":"Sao Jose dos Campos","local":"Сан-Жозе-дус-Кампус","country":"BR","lat":-23.179,"lon":-45.887,"pop":729737,"tz":"America/Sao_Paulo"},{"id":3985606,"name":"San Luis Potosi","local":"Сан-Луис-Потоси","country":"MX","lat":22.152,"lon":-100.971,"pop":722772,"tz":"America/Monterrey"},{"id":3988086,"name":"Saltillo","local":"Салтилло","country":"MX","lat":25.426,"lon":-100.98,"pop":709671,"tz":"America/Monterrey"},{"id":8504423,"name":"Subang Jaya","local":"Субанг Джая","country":"MY","lat":3.044,"lon":101.581,"pop":708296,"tz":"Asia/Kuala_Lumpur"},{"id":359796,"name":"Suez","local":"Суэц","country":"EG","lat":29.974,"lon":32.526,"pop":699541,"tz":"Africa/Cairo"},{"id":3191281,"name":"Sarajevo","local":"Сараево","country":"BA","lat":43.849,"lon":18.356,"pop":696731,"tz":"Europe/Sarajevo"},{"id":1851717,"name":"Shizuoka","local":"Сидзуока","country":"JP","lat":34.983,"lon":138.383,"pop":693389,"tz":"Asia/Tokyo"},{"id":3447399,"name":"Sorocaba","local":"Сорокаба","country":"BR","lat":-23.502,"lon":-47.458,"pop":687357,"tz":"America/Sao_Paulo"},{"id":3104324,"name":"Zaragoza","local":"Сарагоса","country":"ES","lat":41.656,"lon":-0.877,"pop":686986,"tz":"Europe/Madrid"},{"id":2510911,"name":"Sevilla","local":"Севилья","country":"ES","lat":37.383,"lon":-5.973,"pop":686741,"tz":"Europe/Madrid"},{"id":1796669,"name":"Sanmenxia","local":"Саньмэнься","country":"CN","lat":34.781,"lon":111.193,"pop":669307,"tz":"Asia/Shanghai"},{"id":3449701,"name":"Santo Andre","local":"Санту-Андре","country":"BR","lat":-23.664,"lon":-46.538,"pop":662373,"tz":"America/Sao_Paulo"},{"id":1793900,"name":"Suining","local":"Суйнин","country":"CN","lat":30.508,"lon":105.573,"pop":656760,"tz":"Asia/Shanghai"},{"id":3667905,"name":"Soacha","local":"Соачу","country":"CO","lat":4.579,"lon":-74.217,"pop":655025,"tz":"America/Bogota"},{"id":1793879,"name":"Suizhou","local":"Суйчжоу","country":"CN","lat":31.711,"lon":113.363,"pop":618582,"tz":"Asia/Shanghai"},{"id":1796663,"name":"Sanming","local":"Саньмин","country":"CN","lat":26.249,"lon":117.619,"pop":602166,"tz":"Asia/Shanghai"},{"id":1216265,"name":"Samarkand","local":"Самарканд","country":"UZ","lat":39.655,"lon":66.964,"pop":595200,"tz":"Asia/Samarkand"},{"id":6159905,"name":"Surrey","local":"Суррей","country":"CA","lat":49.106,"lon":-122.825,"pop":568322,"tz":"America/Vancouver"},{"id":1164408,"name":"Sukkur","local":"Суккур","country":"PK","lat":27.703,"lon":68.859,"pop":563851,"tz":"Asia/Karachi"},{"id":3536729,"name":"Santiago de Cuba","local":"Сантьяго-де-Куба","country":"CU","lat":20.023,"lon":-75.822,"pop":555865,"tz":"America/Havana"},{"id":2034714,"name":"Siping","local":"Сыпин","country":"CN","lat":43.161,"lon":124.378,"pop":555609,"tz":"Asia/Shanghai"},{"id":3836873,"name":"San Miguel de Tucuman","local":"Сан-Мигель-де-Тукуман","country":"AR","lat":-26.816,"lon":-65.211,"pop":548866,"tz":"America/Argentina/Tucuman"},{"id":694423,"name":"Sevastopol","local":"Севастополь","country":"UA","lat":44.608,"lon":33.521,"pop":547820,"tz":"Europe/Simferopol"},{"id":1788450,"name":"Xinzhou","local":"Синьчжоу","country":"CN","lat":38.409,"lon":112.733,"pop":544683,"tz":"Asia/Shanghai"},{"id":1166548,"name":"Sahiwal","local":"Сахивал","country":"PK","lat":30.666,"lon":73.102,"pop":538344,"tz":"Asia/Karachi"},{"id":1625812,"name":"Surakarta","local":"Суракарте","country":"ID","lat":-7.556,"lon":110.832,"pop":526870,"tz":"Asia/Jakarta"},{"id":3583361,"name":"San Salvador","local":"Сан-Сальвадор","country":"SV","lat":13.689,"lon":-89.187,"pop":525990,"tz":"America/El_Salvador"},{"id":5389489,"name":"Sacramento","local":"Сакраменто","country":"US","lat":38.582,"lon":-121.494,"pop":524943,"tz":"America/Los_Angeles"},{"id":3838233,"name":"Salta","local":"Сальта","country":"AR","lat":-24.806,"lon":-65.42,"pop":520683,"tz":"America/Argentina/Salta"},{"id":3447779,"name":"Serra","local":"Серра","country":"BR","lat":-20.129,"lon":-40.308,"pop":520653,"tz":"America/Sao_Paulo"},{"id":1256525,"name":"Siliguri","local":"Силигури","country":"IN","lat":26.71,"lon":88.429,"pop":515574,"tz":"Asia/Kolkata"},{"id":1790396,"name":"Xianning","local":"Сяньнин","country":"CN","lat":29.843,"lon":114.322,"pop":512517,"tz":"Asia/Shanghai"},{"id":3668605,"name":"Santa Marta","local":"Санта Марта","country":"CO","lat":11.239,"lon":-74.194,"pop":499192,"tz":"America/Bogota"},{"id":3532624,"name":"Ciudad Lopez Mateos","local":"Сьюдад-Лопес-Матеус","country":"MX","lat":19.558,"lon":-99.257,"pop":489160,"tz":"America/Mexico_City"},{"id":1789647,"name":"Xichang","local":"Сичан","country":"CN","lat":27.896,"lon":102.263,"pop":481796,"tz":"Asia/Shanghai"},{"id":3448639,"name":"Sao Jose do Rio Preto","local":"Сан-Жозе-ду-Риу-Прету","country":"BR","lat":-20.82,"lon":-49.379,"pop":480393,"tz":"America/Sao_Paulo"},{"id":785842,"name":"Skopje","local":"Скопье","country":"MK","lat":41.996,"lon":21.431,"pop":474889,"tz":"Europe/Skopje"},{"id":3448877,"name":"Sao Joao de Meriti","local":"Сан-Жуан-ди-Мерити","country":"BR","lat":-22.804,"lon":-43.372,"pop":466536,"tz":"America/Sao_Paulo"},{"id":3651297,"name":"Santo Domingo de los Colorados","local":"Санто-Доминго-де-лос-Колорадос","country":"EC","lat":-0.254,"lon":-79.176,"pop":458580,"tz":"America/Guayaquil"},{"id":1675151,"name":"Hsinchu","local":"Синьчжу","country":"TW","lat":24.804,"lon":120.969,"pop":453536,"tz":"Asia/Taipei"},{"id":1734052,"name":"Sandakan","local":"Сандакан","country":"MY","lat":5.84,"lon":118.118,"pop":439050,"tz":"Asia/Kuching"},{"id":3449433,"name":"Santos","local":"Сантос","country":"BR","lat":-23.961,"lon":-46.334,"pop":433656,"tz":"America/Sao_Paulo"},{"id":1279945,"name":"Jiuquan","local":"Сучжоу","country":"CN","lat":39.743,"lon":98.517,"pop":428346,"tz":"Asia/Shanghai"},{"id":4568127,"name":"San Juan","local":"Сан-Хуан","country":"PR","lat":18.466,"lon":-66.106,"pop":418140,"tz":"America/Puerto_Rico"},{"id":3645532,"name":"Ciudad Bolivar","local":"Сьюдад-Боливар","country":"VE","lat":8.124,"lon":-63.547,"pop":412619,"tz":"America/Caracas"},{"id":3985241,"name":"San Nicolas de los Garza","local":"Сан Николас де лос Гарза","country":"MX","lat":25.742,"lon":-100.302,"pop":412199,"tz":"America/Monterrey"},{"id":6722148,"name":"Saltivka","local":"Салтівка","country":"UA","lat":50.022,"lon":36.349,"pop":400000,"tz":"Europe/Kyiv"},{"id":740264,"name":"Samsun","local":"Самсун","country":"TR","lat":41.28,"lon":36.336,"pop":394050,"tz":"Europe/Istanbul"},{"id":145531,"name":"Saurimo","local":"Сауримо","country":"AO","lat":-9.661,"lon":20.392,"pop":393000,"tz":"Africa/Luanda"},{"id":3836277,"name":"Santa Fe","local":"Санта-Фе","country":"AR","lat":-31.649,"lon":-60.709,"pop":391164,"tz":"America/Argentina/Cordoba"},{"id":2282006,"name":"San-Pedro","local":"Сан-Педро","country":"CI","lat":4.749,"lon":-6.636,"pop":390654,"tz":"Africa/Abidjan"},{"id":1606590,"name":"Samut Prakan","local":"Самутпракан","country":"TH","lat":13.598,"lon":100.597,"pop":388920,"tz":"Asia/Bangkok"},{"id":1851483,"name":"Suita","local":"Суита","country":"JP","lat":34.761,"lon":135.516,"pop":385567,"tz":"Asia/Tokyo"},{"id":1734810,"name":"Seremban","local":"Серембан","country":"MY","lat":2.73,"lon":101.938,"pop":372917,"tz":"Asia/Kuala_Lumpur"},{"id":1647003,"name":"Cibinong","local":"Сибинонге","country":"ID","lat":-6.482,"lon":106.854,"pop":363424,"tz":"Asia/Jakarta"},{"id":1626381,"name":"Sukabumi","local":"Сукабуми","country":"ID","lat":-6.918,"lon":106.927,"pop":360644,"tz":"Asia/Jakarta"},{"id":584923,"name":"Sumqayit","local":"Сумгаит","country":"AZ","lat":40.59,"lon":49.669,"pop":358675,"tz":"Asia/Baku"},{"id":1689395,"name":"San Jose del Monte","local":"Сан-Хосе-дель-Монте","country":"PH","lat":14.814,"lon":121.045,"pop":357828,"tz":"Asia/Manila"},{"id":2451185,"name":"Sikasso","local":"Сикасо","country":"ML","lat":11.318,"lon":-5.667,"pop":349324,"tz":"Africa/Bamako"},{"id":117574,"name":"Sanandaj","local":"Сенендедж","country":"IR","lat":35.315,"lon":46.999,"pop":349176,"tz":"Asia/Tehran"},{"id":13535747,"name":"Svyatoshyn","local":"Святошин","country":"UA","lat":50.463,"lon":30.346,"pop":340399,"tz":"Europe/Kyiv"},{"id":4014875,"name":"Celaya","local":"Селая","country":"MX","lat":20.524,"lon":-100.816,"pop":340387,"tz":"America/Mexico_City"},{"id":2537881,"name":"Safi","local":"Сафи","country":"MA","lat":32.299,"lon":-9.237,"pop":336883,"tz":"Africa/Casablanca"},{"id":693805,"name":"Simferopol","local":"Симферополь","country":"UA","lat":44.957,"lon":34.111,"pop":336460,"tz":"Europe/Simferopol"},{"id":3621849,"name":"San Jose","local":"Сан-Хосе","country":"CR","lat":9.934,"lon":-84.085,"pop":335007,"tz":"America/Costa_Rica"},{"id":3530580,"name":"Ciudad Victoria","local":"Сьюдад-Виктория","country":"MX","lat":23.741,"lon":-99.144,"pop":332100,"tz":"America/Monterrey"},{"id":491687,"name":"Smolensk","local":"Смоленск","country":"RU","lat":54.778,"lon":32.051,"pop":330025,"tz":"Europe/Moscow"},{"id":3448136,"name":"Sao Vicente","local":"Сан-Висенти","country":"BR","lat":-23.963,"lon":-46.392,"pop":329911,"tz":"America/Sao_Paulo"},{"id":3583096,"name":"Soyapango","local":"Сояпанго","country":"SV","lat":13.71,"lon":-89.14,"pop":329708,"tz":"America/El_Salvador"},{"id":1787824,"name":"Tongshan","local":"Сюйчжоу","country":"CN","lat":34.18,"lon":117.157,"pop":329661,"tz":"Asia/Shanghai"},{"id":3448632,"name":"Sao Jose dos Pinhais","local":"Сан-Жозе-дус-Пиньяйс","country":"BR","lat":-25.53,"lon":-49.208,"pop":329628,"tz":"America/Sao_Paulo"},{"id":4013704,"name":"Ciudad Obregon","local":"Сьюдад-Обрегон","country":"MX","lat":27.486,"lon":-109.941,"pop":329404,"tz":"America/Hermosillo"},{"id":491422,"name":"Sochi","local":"Сочи","country":"RU","lat":43.597,"lon":39.725,"pop":327608,"tz":"Europe/Moscow"},{"id":498698,"name":"Saransk","local":"Саранск","country":"RU","lat":54.185,"lon":45.172,"pop":318841,"tz":"Europe/Moscow"},{"id":734077,"name":"Thessaloniki","local":"Салоники","country":"GR","lat":40.641,"lon":22.935,"pop":317778,"tz":"Europe/Athens"},{"id":5392900,"name":"Santa Ana","local":"Санта-Ана","country":"US","lat":33.746,"lon":-117.868,"pop":310227,"tz":"America/Los_Angeles"},{"id":1870883,"name":"Sariwon-si","local":"Саривоне","country":"KP","lat":38.507,"lon":125.756,"pop":310100,"tz":"Asia/Pyongyang"},{"id":3447212,"name":"Suzano","local":"Сузано","country":"BR","lat":-23.543,"lon":-46.311,"pop":307429,"tz":"America/Sao_Paulo"},{"id":5399020,"name":"Stockton","local":"Стоктон","country":"US","lat":37.958,"lon":-121.291,"pop":305658,"tz":"America/Los_Angeles"},{"id":149703,"name":"Sumbawanga","local":"Сумбаванга","country":"TZ","lat":-7.967,"lon":31.617,"pop":303986,"tz":"Africa/Dar_es_Salaam"},{"id":5045360,"name":"Saint Paul","local":"Сент-Пол","country":"US","lat":44.944,"lon":-93.093,"pop":303176,"tz":"America/Chicago"},{"id":3439101,"name":"Ciudad del Este","local":"Сьюдад-дель-Эсте","country":"PY","lat":-25.504,"lon":-54.651,"pop":301815,"tz":"America/Asuncion"},{"id":897045,"name":"Solwezi","local":"Солвези","country":"ZM","lat":-12.169,"lon":26.389,"pop":301370,"tz":"Africa/Lusaka"},{"id":1490624,"name":"Surgut","local":"Сургут","country":"RU","lat":61.258,"lon":73.418,"pop":300367,"tz":"Asia/Yekaterinburg"},{"id":2636432,"name":"Swansea","local":"Суонси","country":"GB","lat":51.621,"lon":-3.943,"pop":300352,"tz":"Europe/London"},{"id":1688830,"name":"San Pablo","local":"Сан-Пабло","country":"PH","lat":14.068,"lon":121.326,"pop":300166,"tz":"Asia/Manila"},{"id":2637433,"name":"Southend-on-Sea","local":"Саутенд-он-Си","country":"GB","lat":51.538,"lon":0.714,"pop":295310,"tz":"Europe/London"},{"id":1519422,"name":"Semey","local":"Семей","country":"KZ","lat":50.421,"lon":80.25,"pop":292780,"tz":"Asia/Almaty"},{"id":3628473,"name":"San Cristobal","local":"Сан-Кристобаль","country":"VE","lat":7.766,"lon":-72.236,"pop":289852,"tz":"America/Caracas"},{"id":752850,"name":"Adapazari","local":"Сакарья","country":"TR","lat":40.781,"lon":30.403,"pop":286787,"tz":"Europe/Istanbul"},{"id":877401,"name":"Songea","local":"Сонгеа","country":"TZ","lat":-10.683,"lon":35.65,"pop":286285,"tz":"Africa/Dar_es_Salaam"},{"id":3447259,"name":"Sumare","local":"Сумаре","country":"BR","lat":-22.822,"lon":-47.267,"pop":286211,"tz":"America/Sao_Paulo"},{"id":1349452,"name":"Savar","local":"Савар","country":"BD","lat":23.849,"lon":90.25,"pop":286008,"tz":"Asia/Dhaka"},{"id":3450083,"name":"Santa Maria","local":"Санта-Мария","country":"BR","lat":-29.684,"lon":-53.807,"pop":283677,"tz":"America/Sao_Paulo"},{"id":3522732,"name":"Nicolas Romero","local":"Сиудад Николас Ромеро","country":"MX","lat":19.642,"lon":-99.307,"pop":281799,"tz":"America/Mexico_City"},{"id":2467454,"name":"Sfax","local":"Сфвкс","country":"TN","lat":34.741,"lon":10.76,"pop":280566,"tz":"Africa/Tunis"},{"id":13546520,"name":"Solomyansk","local":"Солом'янський район","country":"UA","lat":50.428,"lon":30.452,"pop":280400,"tz":"Europe/Kyiv"},{"id":4407066,"name":"St. Louis","local":"Сент-Луис","country":"US","lat":38.627,"lon":-90.198,"pop":279695,"tz":"America/Chicago"},{"id":3667983,"name":"Sincelejo","local":"Синселехо","country":"CO","lat":9.305,"lon":-75.391,"pop":277773,"tz":"America/Bogota"},{"id":2973783,"name":"Strasbourg","local":"Страсбург","country":"FR","lat":48.584,"lon":7.746,"pop":274845,"tz":"Europe/Paris"},{"id":1257845,"name":"Saugor","local":"Сагар","country":"IN","lat":23.839,"lon":78.739,"pop":274556,"tz":"Asia/Kolkata"},{"id":3448744,"name":"Sao Jose","local":"Сан-Жозе","country":"BR","lat":-27.615,"lon":-48.627,"pop":270299,"tz":"America/Sao_Paulo"},{"id":2637487,"name":"Southampton","local":"Саутгемптон","country":"GB","lat":50.904,"lon":-1.404,"pop":269781,"tz":"Europe/London"},{"id":487495,"name":"Sterlitamak","local":"Стерлитамак","country":"RU","lat":53.638,"lon":55.953,"pop":267231,"tz":"Asia/Yekaterinburg"},{"id":347796,"name":"Sohag","local":"Сохаг","country":"EG","lat":26.557,"lon":31.695,"pop":266944,"tz":"Africa/Cairo"},{"id":6141256,"name":"Saskatoon","local":"Саскатун","country":"CA","lat":52.132,"lon":-106.669,"pop":266141,"tz":"America/Regina"},{"id":1852225,"name":"Shimonoseki","local":"Симоносеки","country":"JP","lat":33.955,"lon":130.937,"pop":265684,"tz":"Asia/Tokyo"},{"id":300619,"name":"Sivas","local":"Сивас","country":"TR","lat":39.748,"lon":37.016,"pop":264022,"tz":"Europe/Istanbul"},{"id":1164709,"name":"Skardu","local":"Скарду","country":"PK","lat":35.298,"lon":75.634,"pop":260000,"tz":"Asia/Karachi"},{"id":692194,"name":"Sumy","local":"Сумы","country":"UA","lat":50.917,"lon":34.799,"pop":259660,"tz":"Europe/Kyiv"},{"id":2636841,"name":"Stoke-on-Trent","local":"Сток-он-Трент","country":"GB","lat":53.004,"lon":-2.185,"pop":258366,"tz":"Europe/London"},{"id":3836564,"name":"San Salvador de Jujuy","local":"Сан Сальвадор де Жужуй","country":"AR","lat":-24.193,"lon":-65.293,"pop":257970,"tz":"America/Argentina/Jujuy"},{"id":116996,"name":"Sari","local":"Сари","country":"IR","lat":36.563,"lon":53.06,"pop":255396,"tz":"Asia/Tehran"},{"id":1626542,"name":"Sorong","local":"Соронг","country":"ID","lat":-0.88,"lon":131.261,"pop":254294,"tz":"Asia/Jayapura"},{"id":2246452,"name":"Saint-Louis","local":"Сен-Луи","country":"SN","lat":16.018,"lon":-16.49,"pop":254171,"tz":"Africa/Dakar"},{"id":2034655,"name":"Suihua","local":"Суйхуа","country":"CN","lat":46.648,"lon":126.967,"pop":252245,"tz":"Asia/Shanghai"},{"id":3835869,"name":"Santiago del Estero","local":"Сантьяго-дель-Эстеро","country":"AR","lat":-27.8,"lon":-64.263,"pop":252192,"tz":"America/Argentina/Cordoba"},{"id":2481700,"name":"Setif","local":"Сетиф","country":"DZ","lat":36.191,"lon":5.414,"pop":252127,"tz":"Africa/Algiers"},{"id":1690039,"name":"San Fernando","local":"Сан-Фернандо","country":"PH","lat":15.034,"lon":120.684,"pop":251248,"tz":"Asia/Manila"},{"id":3537906,"name":"Santa Clara","local":"Санта Клара","country":"CU","lat":22.407,"lon":-79.966,"pop":250512,"tz":"America/Havana"},{"id":366847,"name":"Singa","local":"Синџа","country":"SD","lat":13.148,"lon":33.931,"pop":250000,"tz":"Africa/Khartoum"},{"id":3872348,"name":"San Bernardo","local":"Сан-Бернардо","country":"CL","lat":-33.592,"lon":-70.7,"pop":249858,"tz":"America/Santiago"},{"id":1851604,"name":"Soka","local":"Сок","country":"JP","lat":35.836,"lon":139.8,"pop":249645,"tz":"Asia/Tokyo"},{"id":485239,"name":"Syktyvkar","local":"Сыктывкар","country":"RU","lat":61.664,"lon":50.816,"pop":245083,"tz":"Europe/Moscow"},{"id":13546343,"name":"Sambizanga","local":"Самбізанга","country":"AO","lat":-8.789,"lon":13.275,"pop":244000,"tz":"Africa/Luanda"},{"id":1852899,"name":"Sasebo","local":"Сасебо","country":"JP","lat":33.168,"lon":129.725,"pop":243223,"tz":"Asia/Tokyo"},{"id":1185099,"name":"Sylhet","local":"Силхет","country":"BD","lat":24.899,"lon":91.872,"pop":237000,"tz":"Asia/Dhaka"},{"id":5313457,"name":"Scottsdale","local":"Скоттсдейл","country":"US","lat":33.509,"lon":-111.899,"pop":236839,"tz":"America/Phoenix"},{"id":1853303,"name":"Saga","local":"Сага Япония","country":"JP","lat":33.233,"lon":130.3,"pop":233301,"tz":"Asia/Tokyo"},{"id":1567621,"name":"Son Tay","local":"Сон-Тай","country":"VN","lat":21.141,"lon":105.507,"pop":230577,"tz":"Asia/Bangkok"},{"id":5811696,"name":"Spokane","local":"Спокан","country":"US","lat":47.66,"lon":-117.429,"pop":229447,"tz":"America/Los_Angeles"},{"id":3124964,"name":"Ciudad Lineal","local":"Сьюдад-Линеаль","country":"ES","lat":40.445,"lon":-3.651,"pop":228171,"tz":"Europe/Madrid"},{"id":3437056,"name":"San Lorenzo","local":"Сан-Лоренсо","country":"PY","lat":-25.34,"lon":-57.509,"pop":227876,"tz":"America/Asuncion"},{"id":3447624,"name":"Sete Lagoas","local":"Сети-Лагоас","country":"BR","lat":-19.466,"lon":-44.247,"pop":227397,"tz":"America/Sao_Paulo"},{"id":3085128,"name":"Sosnowiec","local":"Сосновец","country":"PL","lat":50.287,"lon":19.104,"pop":227295,"tz":"Europe/Warsaw"},{"id":487928,"name":"Staryy Oskol","local":"Старый Оскол","country":"RU","lat":51.303,"lon":37.846,"pop":226977,"tz":"Europe/Moscow"},{"id":118063,"name":"Sabzevar","local":"Себзевар","country":"IR","lat":36.213,"lon":57.682,"pop":226183,"tz":"Asia/Tehran"},{"id":6951112,"name":"Somerset West","local":"Сомерсет-Уэст","country":"ZA","lat":-34.084,"lon":18.821,"pop":225289,"tz":"Africa/Johannesburg"},{"id":3903987,"name":"Sucre","local":"Сукре","country":"BO","lat":-19.033,"lon":-65.263,"pop":224838,"tz":"America/La_Paz"},{"id":2464915,"name":"Sousse","local":"Сусс","country":"TN","lat":35.825,"lon":10.637,"pop":221715,"tz":"Africa/Tunis"},{"id":7279754,"name":"Singrauli","local":"Синграули","country":"IN","lat":24.2,"lon":82.675,"pop":220257,"tz":"Asia/Kolkata"},{"id":3450144,"name":"Santa Luzia","local":"Санта-Лусия","country":"BR","lat":-19.77,"lon":-43.851,"pop":219132,"tz":"America/Sao_Paulo"},{"id":1687894,"name":"Santa Rosa","local":"Санта-Роса","country":"PH","lat":14.312,"lon":121.111,"pop":216650,"tz":"Asia/Manila"},{"id":5391710,"name":"San Bernardino","local":"Сан-Бернардино","country":"US","lat":34.108,"lon":-117.29,"pop":216108,"tz":"America/Los_Angeles"},{"id":4013728,"name":"Ciudad Acuna","local":"Сьюдад-Акунья","country":"MX","lat":29.323,"lon":-100.952,"pop":216099,"tz":"America/Matamoros"},{"id":5780993,"name":"Salt Lake City","local":"Солт-Лейк-Сити","country":"US","lat":40.761,"lon":-111.891,"pop":215548,"tz":"America/Denver"},{"id":1734821,"name":"Sepang","local":"Сепанг","country":"MY","lat":2.693,"lon":101.75,"pop":212050,"tz":"Asia/Kuala_Lumpur"},{"id":2511174,"name":"Santa Cruz de Tenerife","local":"Санта-Крус-де-Тенерифе","country":"ES","lat":28.468,"lon":-16.255,"pop":211359,"tz":"Atlantic/Canary"},{"id":2481007,"name":"Sidi Bel Abbes","local":"Сиди-Бель-Аббес","country":"DZ","lat":35.19,"lon":-0.631,"pop":210146,"tz":"Africa/Algiers"},{"id":3448622,"name":"Sao Leopoldo","local":"Сан-Леополду","country":"BR","lat":-29.76,"lon":-51.147,"pop":209229,"tz":"America/Sao_Paulo"},{"id":114259,"name":"Sirjan","local":"Сирджан","country":"IR","lat":29.451,"lon":55.681,"pop":207645,"tz":"Asia/Tehran"},{"id":3628423,"name":"San Felipe","local":"Сан-Фелипе","country":"VE","lat":10.34,"lon":-68.743,"pop":206270,"tz":"America/Caracas"},{"id":3346015,"name":"Sumbe","local":"Сумбе","country":"AO","lat":-11.206,"lon":13.844,"pop":205832,"tz":"Africa/Luanda"},{"id":2451478,"name":"Segou","local":"Сеги","country":"ML","lat":13.44,"lon":-6.259,"pop":205787,"tz":"Africa/Bamako"},{"id":3449319,"name":"Sao Carlos","local":"Сан-Карлос","country":"BR","lat":-22.017,"lon":-47.891,"pop":205035,"tz":"America/Sao_Paulo"},{"id":1675393,"name":"Xizhi","local":"Сичжи","country":"TW","lat":25.066,"lon":121.66,"pop":204619,"tz":"Asia/Taipei"},{"id":1256922,"name":"Secunderabad","local":"Секундерабад","country":"IN","lat":17.504,"lon":78.543,"pop":204182,"tz":"Asia/Kolkata"},{"id":3387296,"name":"Sobral","local":"Собрал","country":"BR","lat":-3.686,"lon":-40.35,"pop":203023,"tz":"America/Fortaleza"},{"id":2636389,"name":"Swindon","local":"Свиндон","country":"GB","lat":51.558,"lon":-1.781,"pop":201669,"tz":"Europe/London"},{"id":2236967,"name":"Soyo","local":"Сойо","country":"AO","lat":-6.135,"lon":12.369,"pop":200920,"tz":"Africa/Luanda"},{"id":496348,"name":"Severnyy","local":"Северный","country":"RU","lat":55.936,"lon":37.549,"pop":200000,"tz":"Europe/Moscow"},{"id":1735902,"name":"Sibu","local":"Сибу","country":"MY","lat":2.3,"lon":111.817,"pop":198239,"tz":"Asia/Kuching"},{"id":3530594,"name":"Ciudad Madero","local":"Сьюдад-Мадеро","country":"MX","lat":22.247,"lon":-97.837,"pop":197216,"tz":"America/Monterrey"},{"id":1257540,"name":"Sambhal","local":"Самбал","country":"IN","lat":28.585,"lon":78.57,"pop":196109,"tz":"Asia/Kolkata"},{"id":1851348,"name":"Suzuka","local":"Судзука","country":"JP","lat":34.883,"lon":136.583,"pop":195670,"tz":"Asia/Tokyo"},{"id":496285,"name":"Severodvinsk","local":"Северодвинск","country":"RU","lat":64.558,"lon":39.83,"pop":194292,"tz":"Europe/Moscow"},{"id":3530599,"name":"Ciudad del Carmen","local":"Сьюдад-дель-Кармен","country":"MX","lat":18.646,"lon":-91.83,"pop":191238,"tz":"America/Merida"},{"id":5513343,"name":"Sunrise Manor","local":"Санрайз-Мэнер","country":"US","lat":36.211,"lon":-115.073,"pop":189372,"tz":"America/Los_Angeles"},{"id":1257542,"name":"Sambalpur","local":"Самбалпур","country":"IN","lat":21.465,"lon":83.976,"pop":189366,"tz":"Asia/Kolkata"},{"id":484972,"name":"Syzran","local":"Сызрань","country":"RU","lat":53.158,"lon":48.468,"pop":189338,"tz":"Europe/Samara"},{"id":3389353,"name":"Santarem","local":"Сантарен","country":"BR","lat":-2.443,"lon":-54.708,"pop":189047,"tz":"America/Santarem"},{"id":2636503,"name":"Sutton","local":"Саттон","country":"GB","lat":51.35,"lon":-0.2,"pop":187600,"tz":"Europe/London"},{"id":3564124,"name":"Cienfuegos","local":"Сьенфуэгос","country":"CU","lat":22.147,"lon":-80.448,"pop":186644,"tz":"America/Havana"},{"id":3979802,"name":"Zamora de Hidalgo","local":"Самора-де-Идальго","country":"MX","lat":19.984,"lon":-102.286,"pop":186102,"tz":"America/Mexico_City"},{"id":3110044,"name":"San Sebastian","local":"Сан-Себастьян","country":"ES","lat":43.313,"lon":-1.975,"pop":185357,"tz":"Europe/Madrid"},{"id":2638785,"name":"St Helens","local":"Сент-Хеленс","country":"GB","lat":53.45,"lon":-2.733,"pop":183200,"tz":"Europe/London"},{"id":2479536,"name":"Skikda","local":"Скикда","country":"DZ","lat":36.876,"lon":6.909,"pop":182903,"tz":"Africa/Algiers"},{"id":1256052,"name":"Sirsa","local":"Сирса","country":"IN","lat":29.535,"lon":75.029,"pop":182534,"tz":"Asia/Kolkata"},{"id":5393049,"name":"Santa Clarita","local":"Санта-Кларита","country":"US","lat":34.392,"lon":-118.543,"pop":182371,"tz":"America/Los_Angeles"},{"id":1626899,"name":"Singosari","local":"Сингосари","country":"ID","lat":-7.892,"lon":112.666,"pop":180740,"tz":"Asia/Jakarta"},{"id":3906194,"name":"Sacaba","local":"Сакаба","country":"BO","lat":-17.398,"lon":-66.038,"pop":180726,"tz":"America/La_Paz"},{"id":2842647,"name":"Saarbruecken","local":"Саарбрюккен","country":"DE","lat":49.233,"lon":7.01,"pop":179349,"tz":"Europe/Berlin"},{"id":1256287,"name":"Silchar","local":"Силчар","country":"IN","lat":24.827,"lon":92.798,"pop":178865,"tz":"Asia/Kolkata"},{"id":2323390,"name":"Saki","local":"Саки","country":"NG","lat":8.668,"lon":3.394,"pop":178677,"tz":"Africa/Lagos"},{"id":6621166,"name":"Seogwipo","local":"Согвипхо","country":"KR","lat":33.253,"lon":126.562,"pop":178552,"tz":"Asia/Seoul"},{"id":5512909,"name":"Spring Valley","local":"Спринг-Вэлли","country":"US","lat":36.108,"lon":-115.245,"pop":178395,"tz":"America/Los_Angeles"},{"id":5393287,"name":"Santa Rosa","local":"Санта-Роза","country":"US","lat":38.44,"lon":-122.714,"pop":178127,"tz":"America/Los_Angeles"},{"id":1295765,"name":"Sittwe","local":"Ситуэ","country":"MM","lat":20.146,"lon":92.898,"pop":177743,"tz":"Asia/Yangon"},{"id":3985604,"name":"San Luis Rio Colorado","local":"Сан-Луис-Рио-Колорадо","country":"MX","lat":32.456,"lon":-114.77,"pop":176685,"tz":"America/Hermosillo"},{"id":3583334,"name":"Santa Ana","local":"Санта-Ана","country":"SV","lat":13.988,"lon":-89.557,"pop":176661,"tz":"America/El_Salvador"},{"id":2980291,"name":"Saint-Etienne","local":"Сент-Этьен","country":"FR","lat":45.434,"lon":4.39,"pop":176280,"tz":"Europe/Paris"},{"id":5750162,"name":"Salem","local":"Сейлем","country":"US","lat":44.943,"lon":-123.035,"pop":175535,"tz":"America/Los_Angeles"},{"id":116667,"name":"Saveh","local":"Сава","country":"IR","lat":35.021,"lon":50.357,"pop":175533,"tz":"Asia/Tehran"},{"id":300614,"name":"Siverek","local":"Сивереке","country":"TR","lat":37.755,"lon":39.317,"pop":175341,"tz":"Europe/Istanbul"},{"id":3985344,"name":"San Miguel de Allende","local":"Сан-Мигель-де-Альенде","country":"MX","lat":20.915,"lon":-100.744,"pop":174615,"tz":"America/Mexico_City"},{"id":2111220,"name":"Sakura","local":"Сакура","country":"JP","lat":35.717,"lon":140.233,"pop":173740,"tz":"Asia/Tokyo"},{"id":3109718,"name":"Santander","local":"Сантандер","country":"ES","lat":43.466,"lon":-3.805,"pop":173635,"tz":"Europe/Madrid"},{"id":5231851,"name":"Sioux Falls","local":"Су-Фолс","country":"US","lat":43.544,"lon":-96.728,"pop":171544,"tz":"America/Chicago"},{"id":4409896,"name":"Springfield","local":"Спрингфилд","country":"US","lat":37.215,"lon":-93.298,"pop":170188,"tz":"America/Chicago"},{"id":2636531,"name":"Sunderland","local":"Сандерленд","country":"GB","lat":54.905,"lon":-1.382,"pop":170134,"tz":"Europe/London"},{"id":693821,"name":"Sykhiv","local":"Сихов","country":"UA","lat":49.794,"lon":24.063,"pop":170000,"tz":"Europe/Kyiv"},{"id":3837056,"name":"San Luis","local":"Сан-Луис","country":"AR","lat":-33.291,"lon":-66.325,"pop":169947,"tz":"America/Argentina/San_Luis"},{"id":7645166,"name":"San Miguel","local":"Сан Мигел","country":"AR","lat":-34.543,"lon":-58.712,"pop":168762,"tz":"America/Argentina/Buenos_Aires"},{"id":3449324,"name":"Sao Caetano do Sul","local":"Сан-Каэтано-ду-Сул","country":"BR","lat":-23.623,"lon":-46.551,"pop":165655,"tz":"America/Sao_Paulo"},{"id":2637627,"name":"Slough","local":"Слау","country":"GB","lat":51.509,"lon":-0.595,"pop":164793,"tz":"Europe/London"},{"id":268064,"name":"Sidon","local":"Сайда","country":"LB","lat":33.558,"lon":35.371,"pop":163554,"tz":"Asia/Beirut"},{"id":286621,"name":"Salalah","local":"Салала","country":"OM","lat":17.015,"lon":54.092,"pop":163140,"tz":"Asia/Muscat"},{"id":1907146,"name":"Sayama","local":"Саяма","country":"JP","lat":35.853,"lon":139.412,"pop":160843,"tz":"Asia/Tokyo"},{"id":3691674,"name":"Sullana","local":"Сульяна","country":"PE","lat":-4.904,"lon":-80.685,"pop":160789,"tz":"America/Lima"},{"id":715429,"name":"Szeged","local":"Сегед","country":"HU","lat":46.253,"lon":20.148,"pop":160766,"tz":"Europe/Budapest"},{"id":3988214,"name":"Salamanca","local":"Саламанка","country":"MX","lat":20.572,"lon":-101.192,"pop":160682,"tz":"America/Mexico_City"},{"id":499292,"name":"Salavat","local":"Салават","country":"RU","lat":53.383,"lon":55.911,"pop":159893,"tz":"Asia/Yekaterinburg"},{"id":3518723,"name":"Tuxtepec","local":"Сан-Хуан-Баутиста-Тустепек","country":"MX","lat":18.088,"lon":-96.125,"pop":159452,"tz":"America/Mexico_City"},{"id":3837702,"name":"Catamarca","local":"Сан-Фернандо-дель-Валье-де-Катамарка","country":"AR","lat":-28.47,"lon":-65.785,"pop":159139,"tz":"America/Argentina/Catamarca"},{"id":5391295,"name":"Salinas","local":"Салинас","country":"US","lat":36.678,"lon":-121.656,"pop":157380,"tz":"America/Los_Angeles"},{"id":1257804,"name":"Saharsa","local":"Сахарса","country":"IN","lat":25.875,"lon":86.596,"pop":156540,"tz":"Asia/Kolkata"},{"id":3518135,"name":"San Pablo de las Salinas","local":"Сан Пабло де лас Салинас","country":"MX","lat":19.667,"lon":-99.095,"pop":156191,"tz":"America/Mexico_City"},{"id":5400075,"name":"Sunnyvale","local":"Саннивейл","country":"US","lat":37.369,"lon":-122.036,"pop":155805,"tz":"America/Los_Angeles"},{"id":2537406,"name":"Settat","local":"Сеттат","country":"MA","lat":33.001,"lon":-7.617,"pop":155333,"tz":"Africa/Casablanca"},{"id":935264,"name":"Saint-Denis","local":"Сен-Дени","country":"RE","lat":-20.882,"lon":55.45,"pop":154765,"tz":"Indian/Reunion"},{"id":4951788,"name":"Springfield","local":"Спрингфилд","country":"US","lat":42.101,"lon":-72.59,"pop":154341,"tz":"America/New_York"},{"id":2479215,"name":"Souk Ahras","local":"Сук-Ахрас","country":"DZ","lat":36.286,"lon":7.951,"pop":153479,"tz":"Africa/Algiers"},{"id":98530,"name":"As Samawah","local":"Самава","country":"IQ","lat":31.332,"lon":45.294,"pop":152890,"tz":"Asia/Baghdad"},{"id":487150,"name":"Strogino","local":"Строгино","country":"RU","lat":55.818,"lon":37.412,"pop":152000,"tz":"Europe/Moscow"},{"id":117392,"name":"Saqqez","local":"Секкез","country":"IR","lat":36.25,"lon":46.273,"pop":151237,"tz":"Asia/Tehran"},{"id":3190261,"name":"Split","local":"Сплит","country":"HR","lat":43.509,"lon":16.439,"pop":149830,"tz":"Europe/Zagreb"},{"id":6137270,"name":"Saguenay","local":"Сагеней","country":"CA","lat":48.417,"lon":-71.066,"pop":148886,"tz":"America/Toronto"},{"id":3137115,"name":"Stavanger","local":"Ставангер","country":"NO","lat":58.97,"lon":5.733,"pop":148682,"tz":"Europe/Oslo"},{"id":2034638,"name":"Sujiatun","local":"Суцзятунь","country":"CN","lat":41.659,"lon":123.339,"pop":148113,"tz":"Asia/Shanghai"},{"id":2415703,"name":"Siguiri","local":"Сигири","country":"GN","lat":11.423,"lon":-9.169,"pop":148018,"tz":"Africa/Conakry"},{"id":4221552,"name":"Savannah","local":"Саванна","country":"US","lat":32.084,"lon":-81.1,"pop":147780,"tz":"America/New_York"},{"id":6544491,"name":"Salamanca","local":"Саламанка","country":"ES","lat":40.43,"lon":-3.68,"pop":147707,"tz":"Europe/Madrid"},{"id":3493175,"name":"Puerto Plata","local":"Сан-Фелипе-де-Пуэрто-Плата","country":"DO","lat":19.793,"lon":-70.688,"pop":146000,"tz":"America/Santo_Domingo"},{"id":3488465,"name":"Spanish Town","local":"Спаниш-Таун","country":"JM","lat":17.991,"lon":-76.957,"pop":145018,"tz":"America/Jamaica"},{"id":3111108,"name":"Salamanca","local":"Саламанка","country":"ES","lat":40.969,"lon":-5.664,"pop":144825,"tz":"Europe/Madrid"},{"id":5140405,"name":"Syracuse","local":"Сиракьюс","country":"US","lat":43.048,"lon":-76.147,"pop":144142,"tz":"America/New_York"},{"id":5316428,"name":"Surprise","local":"Сюрприз","country":"US","lat":33.631,"lon":-112.333,"pop":143148,"tz":"America/Phoenix"},{"id":2482572,"name":"Saida","local":"Сайда","country":"DZ","lat":34.83,"lon":0.152,"pop":142497,"tz":"Africa/Algiers"},{"id":3564178,"name":"Ciego de Avila","local":"Сьего-де-Авила","country":"CU","lat":21.842,"lon":-78.76,"pop":142027,"tz":"America/Havana"},{"id":286647,"name":"Saham","local":"Салам","country":"OM","lat":24.172,"lon":56.889,"pop":140000,"tz":"Asia/Muscat"},{"id":1822214,"name":"Siem Reap","local":"Сием-Реап","country":"KH","lat":13.362,"lon":103.861,"pop":139458,"tz":"Asia/Phnom_Penh"},{"id":2636882,"name":"Stockport","local":"Стокпорт","country":"GB","lat":53.41,"lon":-2.158,"pop":139052,"tz":"Europe/London"},{"id":2425791,"name":"Sarh","local":"Сарх","country":"TD","lat":9.146,"lon":18.383,"pop":138928,"tz":"Africa/Ndjamena"},{"id":2295458,"name":"Sekondi-Takoradi","local":"Секонди","country":"GH","lat":4.927,"lon":-1.758,"pop":138872,"tz":"Africa/Accra"},{"id":6155721,"name":"St. Catharines","local":"Сент-Катаринс","country":"CA","lat":43.171,"lon":-79.243,"pop":136803,"tz":"America/Toronto"},{"id":3986172,"name":"San Jose del Cabo","local":"Сан-Хосе-дель-Кабо","country":"MX","lat":23.054,"lon":-109.704,"pop":136285,"tz":"America/Mazatlan"},{"id":1255927,"name":"Siwan","local":"Сиван","country":"IN","lat":26.221,"lon":84.356,"pop":135066,"tz":"Asia/Kolkata"},{"id":667268,"name":"Sibiu","local":"Сибиу","country":"RO","lat":45.8,"lon":24.15,"pop":134309,"tz":"Europe/Bucharest"},{"id":3836846,"name":"San Nicolas de los Arroyos","local":"Сан Николас де лос Аройос","country":"AR","lat":-33.334,"lon":-60.211,"pop":134217,"tz":"America/Argentina/Buenos_Aires"},{"id":1626932,"name":"Singaraja","local":"Сингараджа","country":"ID","lat":-8.112,"lon":115.088,"pop":133784,"tz":"Asia/Makassar"},{"id":3450269,"name":"Santa Cruz do Sul","local":"Санта-Крус-ду-Сул","country":"BR","lat":-29.718,"lon":-52.426,"pop":133230,"tz":"America/Sao_Paulo"},{"id":1853008,"name":"Sandacho","local":"Санда","country":"JP","lat":34.884,"lon":135.227,"pop":132858,"tz":"Asia/Tokyo"},{"id":2787149,"name":"Schaerbeek","local":"Схарбек","country":"BE","lat":50.869,"lon":4.377,"pop":132761,"tz":"Europe/Brussels"},{"id":3448031,"name":"Sapucaia do Sul","local":"Сапукая","country":"BR","lat":-29.818,"lon":-51.146,"pop":132107,"tz":"America/Sao_Paulo"},{"id":5011148,"name":"Sterling Heights","local":"Стерлинг-Хайтс","country":"US","lat":42.58,"lon":-83.03,"pop":132052,"tz":"America/Detroit"},{"id":1150515,"name":"Surat Thani","local":"Сураттхани","country":"TH","lat":9.14,"lon":99.333,"pop":132040,"tz":"Asia/Bangkok"},{"id":3665542,"name":"Zipaquira","local":"Сипакира","country":"CO","lat":5.022,"lon":-74.005,"pop":130432,"tz":"America/Bogota"},{"id":4850751,"name":"Cedar Rapids","local":"Сидар-Рапидс","country":"US","lat":42.008,"lon":-91.644,"pop":130405,"tz":"America/Chicago"},{"id":367644,"name":"Sennar","local":"Сеннар","country":"SD","lat":13.569,"lon":33.567,"pop":130122,"tz":"Africa/Khartoum"},{"id":1187530,"name":"Sonargaon","local":"Сонаргаон","country":"BD","lat":23.65,"lon":90.617,"pop":130000,"tz":"Asia/Dhaka"},{"id":2638671,"name":"Salford","local":"Солфорд","country":"GB","lat":53.488,"lon":-2.29,"pop":129794,"tz":"Europe/London"},{"id":3450817,"name":"Sabara","local":"Сабара","country":"BR","lat":-19.886,"lon":-43.807,"pop":129380,"tz":"America/Sao_Paulo"},{"id":3979844,"name":"Zacatecas","local":"Сакатекас","country":"MX","lat":22.768,"lon":-102.581,"pop":129011,"tz":"America/Mexico_City"},{"id":4843564,"name":"Stamford","local":"Стамфорд","country":"US","lat":41.053,"lon":-73.539,"pop":128874,"tz":"America/New_York"},{"id":102527,"name":"Sakakah","local":"Сакака","country":"SA","lat":29.97,"lon":40.206,"pop":128332,"tz":"Asia/Riyadh"},{"id":496527,"name":"Serpukhov","local":"Серпухов","country":"RU","lat":54.92,"lon":37.416,"pop":128158,"tz":"Europe/Moscow"},{"id":1852663,"name":"Seto","local":"Сету","country":"JP","lat":35.233,"lon":137.1,"pop":127792,"tz":"Asia/Tokyo"},{"id":1185115,"name":"Sirajganj","local":"Сираджгандж","country":"BD","lat":24.458,"lon":89.708,"pop":127481,"tz":"Asia/Dhaka"},{"id":3540667,"name":"Sancti Spiritus","local":"Санкти-Спиритус","country":"CU","lat":21.934,"lon":-79.44,"pop":127069,"tz":"America/Havana"},{"id":5396003,"name":"Simi Valley","local":"Сими-Вэлли","country":"US","lat":34.269,"lon":-118.781,"pop":126788,"tz":"America/Los_Angeles"},{"id":2637546,"name":"Solihull","local":"Солихалл","country":"GB","lat":52.414,"lon":-1.781,"pop":126577,"tz":"Europe/London"},{"id":5344994,"name":"East Los Angeles","local":"Іст-Лос-Анджелес","country":"US","lat":34.024,"lon":-118.172,"pop":126496,"tz":"America/Los_Angeles"},{"id":5393015,"name":"Santa Clara","local":"Санта-Клара","country":"US","lat":37.354,"lon":-121.955,"pop":126215,"tz":"America/Los_Angeles"},{"id":3168673,"name":"Salerno","local":"Салерно","country":"IT","lat":40.675,"lon":14.793,"pop":125797,"tz":"Europe/Rome"},{"id":1653316,"name":"Savannakhet","local":"Саваннакхет","country":"LA","lat":16.57,"lon":104.762,"pop":125760,"tz":"Asia/Vientiane"},{"id":1685378,"name":"Sultan Kudarat","local":"Султан-Кударат","country":"PH","lat":7.229,"lon":124.258,"pop":124965,"tz":"Asia/Manila"},{"id":116402,"name":"Semnan","local":"Семнан","country":"IR","lat":35.577,"lon":53.392,"pop":124826,"tz":"Asia/Tehran"},{"id":2407656,"name":"Koidu","local":"Сефаду","country":"SL","lat":8.644,"lon":-10.971,"pop":124662,"tz":"Africa/Freetown"},{"id":3448519,"name":"Sao Mateus","local":"Сан-Матеус","country":"BR","lat":-18.72,"lon":-39.859,"pop":123752,"tz":"America/Sao_Paulo"},{"id":6693576,"name":"San Pedro de la Paz","local":"Сан-Педро-де-ла-Пас","country":"CL","lat":-36.839,"lon":-73.1,"pop":121631,"tz":"America/Santiago"},{"id":2523083,"name":"Siracusa","local":"Сиракуза","country":"IT","lat":37.075,"lon":15.287,"pop":121605,"tz":"Europe/Rome"},{"id":726848,"name":"Stara Zagora","local":"Стара-Загора","country":"BG","lat":42.432,"lon":25.643,"pop":121582,"tz":"Europe/Sofia"},{"id":1256949,"name":"Sawai Madhopur","local":"Савай-Мадхопур","country":"IN","lat":26.023,"lon":76.344,"pop":121106,"tz":"Asia/Kolkata"},{"id":1257055,"name":"Satara","local":"Сатара","country":"IN","lat":17.686,"lon":73.993,"pop":120195,"tz":"Asia/Kolkata"},{"id":490971,"name":"Solntsevo","local":"Солнцево","country":"RU","lat":55.637,"lon":37.381,"pop":120000,"tz":"Europe/Moscow"},{"id":3450594,"name":"Salto","local":"Сальто","country":"BR","lat":-23.201,"lon":-47.287,"pop":119736,"tz":"America/Sao_Paulo"},{"id":3109981,"name":"Santa Coloma de Gramenet","local":"Санта-Колома-де-Граманет","country":"ES","lat":41.452,"lon":2.208,"pop":118821,"tz":"Europe/Madrid"},{"id":2262963,"name":"Setubal","local":"Сетубал","country":"PT","lat":38.524,"lon":-8.888,"pop":118166,"tz":"Europe/Lisbon"},{"id":3836669,"name":"San Rafael","local":"Сан-Рафаэль","country":"AR","lat":-34.615,"lon":-68.332,"pop":118009,"tz":"America/Argentina/Mendoza"},{"id":2364104,"name":"Sokode","local":"Сокоде","country":"TG","lat":8.983,"lon":1.133,"pop":117811,"tz":"Africa/Lome"},{"id":6136944,"name":"Saanich","local":"Санич","country":"CA","lat":48.55,"lon":-123.369,"pop":117735,"tz":"America/Vancouver"},{"id":1852964,"name":"Sano","local":"Сана","country":"JP","lat":36.317,"lon":139.583,"pop":117669,"tz":"Asia/Tokyo"},{"id":1670106,"name":"Sanxia","local":"Санься","country":"TW","lat":24.934,"lon":121.371,"pop":115185,"tz":"Asia/Taipei"},{"id":4250542,"name":"Springfield","local":"Спрингфилд","country":"US","lat":39.802,"lon":-89.644,"pop":114394,"tz":"America/Chicago"},{"id":300822,"name":"Siirt","local":"Сиирт","country":"TR","lat":37.929,"lon":41.941,"pop":114034,"tz":"Europe/Istanbul"},{"id":2035399,"name":"Songyuan","local":"Сунъюань","country":"CN","lat":45.129,"lon":124.828,"pop":113611,"tz":"Asia/Shanghai"},{"id":667873,"name":"Satu Mare","local":"Сату-Маре","country":"RO","lat":47.799,"lon":22.863,"pop":112490,"tz":"Europe/Bucharest"},{"id":4013714,"name":"Ciudad Guzman","local":"Сьюдад-Гусман","country":"MX","lat":19.704,"lon":-103.464,"pop":111975,"tz":"America/Mexico_City"},{"id":3667873,"name":"Sogamoso","local":"Согамосо","country":"CO","lat":5.714,"lon":-72.934,"pop":111336,"tz":"America/Bogota"},{"id":3388376,"name":"Sao Lourenco da Mata","local":"Сан-Лоренсу-да-Мата","country":"BR","lat":-8.002,"lon":-35.018,"pop":111249,"tz":"America/Recife"},{"id":3448351,"name":"Sao Pedro da Aldeia","local":"Сан-Педру-да-Алдея","country":"BR","lat":-22.839,"lon":-42.103,"pop":110556,"tz":"America/Sao_Paulo"},{"id":6324733,"name":"St. John's","local":"Сент-Джонс","country":"CA","lat":47.565,"lon":-52.709,"pop":110525,"tz":"America/St_Johns"},{"id":1538637,"name":"Seversk","local":"Северск","country":"RU","lat":56.601,"lon":84.886,"pop":109844,"tz":"Asia/Tomsk"},{"id":5416541,"name":"Centennial","local":"Сентенниал","country":"US","lat":39.579,"lon":-104.877,"pop":109741,"tz":"America/Denver"},{"id":496638,"name":"Sergiyev Posad","local":"Сергиев Посад","country":"RU","lat":56.312,"lon":38.139,"pop":109252,"tz":"Europe/Moscow"},{"id":3837213,"name":"San Juan","local":"Сан-Хуан","country":"AR","lat":-31.537,"lon":-68.526,"pop":109123,"tz":"America/Argentina/San_Juan"},{"id":1256913,"name":"Sehore","local":"Сехор","country":"IN","lat":23.2,"lon":77.083,"pop":109118,"tz":"Asia/Kolkata"},{"id":286282,"name":"Sohar","local":"Сухар","country":"OM","lat":24.347,"lon":56.709,"pop":108274,"tz":"Asia/Muscat"},{"id":3391360,"name":"Santana","local":"Сантана","country":"BR","lat":-0.038,"lon":-51.175,"pop":107618,"tz":"America/Belem"},{"id":2636486,"name":"Sutton Coldfield","local":"Саттон-Колдфилд","country":"GB","lat":52.567,"lon":-1.817,"pop":107030,"tz":"Europe/London"},{"id":2210554,"name":"Sirte","local":"Сурт","country":"LY","lat":31.209,"lon":16.589,"pop":106705,"tz":"Africa/Tripoli"},{"id":1567681,"name":"Son La","local":"Сон-Ла","country":"VN","lat":21.326,"lon":103.919,"pop":106052,"tz":"Asia/Bangkok"},{"id":6354908,"name":"Sydney","local":"Сидни","country":"CA","lat":46.135,"lon":-60.183,"pop":105968,"tz":"America/Glace_Bay"},{"id":1784820,"name":"Xinghua","local":"Синхуа","country":"CN","lat":32.939,"lon":119.834,"pop":105918,"tz":"Asia/Shanghai"},{"id":4221333,"name":"Sandy Springs","local":"Санди-Спрингс","country":"US","lat":33.924,"lon":-84.379,"pop":105330,"tz":"America/New_York"},{"id":3428775,"name":"San Justo","local":"Сан-Хусто","country":"AR","lat":-34.681,"lon":-58.564,"pop":105274,"tz":"America/Argentina/Buenos_Aires"},{"id":693468,"name":"Sloviansk","local":"Славянск","country":"UA","lat":48.85,"lon":37.597,"pop":105141,"tz":"Europe/Kyiv"},{"id":5393180,"name":"Santa Maria","local":"Санта-Мария","country":"US","lat":34.953,"lon":-120.436,"pop":105093,"tz":"America/Los_Angeles"},{"id":1926054,"name":"Saijo","local":"Сайдзё","country":"JP","lat":33.917,"lon":133.183,"pop":104791,"tz":"Asia/Tokyo"},{"id":2596934,"name":"Seguela","local":"Сегеле","country":"CI","lat":7.961,"lon":-6.673,"pop":103980,"tz":"Africa/Abidjan"},{"id":5392423,"name":"San Mateo","local":"Сан-Матео","country":"US","lat":37.563,"lon":-122.326,"pop":103536,"tz":"America/Los_Angeles"},{"id":3835994,"name":"Santa Rosa","local":"Санта-Роса","country":"AR","lat":-36.616,"lon":-64.29,"pop":102860,"tz":"America/Argentina/Salta"},{"id":6544106,"name":"Ciutat Vella","local":"Старый город","country":"ES","lat":41.38,"lon":2.173,"pop":102347,"tz":"Europe/Madrid"},{"id":3044774,"name":"Szekesfehervar","local":"Секешфехервар","country":"HU","lat":47.19,"lon":18.41,"pop":101600,"tz":"Europe/Budapest"},{"id":2532945,"name":"Sidi Slimane","local":"Сиди-Слимане","country":"MA","lat":34.265,"lon":-5.926,"pop":101541,"tz":"Africa/Casablanca"},{"id":4926563,"name":"South Bend","local":"Саут-Бенд","country":"US","lat":41.683,"lon":-86.25,"pop":101516,"tz":"America/Indiana/Indianapolis"},{"id":1837706,"name":"Sangju","local":"Санджу","country":"KR","lat":36.415,"lon":128.161,"pop":101267,"tz":"Asia/Seoul"},{"id":300075,"name":"Suruc","local":"Суруч","country":"TR","lat":36.976,"lon":38.425,"pop":101178,"tz":"Europe/Istanbul"},{"id":491023,"name":"Solikamsk","local":"Соликамск","country":"RU","lat":59.667,"lon":56.743,"pop":100812,"tz":"Asia/Yekaterinburg"},{"id":1853209,"name":"Sakado","local":"Сакадо","country":"JP","lat":35.957,"lon":139.389,"pop":100275,"tz":"Asia/Tokyo"},{"id":1853140,"name":"Sakata","local":"Саката","country":"JP","lat":38.917,"lon":139.855,"pop":100273,"tz":"Asia/Tokyo"},{"id":3189595,"name":"Subotica","local":"Суботица","country":"RS","lat":46.1,"lon":19.667,"pop":100000,"tz":"Europe/Belgrade"},{"id":758470,"name":"Srodmiescie","local":"Средместье","country":"PL","lat":52.229,"lon":21.016,"pop":99950,"tz":"Europe/Warsaw"},{"id":5530022,"name":"San Angelo","local":"Сан-Анджело","country":"US","lat":31.464,"lon":-100.437,"pop":99893,"tz":"America/Chicago"},{"id":3440714,"name":"Salto","local":"Сальто","country":"UY","lat":-31.388,"lon":-57.96,"pop":99823,"tz":"America/Montevideo"},{"id":3109642,"name":"Santiago de Compostela","local":"Сантьяго-де-Компостела","country":"ES","lat":42.881,"lon":-8.546,"pop":99536,"tz":"Europe/Madrid"},{"id":1853081,"name":"Saku","local":"Саку","country":"JP","lat":36.217,"lon":138.483,"pop":99131,"tz":"Asia/Tokyo"},{"id":691999,"name":"Sievierodonetsk","local":"Северодонецк","country":"UA","lat":48.946,"lon":38.486,"pop":99067,"tz":"Europe/Kyiv"},{"id":2033766,"name":"Xingcheng","local":"Синчэн","country":"CN","lat":40.617,"lon":120.717,"pop":98968,"tz":"Asia/Shanghai"},{"id":498687,"name":"Sarapul","local":"Сарапул","country":"RU","lat":56.476,"lon":53.798,"pop":98830,"tz":"Europe/Samara"},{"id":6138610,"name":"Saint-Laurent","local":"Сен-Лоран","country":"CA","lat":45.5,"lon":-73.666,"pop":98828,"tz":"America/Toronto"},{"id":4173838,"name":"Spring Hill","local":"Спринг-Хилл","country":"US","lat":28.477,"lon":-82.525,"pop":98621,"tz":"America/New_York"},{"id":3085450,"name":"Slupsk","local":"Слупск","country":"PL","lat":54.464,"lon":17.029,"pop":98608,"tz":"Europe/Warsaw"},{"id":1492663,"name":"Serov","local":"Серов","country":"RU","lat":59.597,"lon":60.586,"pop":98438,"tz":"Asia/Yekaterinburg"},{"id":1256259,"name":"Silvassa","local":"Силвасса","country":"IN","lat":20.274,"lon":72.997,"pop":98265,"tz":"Asia/Kolkata"},{"id":3389652,"name":"Santa Cruz do Capibaribe","local":"Санта-Крус-ду-Капибариби","country":"BR","lat":-7.957,"lon":-36.205,"pop":98254,"tz":"America/Recife"},{"id":6138495,"name":"Saint-Jean-sur-Richelieu","local":"Сен-Жан-сюр-Ришелье","country":"CA","lat":45.307,"lon":-73.263,"pop":98036,"tz":"America/Toronto"},{"id":622428,"name":"Soligorsk","local":"Солигорск","country":"BY","lat":52.79,"lon":27.536,"pop":97818,"tz":"Europe/Minsk"},{"id":5397603,"name":"South Gate","local":"Саут Гејт","country":"US","lat":33.955,"lon":-118.212,"pop":96401,"tz":"America/Los_Angeles"},{"id":3361025,"name":"Stellenbosch","local":"Стелленбос","country":"ZA","lat":-33.935,"lon":18.867,"pop":96228,"tz":"Africa/Johannesburg"},{"id":2980916,"name":"Saint-Denis","local":"Сен-Дени","country":"FR","lat":48.936,"lon":2.354,"pop":96128,"tz":"Europe/Paris"},{"id":5512862,"name":"Sparks","local":"Спаркс","country":"US","lat":39.535,"lon":-119.753,"pop":96094,"tz":"America/Los_Angeles"},{"id":1852472,"name":"Shimada","local":"Симада","country":"JP","lat":34.817,"lon":138.183,"pop":95719,"tz":"Asia/Tokyo"},{"id":3449310,"name":"Sao Cristovao","local":"Сан-Кристован","country":"BR","lat":-11.015,"lon":-37.206,"pop":95612,"tz":"America/Maceio"},{"id":7647007,"name":"San Carlos de Bariloche","local":"Сан Карлос де Барилоче","country":"AR","lat":-41.146,"lon":-71.308,"pop":95394,"tz":"America/Argentina/Salta"},{"id":1789998,"name":"Xiaoshan","local":"Сяошань","country":"CN","lat":30.167,"lon":120.259,"pop":95234,"tz":"Asia/Shanghai"},{"id":2511388,"name":"San Fernando","local":"Сан-Фернандо","country":"ES","lat":36.476,"lon":-6.198,"pop":95174,"tz":"Europe/Madrid"},{"id":5811729,"name":"Spokane Valley","local":"Спокан-Валли","country":"US","lat":47.673,"lon":-117.239,"pop":94919,"tz":"America/Los_Angeles"},{"id":1852984,"name":"Sanjo","local":"Сандзе","country":"JP","lat":37.617,"lon":138.95,"pop":94642,"tz":"Asia/Tokyo"},{"id":3175081,"name":"La Spezia","local":"Специя","country":"IT","lat":44.103,"lon":9.824,"pop":93288,"tz":"Europe/Rome"},{"id":5393212,"name":"Santa Monica","local":"Санта-Моника","country":"US","lat":34.019,"lon":-118.491,"pop":93220,"tz":"America/Los_Angeles"},{"id":5392368,"name":"San Marcos","local":"Сан-Маркос","country":"US","lat":33.143,"lon":-117.166,"pop":92931,"tz":"America/Los_Angeles"},{"id":2295021,"name":"Sunyani","local":"Суньяні","country":"GH","lat":7.34,"lon":-2.327,"pop":92825,"tz":"Africa/Accra"},{"id":1852736,"name":"Sendai","local":"Сендай","country":"JP","lat":31.817,"lon":130.3,"pop":92403,"tz":"Asia/Tokyo"},{"id":3167096,"name":"Sassari","local":"Сассари","country":"IT","lat":40.726,"lon":8.556,"pop":91895,"tz":"Europe/Rome"},{"id":5392952,"name":"Santa Barbara","local":"Санта-Барбара","country":"US","lat":34.421,"lon":-119.698,"pop":91842,"tz":"America/Los_Angeles"},{"id":2637343,"name":"Southport","local":"Саутпорт","country":"GB","lat":53.646,"lon":-3.01,"pop":91703,"tz":"Europe/London"},{"id":1213855,"name":"Sibolga","local":"Сиболга","country":"ID","lat":1.74,"lon":98.781,"pop":91265,"tz":"Asia/Jakarta"},{"id":5392263,"name":"San Leandro","local":"Сан Леандро","country":"US","lat":37.725,"lon":-122.156,"pop":90712,"tz":"America/Los_Angeles"},{"id":2636940,"name":"Stevenage","local":"Стивенедж","country":"GB","lat":51.902,"lon":-0.203,"pop":90232,"tz":"Europe/London"},{"id":1056899,"name":"Sambava","local":"Самбава","country":"MG","lat":-14.267,"lon":50.167,"pop":89003,"tz":"Indian/Antananarivo"},{"id":3686279,"name":"Cienaga","local":"Сиенага","country":"CO","lat":11.007,"lon":-74.248,"pop":88311,"tz":"America/Bogota"},{"id":4788158,"name":"Suffolk","local":"Саффолк","country":"US","lat":36.728,"lon":-76.585,"pop":88161,"tz":"America/New_York"},{"id":498525,"name":"Sarov","local":"Саров","country":"RU","lat":54.948,"lon":43.315,"pop":88000,"tz":"Europe/Moscow"},{"id":1685218,"name":"Surigao","local":"Серигао Сити","country":"PH","lat":9.789,"lon":125.495,"pop":87832,"tz":"Asia/Manila"},{"id":3872395,"name":"San Antonio","local":"Сан-Антонио","country":"CL","lat":-33.595,"lon":-71.607,"pop":87675,"tz":"America/Santiago"},{"id":5490263,"name":"Santa Fe","local":"Санта-Фе","country":"US","lat":35.687,"lon":-105.938,"pop":87505,"tz":"America/Denver"},{"id":5337561,"name":"Citrus Heights","local":"Ситрус Хајтс","country":"US","lat":38.707,"lon":-121.281,"pop":87056,"tz":"America/Los_Angeles"},{"id":147288,"name":"Saatli","local":"Саатлы","country":"AZ","lat":39.932,"lon":48.369,"pop":87000,"tz":"Asia/Baku"},{"id":3387786,"name":"Serra Talhada","local":"Серра-Тальяда","country":"BR","lat":-7.992,"lon":-38.298,"pop":86915,"tz":"America/Recife"},{"id":8504964,"name":"Svetlanovskiy","local":"Светлановское","country":"RU","lat":60.003,"lon":30.331,"pop":85508,"tz":"Europe/Moscow"},{"id":3389609,"name":"Santa Ines","local":"Санта-Инес","country":"BR","lat":-3.667,"lon":-45.38,"pop":85014,"tz":"America/Fortaleza"},{"id":3447785,"name":"Seropedica","local":"Серопедика","country":"BR","lat":-22.744,"lon":-43.708,"pop":84737,"tz":"America/Sao_Paulo"},{"id":2638867,"name":"St Albans","local":"Сент-Олбанс","country":"GB","lat":51.75,"lon":-0.333,"pop":84561,"tz":"Europe/London"},{"id":4174402,"name":"Sunrise","local":"Санрайз","country":"US","lat":26.134,"lon":-80.113,"pop":84439,"tz":"America/New_York"},{"id":3520064,"name":"Salina Cruz","local":"Салина-Крус","country":"MX","lat":16.175,"lon":-95.194,"pop":84438,"tz":"America/Mexico_City"},{"id":3449936,"name":"Sant'Ana do Livramento","local":"Сантана-ду-Ливраменту","country":"BR","lat":-30.891,"lon":-55.533,"pop":84421,"tz":"America/Sao_Paulo"},{"id":665850,"name":"Suceava","local":"Сучава","country":"RO","lat":47.633,"lon":26.25,"pop":84308,"tz":"Europe/Bucharest"},{"id":935214,"name":"Saint-Pierre","local":"Сент-Пьер","country":"RE","lat":-21.339,"lon":55.478,"pop":84077,"tz":"Indian/Reunion"},{"id":3466174,"name":"Cianorte","local":"Сианорте","country":"BR","lat":-23.663,"lon":-52.605,"pop":83816,"tz":"America/Sao_Paulo"},{"id":727079,"name":"Sliven","local":"Сливен","country":"BG","lat":42.686,"lon":26.326,"pop":83740,"tz":"Europe/Sofia"},{"id":2637329,"name":"South Shields","local":"Саут-Шилдс","country":"GB","lat":54.999,"lon":-1.432,"pop":83655,"tz":"Europe/London"},{"id":5392528,"name":"San Pedro","local":"Сан Педро","country":"US","lat":33.736,"lon":-118.292,"pop":83556,"tz":"America/Los_Angeles"},{"id":3449350,"name":"Sao Bento do Sul","local":"Сан-Бенту-ду-Сул","country":"BR","lat":-26.25,"lon":-49.379,"pop":83277,"tz":"America/Sao_Paulo"},{"id":6362987,"name":"Ceuta","local":"Сеута","country":"ES","lat":35.889,"lon":-5.32,"pop":83179,"tz":"Europe/Madrid"},{"id":1690033,"name":"San Fernando","local":"Сан-Фернандо","country":"PH","lat":16.616,"lon":120.317,"pop":83003,"tz":"Asia/Manila"},{"id":4876523,"name":"Sioux City","local":"Су-Сити","country":"US","lat":42.5,"lon":-96.4,"pop":82821,"tz":"America/Chicago"},{"id":3670475,"name":"Sabaneta","local":"Сабанета","country":"CO","lat":6.152,"lon":-75.617,"pop":82375,"tz":"America/Bogota"},{"id":117656,"name":"Salmas","local":"Салмас","country":"IR","lat":38.197,"lon":44.765,"pop":81606,"tz":"Asia/Tehran"},{"id":3448257,"name":"Sao Sebastiao","local":"Сан-Себастьян","country":"BR","lat":-23.76,"lon":-45.41,"pop":81595,"tz":"America/Sao_Paulo"},{"id":2638324,"name":"Scunthorpe","local":"Сканторпе","country":"GB","lat":53.579,"lon":-0.654,"pop":81576,"tz":"Europe/London"},{"id":1836553,"name":"Sokcho","local":"Сокчхо","country":"KR","lat":38.207,"lon":128.592,"pop":81164,"tz":"Asia/Seoul"},{"id":4951257,"name":"Somerville","local":"Сомервилл","country":"US","lat":42.388,"lon":-71.1,"pop":80318,"tz":"America/New_York"},{"id":2222230,"name":"Sangmelima","local":"Сангмелима","country":"CM","lat":2.933,"lon":11.983,"pop":80036,"tz":"Africa/Douala"},{"id":2636876,"name":"Stockton-on-Tees","local":"Стоктон-он-Тис","country":"GB","lat":54.568,"lon":-1.319,"pop":79957,"tz":"Europe/London"},{"id":1298482,"name":"Sagaing","local":"Сагайн","country":"MM","lat":21.879,"lon":95.98,"pop":78739,"tz":"Asia/Yangon"},{"id":3448879,"name":"Sao Joao del Rei","local":"Сан-Жуан-дел-Рей","country":"BR","lat":-21.136,"lon":-44.262,"pop":78592,"tz":"America/Sao_Paulo"},{"id":3589404,"name":"Santa Cruz del Quiche","local":"Санта-Крус-дель-Киче","country":"GT","lat":15.03,"lon":-91.149,"pop":78279,"tz":"America/Guatemala"},{"id":3044310,"name":"Szombathely","local":"Сомбатхей","country":"HU","lat":47.231,"lon":16.622,"pop":78025,"tz":"Europe/Budapest"},{"id":4132093,"name":"Springdale","local":"Спрингдейл","country":"US","lat":36.187,"lon":-94.129,"pop":77859,"tz":"America/Chicago"},{"id":1898494,"name":"Songling","local":"Сунлин","country":"CN","lat":31.193,"lon":120.718,"pop":77566,"tz":"Asia/Shanghai"},{"id":2198148,"name":"Suva","local":"Сува","country":"FJ","lat":-18.137,"lon":178.425,"pop":77366,"tz":"Pacific/Fiji"},{"id":98459,"name":"As Suwayrah","local":"Сувайра","country":"IQ","lat":32.926,"lon":44.776,"pop":77200,"tz":"Asia/Baghdad"},{"id":759412,"name":"Siedlce","local":"Седльце","country":"PL","lat":52.168,"lon":22.29,"pop":77185,"tz":"Europe/Warsaw"},{"id":3492985,"name":"Santa Cruz de Barahona","local":"Санта-Крус-де-Бараона","country":"DO","lat":18.209,"lon":-71.101,"pop":77160,"tz":"America/Santo_Domingo"},{"id":5211303,"name":"Scranton","local":"Скрантон","country":"US","lat":41.409,"lon":-75.665,"pop":77118,"tz":"America/New_York"},{"id":1519691,"name":"Sarqant","local":"Сарканд","country":"KZ","lat":45.413,"lon":79.917,"pop":76919,"tz":"Asia/Almaty"},{"id":3449696,"name":"Santo Angelo","local":"Санту-Анджело","country":"BR","lat":-28.299,"lon":-54.263,"pop":76917,"tz":"America/Sao_Paulo"},{"id":4407010,"name":"Saint Joseph","local":"Сент-Джозеф","country":"US","lat":39.769,"lon":-94.847,"pop":76780,"tz":"America/Chicago"},{"id":1852502,"name":"Shiki","local":"Сики","country":"JP","lat":35.833,"lon":139.583,"pop":76445,"tz":"Asia/Tokyo"},{"id":5392593,"name":"San Ramon","local":"Сан-Рамон","country":"US","lat":37.78,"lon":-121.978,"pop":76134,"tz":"America/Los_Angeles"},{"id":1852595,"name":"Shibukawa","local":"Сибукава","country":"JP","lat":36.483,"lon":139.0,"pop":76098,"tz":"Asia/Tokyo"},{"id":3110040,"name":"San Sebastian de los Reyes","local":"Сан-Себастиан-де-лос-Рейес","country":"ES","lat":40.556,"lon":-3.627,"pop":75912,"tz":"Europe/Madrid"},{"id":2658822,"name":"Sankt Gallen","local":"Санкт-Галлен","country":"CH","lat":47.424,"lon":9.375,"pop":75833,"tz":"Europe/Zurich"},{"id":2747596,"name":"Schiedam","local":"Схидам","country":"NL","lat":51.919,"lon":4.389,"pop":75438,"tz":"Europe/Amsterdam"},{"id":2978179,"name":"Saint-Maur-des-Fosses","local":"Сен-Мор-де-Фоссе","country":"FR","lat":48.794,"lon":2.493,"pop":75402,"tz":"Europe/Paris"},{"id":1255616,"name":"Srivilliputhur","local":"Сривилипутхур","country":"IN","lat":9.513,"lon":77.634,"pop":75396,"tz":"Asia/Kolkata"},{"id":300808,"name":"Silifke","local":"Силифке","country":"TR","lat":36.378,"lon":33.934,"pop":75315,"tz":"Europe/Istanbul"},{"id":300797,"name":"Silopi","local":"Силопи","country":"TR","lat":37.244,"lon":42.463,"pop":74798,"tz":"Europe/Istanbul"},{"id":2519402,"name":"Ciudad Real","local":"Сьюдад-Реаль","country":"ES","lat":38.986,"lon":-3.929,"pop":74743,"tz":"Europe/Madrid"},{"id":2650405,"name":"East Kilbride","local":"Іст-Кілбрайд","country":"GB","lat":55.764,"lon":-4.177,"pop":74740,"tz":"Europe/London"},{"id":1835895,"name":"Seosan","local":"Сосан","country":"KR","lat":36.782,"lon":126.452,"pop":74208,"tz":"Asia/Seoul"},{"id":2033675,"name":"Xinmin","local":"Синьминь","country":"CN","lat":41.991,"lon":122.825,"pop":74139,"tz":"Asia/Shanghai"},{"id":3836620,"name":"San Ramon de la Nueva Oran","local":"Сан-Рамон-де-ла-Нуэва-Оран","country":"AR","lat":-23.137,"lon":-64.324,"pop":74059,"tz":"America/Argentina/Salta"},{"id":1732741,"name":"Taman Senai","local":"Сенаи","country":"MY","lat":1.601,"lon":103.642,"pop":73176,"tz":"Asia/Kuala_Lumpur"},{"id":5010636,"name":"Southfield","local":"Саутфилд","country":"US","lat":42.473,"lon":-83.222,"pop":73156,"tz":"America/Detroit"},{"id":3086024,"name":"Siemianowice Slaskie","local":"Семяновице-Слёнске","country":"PL","lat":50.327,"lon":19.029,"pop":73121,"tz":"Europe/Warsaw"},{"id":1831142,"name":"Sihanoukville","local":"Сиануквиль","country":"KH","lat":10.609,"lon":103.53,"pop":73036,"tz":"Asia/Phnom_Penh"},{"id":290104,"name":"Sitrah","local":"Ситра","country":"BH","lat":26.155,"lon":50.621,"pop":72601,"tz":"Asia/Bahrain"},{"id":785238,"name":"Suva Reka","local":"Сува Река","country":"XK","lat":42.359,"lon":20.825,"pop":72229,"tz":"Europe/Belgrade"},{"id":6141190,"name":"Sarnia","local":"Сарния","country":"CA","lat":42.979,"lon":-82.404,"pop":72125,"tz":"America/Toronto"},{"id":6141439,"name":"Sault Ste. Marie","local":"Су-Сент-Мари","country":"CA","lat":46.517,"lon":-84.333,"pop":72051,"tz":"America/Toronto"},{"id":515083,"name":"Sunzha","local":"Сунжа","country":"RU","lat":43.321,"lon":45.049,"pop":71841,"tz":"Europe/Moscow"},{"id":6138517,"name":"Saint John","local":"Сент-Джон","country":"CA","lat":45.271,"lon":-66.056,"pop":71808,"tz":"America/Moncton"},{"id":3448221,"name":"Sao Sebastiao do Paraiso","local":"Сан-Себастьян-ду-Параисо","country":"BR","lat":-20.917,"lon":-46.991,"pop":71796,"tz":"America/Sao_Paulo"},{"id":4369596,"name":"Silver Spring","local":"Силвер-Спринг","country":"US","lat":38.991,"lon":-77.026,"pop":71452,"tz":"America/New_York"},{"id":715126,"name":"Szolnok","local":"Сольнок","country":"HU","lat":47.181,"lon":20.198,"pop":71285,"tz":"Europe/Budapest"},{"id":3084840,"name":"Stargard","local":"Старгард","country":"PL","lat":53.337,"lon":15.05,"pop":71224,"tz":"Europe/Warsaw"},{"id":286245,"name":"Sur","local":"Сур","country":"OM","lat":22.567,"lon":59.529,"pop":71152,"tz":"Asia/Muscat"},{"id":4751839,"name":"Centreville","local":"Сентервил","country":"US","lat":38.84,"lon":-77.429,"pop":71135,"tz":"America/New_York"},{"id":2676176,"name":"Soedertaelje","local":"Сёдертелье","country":"SE","lat":59.196,"lon":17.625,"pop":70777,"tz":"Europe/Stockholm"},{"id":699445,"name":"Samar","local":"Самар","country":"UA","lat":48.629,"lon":35.259,"pop":70550,"tz":"Europe/Kyiv"},{"id":1255361,"name":"Suratgarh","local":"Суратгарх","country":"IN","lat":29.322,"lon":73.9,"pop":70536,"tz":"Asia/Kolkata"},{"id":2637142,"name":"Stafford","local":"Стаффорд","country":"GB","lat":52.805,"lon":-2.116,"pop":70145,"tz":"Europe/London"},{"id":1520692,"name":"Satpayev","local":"Сатпаев","country":"KZ","lat":47.904,"lon":67.541,"pop":69782,"tz":"Asia/Almaty"},{"id":757718,"name":"Suwalki","local":"Сувалки","country":"PL","lat":54.112,"lon":22.931,"pop":69222,"tz":"Europe/Warsaw"},{"id":2786578,"name":"Sint-Niklaas","local":"Синт-Никлас","country":"BE","lat":51.165,"lon":4.144,"pop":69010,"tz":"Europe/Brussels"},{"id":490172,"name":"Sosnovyy Bor","local":"Сосновый Бор","country":"RU","lat":59.9,"lon":29.086,"pop":68563,"tz":"Europe/Moscow"},{"id":3361934,"name":"Saldanha","local":"Салдана","country":"ZA","lat":-33.012,"lon":17.944,"pop":68284,"tz":"Africa/Johannesburg"},{"id":300399,"name":"Soeke","local":"Сок","country":"TR","lat":37.748,"lon":27.406,"pop":68230,"tz":"Europe/Istanbul"},{"id":11669854,"name":"Stamford Hill","local":"Стамфърд Хил","country":"GB","lat":51.569,"lon":-0.073,"pop":68050,"tz":"Europe/London"},{"id":2511306,"name":"Sanlucar de Barrameda","local":"Санлукар-де-Баррамеда","country":"ES","lat":36.778,"lon":-6.351,"pop":68037,"tz":"Europe/Madrid"},{"id":146054,"name":"Strovolos","local":"Строволос","country":"CY","lat":35.149,"lon":33.334,"pop":67904,"tz":"Asia/Nicosia"},{"id":1606418,"name":"Saraburi","local":"Сарабури","country":"TH","lat":14.533,"lon":100.917,"pop":67763,"tz":"Asia/Bangkok"},{"id":3516843,"name":"Santo Domingo Tehuantepec","local":"Санто-Доминго-Теуантепек","country":"MX","lat":16.325,"lon":-95.241,"pop":67739,"tz":"America/Mexico_City"},{"id":3979673,"name":"Ixtapa-Zihuatanejo","local":"Сиуатанехо","country":"MX","lat":17.643,"lon":-101.552,"pop":67408,"tz":"America/Mexico_City"},{"id":1257436,"name":"Sangamner","local":"Сангамнер","country":"IN","lat":19.568,"lon":74.212,"pop":67309,"tz":"Asia/Kolkata"},{"id":5397765,"name":"South San Francisco","local":"Саус-Сан-Франциско","country":"US","lat":37.655,"lon":-122.408,"pop":67271,"tz":"America/Los_Angeles"},{"id":1852003,"name":"Shiojiri","local":"Сиодзири","country":"JP","lat":36.1,"lon":137.967,"pop":67241,"tz":"Asia/Tokyo"},{"id":2977921,"name":"Saint-Nazaire","local":"Сен-Назер","country":"FR","lat":47.275,"lon":-2.218,"pop":67054,"tz":"Europe/Paris"},{"id":2675397,"name":"Solna","local":"Сольна","country":"SE","lat":59.36,"lon":18.001,"pop":66909,"tz":"Europe/Stockholm"},{"id":2481246,"name":"Sidi Aissa","local":"Сиди-Аисса","country":"DZ","lat":35.885,"lon":3.772,"pop":66856,"tz":"Africa/Algiers"},{"id":1853237,"name":"Saiki","local":"Саики","country":"JP","lat":32.95,"lon":131.9,"pop":66851,"tz":"Asia/Tokyo"},{"id":637219,"name":"Seinaejoki","local":"Сейняйоки","country":"FI","lat":62.794,"lon":22.828,"pop":66848,"tz":"Europe/Helsinki"},{"id":5781770,"name":"South Jordan","local":"Саут-Джордан","country":"US","lat":40.562,"lon":-111.93,"pop":66648,"tz":"America/Denver"},{"id":1688232,"name":"Santa Cruz","local":"Санта-Крус","country":"PH","lat":15.765,"lon":119.909,"pop":66647,"tz":"Asia/Manila"},{"id":758445,"name":"Stalowa Wola","local":"Сталёва-Воля","country":"PL","lat":50.583,"lon":22.053,"pop":66495,"tz":"Europe/Warsaw"},{"id":693457,"name":"Smila","local":"Смела","country":"UA","lat":49.233,"lon":31.884,"pop":66475,"tz":"Europe/Kyiv"},{"id":461698,"name":"Sosnovka","local":"Сосновка","country":"RU","lat":60.017,"lon":30.35,"pop":66227,"tz":"Europe/Moscow"},{"id":3717588,"name":"Saint-Marc","local":"Сен-Марк","country":"HT","lat":19.111,"lon":-72.701,"pop":66226,"tz":"America/Port-au-Prince"},{"id":2511619,"name":"Sagunto","local":"Сагунто","country":"ES","lat":39.683,"lon":-0.267,"pop":66070,"tz":"Europe/Madrid"},{"id":300796,"name":"Silvan","local":"Сильван","country":"TR","lat":38.137,"lon":41.008,"pop":65956,"tz":"Europe/Istanbul"},{"id":4679867,"name":"Cedar Park","local":"Сидар-Парк","country":"US","lat":30.505,"lon":-97.82,"pop":65945,"tz":"America/Chicago"},{"id":300371,"name":"Soma","local":"Сомы","country":"TR","lat":39.186,"lon":27.609,"pop":65934,"tz":"Europe/Istanbul"},{"id":4406831,"name":"Saint Charles","local":"Сент-Чарльз","country":"US","lat":38.784,"lon":-90.481,"pop":65794,"tz":"America/Chicago"},{"id":5391791,"name":"San Clemente","local":"Сан-Клементе","country":"US","lat":33.427,"lon":-117.612,"pop":65526,"tz":"America/Los_Angeles"},{"id":611847,"name":"Sokhumi","local":"Сухум","country":"GE","lat":43.007,"lon":40.989,"pop":65439,"tz":"Europe/Moscow"},{"id":5136454,"name":"Schenectady","local":"Скенектади","country":"US","lat":42.814,"lon":-73.94,"pop":65305,"tz":"America/New_York"},{"id":1256119,"name":"Sinnar","local":"Синнар","country":"IN","lat":19.845,"lon":73.999,"pop":65299,"tz":"Asia/Kolkata"},{"id":492094,"name":"Slavyansk-na-Kubani","local":"Славянск-на-Кубани","country":"RU","lat":45.251,"lon":38.121,"pop":65196,"tz":"Europe/Moscow"},{"id":4911600,"name":"Skokie","local":"Скоки","country":"US","lat":42.033,"lon":-87.733,"pop":64821,"tz":"America/Chicago"},{"id":5377654,"name":"North Hollywood","local":"Северный Голливуд","country":"US","lat":34.172,"lon":-118.379,"pop":64587,"tz":"America/Los_Angeles"},{"id":3140390,"name":"Sandefjord","local":"Саннефьорд","country":"NO","lat":59.131,"lon":10.217,"pop":64345,"tz":"Europe/Oslo"},{"id":5393052,"name":"Santa Cruz","local":"Санта-Крус","country":"US","lat":36.974,"lon":-122.031,"pop":64220,"tz":"America/Los_Angeles"},{"id":1164896,"name":"Sibi","local":"Сиби","country":"PK","lat":29.543,"lon":67.877,"pop":64069,"tz":"Asia/Karachi"},{"id":666767,"name":"Slatina","local":"Слатина","country":"RO","lat":44.433,"lon":24.367,"pop":63487,"tz":"Europe/Bucharest"},{"id":300352,"name":"Sorgun","local":"Соргуне","country":"TR","lat":39.81,"lon":35.186,"pop":62862,"tz":"Europe/Istanbul"},{"id":1733697,"name":"Semporna","local":"Семпорна","country":"MY","lat":4.482,"lon":118.611,"pop":62641,"tz":"Asia/Kuching"},{"id":621074,"name":"Svetlogorsk","local":"Светлогорск","country":"BY","lat":52.633,"lon":29.739,"pop":62602,"tz":"Europe/Minsk"},{"id":2111018,"name":"Shiroi","local":"Сирои","country":"JP","lat":35.8,"lon":140.067,"pop":62441,"tz":"Asia/Tokyo"},{"id":3389860,"name":"Salgueiro","local":"Салгейру","country":"BR","lat":-8.074,"lon":-39.119,"pop":62372,"tz":"America/Recife"},{"id":1256388,"name":"Sibsagar","local":"Сибсагар","country":"IN","lat":26.984,"lon":94.638,"pop":62104,"tz":"Asia/Kolkata"},{"id":785756,"name":"Smederevo","local":"Смедерево","country":"RS","lat":44.664,"lon":20.928,"pop":62000,"tz":"Europe/Belgrade"},{"id":3104342,"name":"Zamora","local":"Самора","country":"ES","lat":41.506,"lon":-5.745,"pop":61827,"tz":"Europe/Madrid"},{"id":1606147,"name":"Songkhla","local":"Сонгкхла","country":"TH","lat":7.199,"lon":100.595,"pop":61758,"tz":"Asia/Bangkok"},{"id":2638419,"name":"Scarborough","local":"Скарборо","country":"GB","lat":54.28,"lon":-0.404,"pop":61749,"tz":"Europe/London"},{"id":493160,"name":"Sibay","local":"Сибай","country":"RU","lat":52.718,"lon":58.667,"pop":61590,"tz":"Asia/Yekaterinburg"},{"id":692372,"name":"Stryi","local":"Стрый","country":"UA","lat":49.261,"lon":23.848,"pop":61404,"tz":"Europe/Kyiv"},{"id":3167022,"name":"Savona","local":"Савона","country":"IT","lat":44.309,"lon":8.477,"pop":61345,"tz":"Europe/Rome"},{"id":2015833,"name":"Svobodnyy","local":"Свободный","country":"RU","lat":51.375,"lon":128.14,"pop":61017,"tz":"Asia/Yakutsk"},{"id":499161,"name":"Sal'sk","local":"Сальск","country":"RU","lat":46.475,"lon":41.542,"pop":61000,"tz":"Europe/Moscow"},{"id":486968,"name":"Stupino","local":"Ступино","country":"RU","lat":54.897,"lon":38.068,"pop":60999,"tz":"Europe/Moscow"},{"id":5754005,"name":"Springfield","local":"Спрингфилд","country":"US","lat":44.046,"lon":-123.022,"pop":60870,"tz":"America/Los_Angeles"},{"id":2786824,"name":"Seraing","local":"Серен","country":"BE","lat":50.584,"lon":5.501,"pop":60737,"tz":"Europe/Brussels"},{"id":4726491,"name":"San Marcos","local":"Сан-Маркос","country":"US","lat":29.883,"lon":-97.941,"pop":60684,"tz":"America/Chicago"},{"id":4013712,"name":"Ciudad Hidalgo","local":"Сьюдад-Идальго","country":"MX","lat":19.69,"lon":-100.555,"pop":60542,"tz":"America/Mexico_City"},{"id":3587587,"name":"Zacapa","local":"Сакапа","country":"GT","lat":14.969,"lon":-89.527,"pop":60424,"tz":"America/Guatemala"},{"id":3084093,"name":"Swidnica","local":"Свидница","country":"PL","lat":50.844,"lon":16.489,"pop":60351,"tz":"Europe/Warsaw"},{"id":6822175,"name":"Shimotsuke","local":"Симоцуке","country":"JP","lat":36.413,"lon":139.866,"pop":60274,"tz":"Asia/Tokyo"},{"id":2636616,"name":"Stroud","local":"Страуд","country":"GB","lat":51.75,"lon":-2.2,"pop":60155,"tz":"Europe/London"},{"id":621741,"name":"Slutsk","local":"Слуцк","country":"BY","lat":53.015,"lon":27.542,"pop":60056,"tz":"Europe/Minsk"},{"id":3449340,"name":"Sao Borja","local":"Сан-Борха","country":"BR","lat":-28.661,"lon":-56.004,"pop":60019,"tz":"America/Sao_Paulo"},{"id":485630,"name":"Sviblovo","local":"Свиблово","country":"RU","lat":55.85,"lon":37.633,"pop":60000,"tz":"Europe/Moscow"},{"id":1261181,"name":"North Lakhimpur","local":"Северный Лакхимпур","country":"IN","lat":27.235,"lon":94.104,"pop":59841,"tz":"Asia/Kolkata"},{"id":4525353,"name":"Springfield","local":"Спрингфилд","country":"US","lat":39.924,"lon":-83.809,"pop":59680,"tz":"America/New_York"},{"id":3583102,"name":"Sonsonate","local":"Сонсонате","country":"SV","lat":13.717,"lon":-89.723,"pop":59468,"tz":"America/El_Salvador"},{"id":5392567,"name":"San Rafael","local":"Сан-Рафел","country":"US","lat":37.974,"lon":-122.531,"pop":59162,"tz":"America/Los_Angeles"},{"id":3140084,"name":"Sarpsborg","local":"Сарпсборг","country":"NO","lat":59.284,"lon":11.11,"pop":59038,"tz":"Europe/Oslo"},{"id":3944797,"name":"Cerro de Pasco","local":"Серро-де-Паско","country":"PE","lat":-10.666,"lon":-76.253,"pop":58899,"tz":"America/Lima"},{"id":490996,"name":"Solnechnogorsk","local":"Солнечногорск","country":"RU","lat":56.175,"lon":36.971,"pop":58891,"tz":"Europe/Moscow"},{"id":1853066,"name":"Sakurai","local":"Сакураи","country":"JP","lat":34.5,"lon":135.85,"pop":58386,"tz":"Asia/Tokyo"},{"id":734330,"name":"Serres","local":"Серре","country":"GR","lat":41.085,"lon":23.548,"pop":58287,"tz":"Europe/Athens"},{"id":1256269,"name":"Sillod","local":"Силлод","country":"IN","lat":20.303,"lon":75.653,"pop":58230,"tz":"Asia/Kolkata"},{"id":4172086,"name":"Sanford","local":"Санфорд","country":"US","lat":28.801,"lon":-81.273,"pop":58111,"tz":"America/New_York"},{"id":2976043,"name":"Sarcelles","local":"Сарсель","country":"FR","lat":48.997,"lon":2.378,"pop":57979,"tz":"Europe/Paris"},{"id":3668454,"name":"Santa Rosa de Cabal","local":"Санта-Роса-де-Кабаль","country":"CO","lat":4.868,"lon":-75.621,"pop":57928,"tz":"America/Bogota"},{"id":5393429,"name":"Santee","local":"Санти","country":"US","lat":32.838,"lon":-116.974,"pop":57787,"tz":"America/Los_Angeles"},{"id":6155033,"name":"St. Albert","local":"Сент Алберт","country":"CA","lat":53.633,"lon":-113.635,"pop":57719,"tz":"America/Edmonton"},{"id":2670781,"name":"Sundsvall","local":"Сундсвалль","country":"SE","lat":62.391,"lon":17.306,"pop":57606,"tz":"Europe/Stockholm"},{"id":3027883,"name":"Cergy","local":"Сержи","country":"FR","lat":49.036,"lon":2.076,"pop":57576,"tz":"Europe/Paris"},{"id":1687534,"name":"Santo Tomas","local":"Санто-Томас","country":"PH","lat":14.108,"lon":121.141,"pop":57438,"tz":"Asia/Manila"},{"id":935268,"name":"Saint-Andre","local":"Санкт-Андре","country":"RE","lat":-20.963,"lon":55.65,"pop":57150,"tz":"Indian/Reunion"},{"id":491250,"name":"Sokol'niki","local":"Сокольники","country":"RU","lat":55.802,"lon":37.672,"pop":57000,"tz":"Europe/Moscow"},{"id":491280,"name":"Sokol","local":"Сокол","country":"RU","lat":55.8,"lon":37.517,"pop":57000,"tz":"Europe/Moscow"},{"id":1256854,"name":"Sendhwa","local":"Сендхва","country":"IN","lat":21.686,"lon":75.096,"pop":56485,"tz":"Asia/Kolkata"},{"id":2411880,"name":"Sukuta","local":"Сукута","country":"GM","lat":13.41,"lon":-16.708,"pop":56472,"tz":"Africa/Banjul"},{"id":2636769,"name":"Stourbridge","local":"Стоурбридж","country":"GB","lat":52.456,"lon":-2.143,"pop":56284,"tz":"Europe/London"},{"id":4223379,"name":"Smyrna","local":"Смирна","country":"US","lat":33.884,"lon":-84.514,"pop":56146,"tz":"America/New_York"},{"id":2841648,"name":"Sankt Augustin","local":"Санкт-Августин","country":"DE","lat":50.775,"lon":7.197,"pop":56094,"tz":"Europe/Berlin"},{"id":3449720,"name":"Santo Amaro","local":"Санту-Амару","country":"BR","lat":-12.547,"lon":-38.712,"pop":56012,"tz":"America/Bahia"},{"id":2638678,"name":"Sale","local":"Сейл","country":"GB","lat":53.425,"lon":-2.324,"pop":55689,"tz":"Europe/London"},{"id":933088,"name":"Serowe","local":"Серова","country":"BW","lat":-22.388,"lon":26.711,"pop":55676,"tz":"Africa/Gaborone"},{"id":3083988,"name":"Swietochlowice","local":"Свентохловице","country":"PL","lat":50.296,"lon":18.917,"pop":55600,"tz":"Europe/Warsaw"},{"id":693381,"name":"Snizhne","local":"Снежное","country":"UA","lat":48.026,"lon":38.772,"pop":55587,"tz":"Europe/Kyiv"},{"id":3190966,"name":"Sesvete","local":"Сесвете","country":"HR","lat":45.831,"lon":16.116,"pop":55313,"tz":"Europe/Zagreb"},{"id":4172131,"name":"Sarasota","local":"Сарасота","country":"US","lat":27.336,"lon":-82.531,"pop":55118,"tz":"America/New_York"},{"id":6138501,"name":"Saint-Jerome","local":"Сен-Жером","country":"CA","lat":45.78,"lon":-74.004,"pop":54948,"tz":"America/Toronto"},{"id":1256369,"name":"Sidhi","local":"Сидхи","country":"IN","lat":24.404,"lon":81.88,"pop":54331,"tz":"Asia/Kolkata"},{"id":4733624,"name":"Spring","local":"Спрингтаун","country":"US","lat":30.08,"lon":-95.417,"pop":54298,"tz":"America/Chicago"},{"id":13546342,"name":"Samba","local":"Самба","country":"AO","lat":-8.88,"lon":13.196,"pop":54000,"tz":"Africa/Luanda"},{"id":2975921,"name":"Sartrouville","local":"Сартрувил","country":"FR","lat":48.948,"lon":2.192,"pop":53980,"tz":"Europe/Paris"},{"id":935223,"name":"Saint-Louis","local":"Сен-Луи","country":"RE","lat":-21.286,"lon":55.411,"pop":53935,"tz":"Indian/Reunion"},{"id":496278,"name":"Severomorsk","local":"Североморск","country":"RU","lat":69.069,"lon":33.408,"pop":53921,"tz":"Europe/Moscow"},{"id":3166548,"name":"Siena","local":"Сиена","country":"IT","lat":43.318,"lon":11.331,"pop":53901,"tz":"Europe/Rome"},{"id":758390,"name":"Starachowice","local":"Стараховице","country":"PL","lat":51.037,"lon":21.071,"pop":53739,"tz":"Europe/Warsaw"},{"id":358620,"name":"Safaga","local":"Сафага","country":"EG","lat":26.749,"lon":33.939,"pop":53639,"tz":"Africa/Cairo"},{"id":1606033,"name":"Suphan Buri","local":"Суфан Бури","country":"TH","lat":14.474,"lon":100.122,"pop":53399,"tz":"Asia/Bangkok"},{"id":3388269,"name":"Sao Miguel dos Campos","local":"Сан-Мигель-дус-Кампус","country":"BR","lat":-9.781,"lon":-36.094,"pop":53391,"tz":"America/Maceio"},{"id":693065,"name":"Sotsmisto","local":"Соцмісто","country":"UA","lat":48.737,"lon":37.591,"pop":53370,"tz":"Europe/Kyiv"},{"id":2410763,"name":"Sao Tome","local":"Сан-Томе","country":"ST","lat":0.338,"lon":6.73,"pop":53300,"tz":"Africa/Sao_Tome"},{"id":3352844,"name":"Swakopmund","local":"Свакопмунд","country":"NA","lat":-22.678,"lon":14.527,"pop":53009,"tz":"Africa/Windhoek"},{"id":2981280,"name":"Saint-Brieuc","local":"Сент-Брие","country":"FR","lat":48.515,"lon":-2.768,"pop":52774,"tz":"Europe/Paris"},{"id":3449176,"name":"Sao Francisco","local":"Сан-Франсиску","country":"BR","lat":-15.949,"lon":-44.864,"pop":52762,"tz":"America/Sao_Paulo"},{"id":3449112,"name":"Sao Francisco do Sul","local":"Сан-Франсиску-ду-Сул","country":"BR","lat":-26.243,"lon":-48.638,"pop":52674,"tz":"America/Sao_Paulo"},{"id":2111049,"name":"Shiogama","local":"Сиогама","country":"JP","lat":38.317,"lon":141.033,"pop":52662,"tz":"Asia/Tokyo"},{"id":4446675,"name":"Southaven","local":"Саутавен","country":"US","lat":34.989,"lon":-90.013,"pop":52589,"tz":"America/Chicago"},{"id":4407237,"name":"Saint Peters","local":"Сейнт Питерс","country":"US","lat":38.8,"lon":-90.627,"pop":52575,"tz":"America/Chicago"},{"id":4685524,"name":"DeSoto","local":"Сото","country":"US","lat":32.59,"lon":-96.857,"pop":52486,"tz":"America/Chicago"},{"id":114593,"name":"Shush","local":"Сузы","country":"IR","lat":32.194,"lon":48.244,"pop":52284,"tz":"Asia/Tehran"},{"id":5809402,"name":"Sammamish","local":"Самамиш","country":"US","lat":47.642,"lon":-122.08,"pop":52253,"tz":"America/Los_Angeles"},{"id":1185120,"name":"Sandwip","local":"Сандвип","country":"BD","lat":22.514,"lon":91.455,"pop":52152,"tz":"Asia/Dhaka"},{"id":1127110,"name":"Sar-e Pul","local":"Сари-Пуль","country":"AF","lat":36.215,"lon":65.932,"pop":52121,"tz":"Asia/Kabul"},{"id":3576022,"name":"Saint John's","local":"Сент-Джонс","country":"AG","lat":17.121,"lon":-61.843,"pop":51737,"tz":"America/Antigua"},{"id":3109256,"name":"Segovia","local":"Сеговия","country":"ES","lat":40.948,"lon":-4.118,"pop":51683,"tz":"Europe/Madrid"},{"id":4843811,"name":"Stratford","local":"Стратфорд","country":"US","lat":41.185,"lon":-73.133,"pop":51384,"tz":"America/New_York"},{"id":899274,"name":"Samfya","local":"Самфья","country":"ZM","lat":-11.365,"lon":29.557,"pop":51309,"tz":"Africa/Lusaka"},{"id":6822195,"name":"Susono","local":"Сусоно","country":"JP","lat":35.174,"lon":138.907,"pop":51216,"tz":"Asia/Tokyo"},{"id":1256363,"name":"Sidlaghatta","local":"Сидлагхатта","country":"IN","lat":13.389,"lon":77.864,"pop":51159,"tz":"Asia/Kolkata"},{"id":2637126,"name":"Staines","local":"Стејнс","country":"GB","lat":51.431,"lon":-0.506,"pop":51040,"tz":"Europe/London"},{"id":637948,"name":"Salo","local":"Сало","country":"FI","lat":60.383,"lon":23.133,"pop":50794,"tz":"Europe/Helsinki"},{"id":2978640,"name":"Saint-Malo","local":"Сен-Мало","country":"FR","lat":48.647,"lon":-2.009,"pop":50676,"tz":"Europe/Paris"},{"id":2295065,"name":"Suhum","local":"Сухум","country":"GH","lat":6.041,"lon":-0.45,"pop":50610,"tz":"Africa/Accra"},{"id":6138374,"name":"Saint-Hyacinthe","local":"Санкт-Гиацинт","country":"CA","lat":45.631,"lon":-72.957,"pop":50326,"tz":"America/Toronto"},{"id":2787413,"name":"Saint-Gilles","local":"Сен-Жиль","country":"BE","lat":50.828,"lon":4.344,"pop":50221,"tz":"Europe/Brussels"},{"id":3979846,"name":"Zacapu","local":"Сакапу","country":"MX","lat":19.815,"lon":-101.792,"pop":50112,"tz":"America/Mexico_City"},{"id":1536289,"name":"Snezhinsk","local":"Снежинск","country":"RU","lat":56.078,"lon":60.748,"pop":50086,"tz":"Asia/Yekaterinburg"},{"id":667303,"name":"Sfantu Gheorghe","local":"Сфэнту-Георг","country":"RO","lat":45.867,"lon":25.783,"pop":50080,"tz":"Europe/Bucharest"},{"id":497271,"name":"Semenovskoye","local":"Семёновское","country":"RU","lat":55.683,"lon":37.55,"pop":50000,"tz":"Europe/Moscow"},{"id":5335663,"name":"Cerritos","local":"Серритос","country":"US","lat":33.858,"lon":-118.065,"pop":49975,"tz":"America/Los_Angeles"},{"id":1492893,"name":"Sayanogorsk","local":"Саяногорск","country":"RU","lat":53.1,"lon":91.407,"pop":49939,"tz":"Asia/Krasnoyarsk"},{"id":7315245,"name":"East Honolulu","local":"Іст-Гонолулу","country":"US","lat":21.289,"lon":-157.717,"pop":49914,"tz":"Pacific/Honolulu"},{"id":6180176,"name":"Whitchurch-Stouffville","local":"Іст-Гвіллімбері","country":"CA","lat":44.0,"lon":-79.316,"pop":49864,"tz":"America/Toronto"},{"id":1257196,"name":"Sardhana","local":"Сардхана","country":"IN","lat":29.146,"lon":77.614,"pop":49857,"tz":"Asia/Kolkata"},{"id":2614030,"name":"Silkeborg","local":"Силькеборг","country":"DK","lat":56.17,"lon":9.545,"pop":49747,"tz":"Europe/Copenhagen"},{"id":759141,"name":"Skarzysko-Kamienna","local":"Скаржиско-Каменна","country":"PL","lat":51.113,"lon":20.872,"pop":49410,"tz":"Europe/Warsaw"},{"id":498418,"name":"Satka","local":"Сатка","country":"RU","lat":55.041,"lon":59.047,"pop":49384,"tz":"Asia/Yekaterinburg"},{"id":5007989,"name":"Saginaw","local":"Сагино","country":"US","lat":43.419,"lon":-83.951,"pop":49347,"tz":"America/Detroit"},{"id":5341256,"name":"Cypress","local":"Сайпресс","country":"US","lat":33.817,"lon":-118.037,"pop":49290,"tz":"America/Los_Angeles"},{"id":1493197,"name":"Salekhard","local":"Салехард","country":"RU","lat":66.534,"lon":66.61,"pop":49214,"tz":"Asia/Yekaterinburg"},{"id":759123,"name":"Skierniewice","local":"Скерневице","country":"PL","lat":51.955,"lon":20.158,"pop":49042,"tz":"Europe/Warsaw"},{"id":1851368,"name":"Suwa","local":"Сува","country":"JP","lat":36.038,"lon":138.113,"pop":48972,"tz":"Asia/Tokyo"},{"id":4552215,"name":"Stillwater","local":"Стилвотер","country":"US","lat":36.116,"lon":-97.058,"pop":48967,"tz":"America/Chicago"},{"id":3449741,"name":"Santiago","local":"Сантьяго","country":"BR","lat":-29.192,"lon":-54.867,"pop":48938,"tz":"America/Sao_Paulo"},{"id":621754,"name":"Slonim","local":"Слоним","country":"BY","lat":53.088,"lon":25.317,"pop":48907,"tz":"Europe/Minsk"},{"id":4597919,"name":"Summerville","local":"Саммервилл","country":"US","lat":33.019,"lon":-80.176,"pop":48848,"tz":"America/New_York"},{"id":4679803,"name":"Cedar Hill","local":"Сидар Хил","country":"US","lat":32.588,"lon":-96.956,"pop":48507,"tz":"America/Chicago"},{"id":3190342,"name":"Sombor","local":"Сомбор","country":"RS","lat":45.774,"lon":19.112,"pop":48454,"tz":"Europe/Belgrade"},{"id":6822168,"name":"Sanmu","local":"Самму","country":"JP","lat":35.628,"lon":140.418,"pop":48444,"tz":"Asia/Tokyo"},{"id":2747203,"name":"Sittard","local":"Ситтард","country":"NL","lat":50.998,"lon":5.869,"pop":48400,"tz":"Europe/Amsterdam"},{"id":490377,"name":"Sosnovaya Polyana","local":"Сосновая Поляна","country":"RU","lat":59.835,"lon":30.147,"pop":48271,"tz":"Europe/Moscow"},{"id":7828758,"name":"Saipan","local":"Сайпан","country":"MP","lat":15.212,"lon":145.755,"pop":48220,"tz":"Pacific/Saipan"},{"id":3389006,"name":"Sao Bento","local":"Сан-Бенту","country":"BR","lat":-2.696,"lon":-44.821,"pop":48036,"tz":"America/Fortaleza"},{"id":1127768,"name":"Aibak","local":"Саманган","country":"AF","lat":36.265,"lon":68.016,"pop":47823,"tz":"Asia/Kabul"},{"id":4278890,"name":"Salina","local":"Салина","country":"US","lat":38.84,"lon":-97.611,"pop":47813,"tz":"America/Chicago"},{"id":2465840,"name":"Sidi Bouzid","local":"Сиди-Бу-Зид","country":"TN","lat":35.038,"lon":9.485,"pop":47595,"tz":"Africa/Tunis"},{"id":3389384,"name":"Santana do Ipanema","local":"Сантана-ду-Ипанема","country":"BR","lat":-9.378,"lon":-37.245,"pop":47397,"tz":"America/Maceio"},{"id":5392323,"name":"San Luis Obispo","local":"Сан Луис Обиспо","country":"US","lat":35.283,"lon":-120.66,"pop":47339,"tz":"America/Los_Angeles"},{"id":2974681,"name":"Sevran","local":"Севран","country":"FR","lat":48.945,"lon":2.527,"pop":47334,"tz":"Europe/Paris"},{"id":3084826,"name":"Starogard Gdanski","local":"Старогард-Гданьски","country":"PL","lat":53.964,"lon":18.526,"pop":47272,"tz":"Europe/Warsaw"},{"id":1688398,"name":"Santa Ana","local":"Санта-Ана","country":"PH","lat":15.095,"lon":120.767,"pop":47158,"tz":"Asia/Manila"},{"id":3589805,"name":"San Marcos","local":"Сан-Маркос","country":"GT","lat":14.964,"lon":-91.795,"pop":47063,"tz":"America/Guatemala"},{"id":3167777,"name":"Sanremo","local":"Сан-Ремо","country":"IT","lat":43.817,"lon":7.777,"pop":47043,"tz":"Europe/Rome"},{"id":5392090,"name":"San Jacinto","local":"Сан-Джасинто","country":"US","lat":33.784,"lon":-116.959,"pop":46951,"tz":"America/Los_Angeles"},{"id":2979590,"name":"Saint-Herblain","local":"Сен-Ерблен","country":"FR","lat":47.212,"lon":-1.651,"pop":46898,"tz":"Europe/Paris"},{"id":1213713,"name":"Singkil","local":"Сингкил","country":"ID","lat":2.287,"lon":97.788,"pop":46800,"tz":"Asia/Jakarta"},{"id":1537939,"name":"Stepnogorsk","local":"Степногорск","country":"KZ","lat":52.351,"lon":71.882,"pop":46736,"tz":"Asia/Almaty"},{"id":1606030,"name":"Surin","local":"Сурин","country":"TH","lat":14.882,"lon":103.494,"pop":46673,"tz":"Asia/Bangkok"},{"id":4658590,"name":"Smyrna","local":"Смирна","country":"US","lat":35.983,"lon":-86.519,"pop":46607,"tz":"America/Chicago"},{"id":1159716,"name":"Sarakhs","local":"Сарахс","country":"IR","lat":36.545,"lon":61.158,"pop":46499,"tz":"Asia/Tehran"},{"id":874045,"name":"Staryy Malgobek","local":"Старый Малгобек","country":"RU","lat":43.544,"lon":44.596,"pop":46334,"tz":"Europe/Moscow"},{"id":1606939,"name":"Sadao","local":"Садао","country":"TH","lat":6.639,"lon":100.423,"pop":46236,"tz":"Asia/Bangkok"},{"id":3057478,"name":"Stare Mesto","local":"Старе Место","country":"SK","lat":48.15,"lon":17.09,"pop":46080,"tz":"Europe/Bratislava"},{"id":499453,"name":"Safonovo","local":"Сафоново","country":"RU","lat":55.111,"lon":33.237,"pop":46000,"tz":"Europe/Moscow"},{"id":3168550,"name":"San Benedetto del Tronto","local":"Сан-Бенедетто-дель-Тронто","country":"IT","lat":42.957,"lon":13.877,"pop":45873,"tz":"Europe/Rome"},{"id":3588698,"name":"Solola","local":"Солола","country":"GT","lat":14.771,"lon":-91.183,"pop":45373,"tz":"America/Guatemala"},{"id":2016187,"name":"Spassk-Dal'niy","local":"Спасск-Дальний","country":"RU","lat":44.601,"lon":132.82,"pop":45265,"tz":"Asia/Vladivostok"},{"id":3428992,"name":"San Isidro","local":"Сан Исидро","country":"AR","lat":-34.47,"lon":-58.521,"pop":45190,"tz":"America/Argentina/Buenos_Aires"},{"id":1255437,"name":"Sundergarh","local":"Сундаргарх","country":"IN","lat":22.117,"lon":84.033,"pop":45036,"tz":"Asia/Kolkata"},{"id":3190586,"name":"Slavonski Brod","local":"Славонски-Брод","country":"HR","lat":45.162,"lon":18.016,"pop":45005,"tz":"Europe/Zagreb"},{"id":3166988,"name":"Scandicci","local":"Скандиччи","country":"IT","lat":43.754,"lon":11.188,"pop":44951,"tz":"Europe/Rome"},{"id":5104404,"name":"Sayreville","local":"Сејрвил","country":"US","lat":40.459,"lon":-74.361,"pop":44920,"tz":"America/New_York"},{"id":3449933,"name":"Santana do Paraiso","local":"Сантана-ду-Параисо","country":"BR","lat":-19.364,"lon":-42.569,"pop":44800,"tz":"America/Sao_Paulo"},{"id":3448616,"name":"Sao Lourenco","local":"Сан-Лоренсу","country":"BR","lat":-22.116,"lon":-45.054,"pop":44798,"tz":"America/Sao_Paulo"},{"id":1490796,"name":"Strezhevoy","local":"Стрежевой","country":"RU","lat":60.733,"lon":77.589,"pop":44784,"tz":"Asia/Tomsk"},{"id":8858089,"name":"San Buenaventura","local":"Сан Буенавентура","country":"MX","lat":19.302,"lon":-98.863,"pop":44761,"tz":"America/Mexico_City"},{"id":1606239,"name":"Si Sa Ket","local":"Си Са Кет","country":"TH","lat":15.115,"lon":104.329,"pop":44751,"tz":"Asia/Bangkok"},{"id":2638664,"name":"Salisbury","local":"Солсбери","country":"GB","lat":51.069,"lon":-1.796,"pop":44748,"tz":"Europe/London"},{"id":2973675,"name":"Suresnes","local":"Сюрен","country":"FR","lat":48.871,"lon":2.229,"pop":44697,"tz":"Europe/Paris"},{"id":5173237,"name":"Strongsville","local":"Стронгсвилл","country":"US","lat":41.315,"lon":-81.836,"pop":44668,"tz":"America/New_York"},{"id":3085978,"name":"Sieradz","local":"Серадз","country":"PL","lat":51.596,"lon":18.73,"pop":44436,"tz":"Europe/Warsaw"},{"id":3449529,"name":"Santo Antonio da Platina","local":"Санту-Антониу-да-Платина","country":"BR","lat":-23.295,"lon":-50.077,"pop":44369,"tz":"America/Sao_Paulo"},{"id":1852046,"name":"Shinshiro","local":"Синсиро","country":"JP","lat":34.9,"lon":137.5,"pop":44355,"tz":"Asia/Tokyo"},{"id":4369190,"name":"Severn","local":"Северн","country":"US","lat":39.137,"lon":-76.698,"pop":44231,"tz":"America/New_York"},{"id":1513578,"name":"Xonobod","local":"Советабад","country":"UZ","lat":40.803,"lon":72.975,"pop":44000,"tz":"Asia/Tashkent"},{"id":4166233,"name":"North Miami Beach","local":"Северный Майами-Бич","country":"US","lat":25.933,"lon":-80.163,"pop":43971,"tz":"America/New_York"},{"id":2055166,"name":"Sayansk","local":"Саянск","country":"RU","lat":54.113,"lon":102.178,"pop":43949,"tz":"Asia/Irkutsk"},{"id":202326,"name":"Cyangugu","local":"Сиангугу","country":"RW","lat":-2.485,"lon":28.907,"pop":43866,"tz":"Africa/Kigali"},{"id":3652100,"name":"Salinas","local":"Салинас","country":"EC","lat":-2.215,"lon":-80.952,"pop":43862,"tz":"America/Guayaquil"},{"id":496519,"name":"Sertolovo","local":"Сертолово","country":"RU","lat":60.144,"lon":30.202,"pop":43622,"tz":"Europe/Moscow"},{"id":2111248,"name":"Sagae","local":"Сагаэ","country":"JP","lat":38.373,"lon":140.273,"pop":43544,"tz":"Asia/Tokyo"},{"id":1690666,"name":"Samal","local":"Самал","country":"PH","lat":7.074,"lon":125.708,"pop":43526,"tz":"Asia/Manila"},{"id":4843378,"name":"Southington","local":"Саутингтон","country":"US","lat":41.596,"lon":-72.878,"pop":43501,"tz":"America/New_York"},{"id":5314328,"name":"Sierra Vista","local":"Сьерра-Виста","country":"US","lat":31.555,"lon":-110.304,"pop":43355,"tz":"America/Phoenix"},{"id":1852479,"name":"Shimabara","local":"Симабара","country":"JP","lat":32.783,"lon":130.367,"pop":43338,"tz":"Asia/Tokyo"},{"id":490068,"name":"Sovetsk","local":"Советск","country":"RU","lat":55.084,"lon":21.879,"pop":43309,"tz":"Europe/Kaliningrad"},{"id":692087,"name":"Svitlovodsk","local":"Светловодск","country":"UA","lat":49.063,"lon":33.246,"pop":43130,"tz":"Europe/Kyiv"},{"id":4935304,"name":"East Boston","local":"Іст-Бостан","country":"US","lat":42.375,"lon":-71.039,"pop":43066,"tz":"America/New_York"},{"id":1255860,"name":"Sojat","local":"Соджат","country":"IN","lat":25.925,"lon":73.666,"pop":43023,"tz":"Asia/Kolkata"},{"id":301911,"name":"Sandikli","local":"Сандикли","country":"TR","lat":38.465,"lon":30.269,"pop":42981,"tz":"Europe/Istanbul"},{"id":1256246,"name":"Simdega","local":"Симдега","country":"IN","lat":22.615,"lon":84.502,"pop":42944,"tz":"Asia/Kolkata"},{"id":4950065,"name":"Salem","local":"Салем","country":"US","lat":42.52,"lon":-70.896,"pop":42869,"tz":"America/New_York"},{"id":3166830,"name":"Secondigliano","local":"Секондилијано","country":"IT","lat":40.9,"lon":14.267,"pop":42827,"tz":"Europe/Rome"},{"id":6139289,"name":"Salaberry-de-Valleyfield","local":"Салаберри-де-Валлифилд","country":"CA","lat":45.25,"lon":-74.133,"pop":42787,"tz":"America/Toronto"},{"id":2961297,"name":"Swords","local":"Сордс","country":"IE","lat":53.46,"lon":-6.218,"pop":42738,"tz":"Europe/Dublin"},{"id":3447562,"name":"Simao Dias","local":"Симан-Диас","country":"BR","lat":-10.738,"lon":-37.811,"pop":42578,"tz":"America/Maceio"},{"id":1519725,"name":"Saran","local":"Сарань","country":"KZ","lat":49.802,"lon":72.832,"pop":42552,"tz":"Asia/Almaty"},{"id":933099,"name":"Selebi-Phikwe","local":"Селеби-Пхикве","country":"BW","lat":-21.979,"lon":27.843,"pop":42488,"tz":"Africa/Gaborone"},{"id":367544,"name":"Suakin","local":"Савакине","country":"SD","lat":19.106,"lon":37.332,"pop":42456,"tz":"Africa/Khartoum"},{"id":1056151,"name":"Soavinandriana","local":"Соавинандриана","country":"MG","lat":-19.167,"lon":46.733,"pop":42410,"tz":"Indian/Antananarivo"},{"id":3449427,"name":"Santos Dumont","local":"Сантус-Думонт","country":"BR","lat":-21.457,"lon":-43.553,"pop":42406,"tz":"America/Sao_Paulo"},{"id":3448502,"name":"Sao Mateus do Sul","local":"Сан-Матеус-ду-Сул","country":"BR","lat":-25.874,"lon":-50.383,"pop":42366,"tz":"America/Sao_Paulo"},{"id":4003662,"name":"Juventino Rosas","local":"Санта-Крус-де-Хувентино-Росас","country":"MX","lat":20.643,"lon":-100.993,"pop":42264,"tz":"America/Mexico_City"},{"id":3651438,"name":"Santa Elena","local":"Санта Елена","country":"EC","lat":-2.227,"lon":-80.858,"pop":42214,"tz":"America/Guayaquil"},{"id":491281,"name":"Sokol","local":"Сокол","country":"RU","lat":59.462,"lon":40.121,"pop":42174,"tz":"Europe/Moscow"},{"id":5213681,"name":"State College","local":"Стейт-Колледж","country":"US","lat":40.793,"lon":-77.86,"pop":42161,"tz":"America/New_York"},{"id":1838069,"name":"Santyoku","local":"Самчхок","country":"KR","lat":37.441,"lon":129.171,"pop":42145,"tz":"Asia/Seoul"},{"id":1851426,"name":"Sumoto","local":"Сумото","country":"JP","lat":34.343,"lon":134.889,"pop":42094,"tz":"Asia/Tokyo"},{"id":1214026,"name":"Sabang","local":"Сабанг","country":"ID","lat":5.89,"lon":95.316,"pop":42066,"tz":"Asia/Jakarta"},{"id":6138175,"name":"Saint-Eustache","local":"Сент-Эсташ","country":"CA","lat":45.565,"lon":-73.906,"pop":42062,"tz":"America/Toronto"},{"id":2461874,"name":"Smara","local":"Смара","country":"MA","lat":26.738,"lon":-11.672,"pop":42056,"tz":"Africa/Casablanca"},{"id":3448596,"name":"Sao Lourenco do Sul","local":"Сан-Лоренсу-ду-Сул","country":"BR","lat":-31.365,"lon":-51.978,"pop":41989,"tz":"America/Sao_Paulo"},{"id":2636663,"name":"Stretford","local":"Стретфорд","country":"GB","lat":53.45,"lon":-2.317,"pop":41953,"tz":"Europe/London"},