[{"id":90000025,"name":"Sanaly","names":{"kk":"Саналы","ru":"Саналы","en":"Sanaly"},"country":"KZ","lat":42.681398,"lon":68.983284,"pop":0,"dumk_id":11292,"search_terms":["саналы","sanaly"]},{"id":90000031,"name":"Sotsial","names":{"kk":"Социал","ru":"Социал","en":"Sotsial"},"country":"KZ","lat":53.68843,"lon":67.306506,"pop":0,"dumk_id":11254,"search_terms":["sotsial","социал"]},{"id":90000061,"name":"Sayaq","names":{"kk":"Саяқ","ru":"Саяк","en":"Sayaq"},"country":"KZ","lat":46.906506,"lon":77.356417,"pop":0,"dumk_id":11335,"search_terms":["саяқ","саяк","sayaq"]},{"id":90000131,"name":"Stepnyak","names":{"kk":"Степняк","ru":"Степняк","en":"Stepnyak"},"country":"KZ","lat":52.832,"lon":70.783427,"pop":0,"dumk_id":155,"search_terms":["stepnyak","степняк"]},{"id":90000140,"name":"Sergeev","names":{"kk":"Сергеев","ru":"Сергеев","en":"Sergeev"},"country":"KZ","lat":53.888542,"lon":67.416271,"pop":0,"dumk_id":173,"search_terms":["сергеев","sergeev"]},{"id":90000141,"name":"Serebryansk","names":{"kk":"Серебрянск","ru":"Серебрянск","en":"Serebryansk"},"country":"KZ","lat":49.679277,"lon":83.300651,"pop":0,"dumk_id":175,"search_terms":["serebryansk","серебрянск"]},{"id":90000155,"name":"Sarzhal","names":{"kk":"Саржал","ru":"Саржал","en":"Sarzhal"},"country":"KZ","lat":49.600643,"lon":78.734541,"pop":0,"dumk_id":5765,"search_terms":["саржал","sarzhal"]},{"id":90000189,"name":"Saryarqa","names":{"kk":"Сарыарқа","ru":"Сарыарка","en":"Saryarqa"},"country":"KZ","lat":48.145791,"lon":81.096041,"pop":0,"dumk_id":5799,"search_terms":["сарыарка","сарыарқа","saryarqa"]},{"id":90000217,"name":"Seriktes","names":{"kk":"Серіктес","ru":"Сериктес","en":"Seriktes"},"country":"KZ","lat":47.837453,"lon":82.535798,"pop":0,"dumk_id":5827,"search_terms":["серіктес","сериктес","seriktes"]},{"id":90000227,"name":"Satbaev","names":{"kk":"Сәтбаев","ru":"Сатбаев","en":"Satbaev"},"country":"KZ","lat":47.888274,"lon":82.607726,"pop":0,"dumk_id":5837,"search_terms":["сәтбаев","сатбаев","satbaev"]},{"id":90000237,"name":"Steklyanka","names":{"kk":"Стеклянка","ru":"Стеклянка","en":"Steklyanka"},"country":"KZ","lat":50.496928,"lon":79.934681,"pop":0,"dumk_id":5847,"search_terms":["steklyanka","стеклянка"]},{"id":90000245,"name":"Semiyarka","names":{"kk":"Семиярка","ru":"Семиярка","en":"Semiyarka"},"country":"KZ","lat":50.896844,"lon":78.314328,"pop":0,"dumk_id":5855,"search_terms":["семиярка","semiyarka"]},{"id":90000280,"name":"Sosnovka","names":{"kk":"Сосновка","ru":"Сосновка","en":"Sosnovka"},"country":"KZ","lat":50.878313,"lon":81.045987,"pop":0,"dumk_id":5890,"search_terms":["сосновка","sosnovka"]},{"id":90000283,"name":"Sarnoghay","names":{"kk":"Сарноғай","ru":"Сарногай","en":"Sarnoghay"},"country":"KZ","lat":50.685602,"lon":80.53242,"pop":0,"dumk_id":5893,"search_terms":["sarnoghay","сарноғай","сарногай"]},{"id":90000288,"name":"Solonovka","names":{"kk":"Солоновка","ru":"Солоновка","en":"Solonovka"},"country":"KZ","lat":50.526033,"lon":81.40269,"pop":0,"dumk_id":5898,"search_terms":["солоновка","solonovka"]},{"id":90000304,"name":"Sakhnovka","names":{"kk":"Сахновка","ru":"Сахновка","en":"Sakhnovka"},"country":"KZ","lat":50.634137,"lon":81.611845,"pop":0,"dumk_id":5914,"search_terms":["sakhnovka","сахновка"]},{"id":90000317,"name":"Sulusary","names":{"kk":"Сұлусары","ru":"Сулусары","en":"Sulusary"},"country":"KZ","lat":49.50658,"lon":81.812457,"pop":0,"dumk_id":5927,"search_terms":["сулусары","сұлусары","sulusary"]},{"id":90000319,"name":"Salqyntobe","names":{"kk":"Салқынтөбе","ru":"Салкынтобе","en":"Salqyntobe"},"country":"KZ","lat":49.521835,"lon":81.224006,"pop":0,"dumk_id":5929,"search_terms":["салкынтобе","салқынтөбе","salqyntobe"]},{"id":90000365,"name":"Suleymen","names":{"kk":"Сүлеймен","ru":"Сулеймен","en":"Suleymen"},"country":"KZ","lat":48.581604,"lon":83.149365,"pop":0,"dumk_id":5976,"search_terms":["сулеймен","сүлеймен","suleymen"]},{"id":90000400,"name":"Saghat","names":{"kk":"Сағат","ru":"Сагат","en":"Saghat"},"country":"KZ","lat":46.69422,"lon":80.764626,"pop":0,"dumk_id":6012,"search_terms":["saghat","сағат","сагат"]},{"id":90000407,"name":"Segizbay","names":{"kk":"Сегізбай","ru":"Сегизбай","en":"Segizbay"},"country":"KZ","lat":47.280846,"lon":81.155267,"pop":0,"dumk_id":6019,"search_terms":["segizbay","сегизбай","сегізбай"]},{"id":90000436,"name":"Sazdy bulaq","names":{"kk":"Сазды бұлақ","ru":"Сазды булак","en":"Sazdy bulaq"},"country":"KZ","lat":52.109852,"lon":72.211676,"pop":0,"dumk_id":6048,"search_terms":["сазды бұлақ","sazdy bulaq","сазды булак"]},{"id":90000473,"name":"Saryoba","names":{"kk":"Сарыоба","ru":"Сарыоба","en":"Saryoba"},"country":"KZ","lat":51.203207,"lon":72.183154,"pop":0,"dumk_id":6085,"search_terms":["saryoba","сарыоба"]},{"id":90000480,"name":"Saryoba","names":{"kk":"Сарыоба","ru":"Сарыоба","en":"Saryoba"},"country":"KZ","lat":51.26317,"lon":72.119408,"pop":0,"dumk_id":6092,"search_terms":["saryoba","сарыоба"]},{"id":90000485,"name":"Seyten","names":{"kk":"Сейтень","ru":"Сейтень","en":"Seyten"},"country":"KZ","lat":51.008555,"lon":72.797683,"pop":0,"dumk_id":6097,"search_terms":["сейтень","seyten"]},{"id":90000524,"name":"Sadovoe","names":{"kk":"Садовое","ru":"Садовое","en":"Sadovoe"},"country":"KZ","lat":51.882845,"lon":68.395166,"pop":0,"dumk_id":6136,"search_terms":["sadovoe","садовое"]},{"id":90000527,"name":"Sepe","names":{"kk":"Сепе","ru":"Сепе","en":"Sepe"},"country":"KZ","lat":51.203889,"lon":68.311856,"pop":0,"dumk_id":6139,"search_terms":["sepe","сепе"]},{"id":90000528,"name":"Sergeevka","names":{"kk":"Сергеевка","ru":"Сергеевка","en":"Sergeevka"},"country":"KZ","lat":51.660021,"lon":68.19105,"pop":0,"dumk_id":6140,"search_terms":["сергеевка","sergeevka"]},{"id":90000538,"name":"Sochinskoe","names":{"kk":"Сочинское","ru":"Сочинское","en":"Sochinskoe"},"country":"KZ","lat":50.997922,"lon":68.159106,"pop":0,"dumk_id":6150,"search_terms":["сочинское","sochinskoe"]},{"id":90000540,"name":"Sapaq","names":{"kk":"Сапақ","ru":"Сапак","en":"Sapaq"},"country":"KZ","lat":52.60508,"lon":72.116517,"pop":0,"dumk_id":6152,"search_terms":["сапак","sapaq","сапақ"]},{"id":90000547,"name":"Saule","names":{"kk":"Сәуле","ru":"Сауле","en":"Saule"},"country":"KZ","lat":52.738566,"lon":70.711409,"pop":0,"dumk_id":6159,"search_terms":["сауле","saule","сәуле"]},{"id":90000580,"name":"Suvorovka","names":{"kk":"Суворовка","ru":"Суворовка","en":"Suvorovka"},"country":"KZ","lat":52.287238,"lon":69.634457,"pop":0,"dumk_id":6192,"search_terms":["suvorovka","суворовка"]},{"id":90000646,"name":"Savinka","names":{"kk":"Савинка","ru":"Савинка","en":"Savinka"},"country":"KZ","lat":52.831227,"lon":69.868187,"pop":0,"dumk_id":6258,"search_terms":["савинка","savinka"]},{"id":90000647,"name":"Sarybulaq","names":{"kk":"Сарыбұлақ","ru":"Сарыбулак","en":"Sarybulaq"},"country":"KZ","lat":53.027623,"lon":70.349953,"pop":0,"dumk_id":6259,"search_terms":["sarybulaq","сарыбұлақ","сарыбулак"]},{"id":90000648,"name":"Sosnovka","names":{"kk":"Сосновка","ru":"Сосновка","en":"Sosnovka"},"country":"KZ","lat":52.871959,"lon":70.43948,"pop":0,"dumk_id":6260,"search_terms":["сосновка","sosnovka"]},{"id":90000649,"name":"Sotnikovka","names":{"kk":"Сотниковка","ru":"Сотниковка","en":"Sotnikovka"},"country":"KZ","lat":52.814913,"lon":69.984887,"pop":0,"dumk_id":6261,"search_terms":["sotnikovka","сотниковка"]},{"id":90000667,"name":"Spiridonovka","names":{"kk":"Спиридоновка","ru":"Спиридоновка","en":"Spiridonovka"},"country":"KZ","lat":50.959008,"lon":69.445826,"pop":0,"dumk_id":6279,"search_terms":["спиридоновка","spiridonovka"]},{"id":90000683,"name":"Seletinskoe","names":{"kk":"Селетинское","ru":"Селетинское","en":"Seletinskoe"},"country":"KZ","lat":52.162376,"lon":72.736958,"pop":0,"dumk_id":6295,"search_terms":["seletinskoe","селетинское"]},{"id":90000705,"name":"Svobodnoe","names":{"kk":"Свободное","ru":"Свободное","en":"Svobodnoe"},"country":"KZ","lat":51.995157,"lon":66.567643,"pop":0,"dumk_id":6317,"search_terms":["svobodnoe","свободное"]},{"id":90000781,"name":"Serafimovka","names":{"kk":"Серафимовка","ru":"Серафимовка","en":"Serafimovka"},"country":"KZ","lat":52.961291,"lon":69.293777,"pop":0,"dumk_id":6394,"search_terms":["serafimovka","серафимовка"]},{"id":90000787,"name":"Sadovoe","names":{"kk":"Садовое","ru":"Садовое","en":"Sadovoe"},"country":"KZ","lat":53.270033,"lon":69.249544,"pop":0,"dumk_id":6400,"search_terms":["sadovoe","садовое"]},{"id":90000800,"name":"Simferopol","names":{"kk":"Симферополь","ru":"Симферополь","en":"Simferopol"},"country":"KZ","lat":53.341817,"lon":69.030212,"pop":0,"dumk_id":6413,"search_terms":["симферополь","simferopol"]},{"id":90000805,"name":"S.Seyfullin","names":{"kk":"С.Сейфуллин","ru":"С.Сейфуллин","en":"S.Seyfullin"},"country":"KZ","lat":53.534057,"lon":69.025522,"pop":0,"dumk_id":6418,"search_terms":["s.seyfullin","с.сейфуллин"]},{"id":90000835,"name":"Sabyndy","names":{"kk":"Сабынды","ru":"Сабынды","en":"Sabyndy"},"country":"KZ","lat":50.879421,"lon":70.553269,"pop":0,"dumk_id":6448,"search_terms":["сабынды","sabyndy"]},{"id":90000857,"name":"Spaskoe","names":{"kk":"Спаское","ru":"Спаское","en":"Spaskoe"},"country":"KZ","lat":52.154912,"lon":68.53771,"pop":0,"dumk_id":6470,"search_terms":["спаское","spaskoe"]},{"id":90000861,"name":"Smolnoe","names":{"kk":"Смольное","ru":"Смольное","en":"Smolnoe"},"country":"KZ","lat":52.685286,"lon":68.629141,"pop":0,"dumk_id":6474,"search_terms":["smolnoe","смольное"]},{"id":90000863,"name":"Sandyqtau","names":{"kk":"Сандықтау","ru":"Сандыктау","en":"Sandyqtau"},"country":"KZ","lat":52.607935,"lon":68.841907,"pop":0,"dumk_id":6476,"search_terms":["sandyqtau","сандықтау","сандыктау"]},{"id":90000889,"name":"Saryadyr","names":{"kk":"Сарыадыр","ru":"Сарыадыр","en":"Saryadyr"},"country":"KZ","lat":50.843176,"lon":71.564979,"pop":0,"dumk_id":6502,"search_terms":["сарыадыр","saryadyr"]},{"id":90000907,"name":"Sarykol","names":{"kk":"Сарыкөл","ru":"Сарыкол","en":"Sarykol"},"country":"KZ","lat":50.725447,"lon":71.218831,"pop":0,"dumk_id":6520,"search_terms":["sarykol","сарыкол","сарыкөл"]},{"id":90000909,"name":"Sadovoe","names":{"kk":"Садовое","ru":"Садовое","en":"Sadovoe"},"country":"KZ","lat":51.297889,"lon":70.684792,"pop":0,"dumk_id":6522,"search_terms":["sadovoe","садовое"]},{"id":90000911,"name":"Sofivka","names":{"kk":"Софивка","ru":"Софивка","en":"Sofivka"},"country":"KZ","lat":51.399395,"lon":71.700759,"pop":0,"dumk_id":6524,"search_terms":["софивка","sofivka"]},{"id":90000949,"name":"Stepnogorsk","names":{"kk":"Степногорск","ru":"Степногорск","en":"Stepnogorsk"},"country":"KZ","lat":52.346668,"lon":71.879792,"pop":0,"dumk_id":6562,"search_terms":["stepnogorsk","степногорск"]},{"id":90000983,"name":"Sarat","names":{"kk":"Сарат","ru":"Сарат","en":"Sarat"},"country":"KZ","lat":50.103352,"lon":61.037397,"pop":0,"dumk_id":6596,"search_terms":["sarat","сарат"]},{"id":90000984,"name":"Sulukol","names":{"kk":"Сұлукөл","ru":"Сулукол","en":"Sulukol"},"country":"KZ","lat":51.129586,"lon":61.855745,"pop":0,"dumk_id":6597,"search_terms":["сулукол","sulukol","сұлукөл"]},{"id":90000987,"name":"Sarybulaq","names":{"kk":"Сарыбұлақ","ru":"Сарыбулак","en":"Sarybulaq"},"country":"KZ","lat":49.699483,"lon":61.468876,"pop":0,"dumk_id":6600,"search_terms":["sarybulaq","сарыбұлақ","сарыбулак"]},{"id":90000998,"name":"Sambay","names":{"kk":"Самбай","ru":"Самбай","en":"Sambay"},"country":"KZ","lat":49.98246,"lon":57.20319,"pop":0,"dumk_id":6611,"search_terms":["sambay","самбай"]},{"id":90001075,"name":"Sarybulaq","names":{"kk":"Сарыбұлақ","ru":"Сарыбулак","en":"Sarybulaq"},"country":"KZ","lat":50.857405,"lon":57.857209,"pop":0,"dumk_id":6688,"search_terms":["sarybulaq","сарыбұлақ","сарыбулак"]},{"id":90001111,"name":"Saryzhar","names":{"kk":"Сарыжар","ru":"Сарыжар","en":"Saryzhar"},"country":"KZ","lat":50.507957,"lon":56.916394,"pop":0,"dumk_id":6724,"search_terms":["сарыжар","saryzhar"]},{"id":90001113,"name":"Sarzhansay","names":{"kk":"Саржансай","ru":"Саржансай","en":"Sarzhansay"},"country":"KZ","lat":50.639182,"lon":56.701248,"pop":0,"dumk_id":6726,"search_terms":["sarzhansay","саржансай"]},{"id":90001122,"name":"Sabyndyqol","names":{"kk":"Сабындықөл","ru":"Сабындыкол","en":"Sabyndyqol"},"country":"KZ","lat":49.420804,"lon":58.185363,"pop":0,"dumk_id":6735,"search_terms":["sabyndyqol","сабындыкол","сабындықөл"]},{"id":90001126,"name":"Sagha","names":{"kk":"Саға","ru":"Сага","en":"Sagha"},"country":"KZ","lat":48.489611,"lon":57.445798,"pop":0,"dumk_id":6739,"search_terms":["сага","sagha","саға"]},{"id":90001153,"name":"Sarytoghay","names":{"kk":"Сарытоғай","ru":"Сарытогай","en":"Sarytoghay"},"country":"KZ","lat":49.197567,"lon":56.049116,"pop":0,"dumk_id":6766,"search_terms":["сарытогай","сарытоғай","sarytoghay"]},{"id":90001161,"name":"Sarkol","names":{"kk":"Саркөл","ru":"Саркол","en":"Sarkol"},"country":"KZ","lat":48.592307,"lon":57.184532,"pop":0,"dumk_id":6774,"search_terms":["саркол","sarkol","саркөл"]},{"id":90001181,"name":"Sarybie","names":{"kk":"Сарыбие","ru":"Сарыбие","en":"Sarybie"},"country":"KZ","lat":49.264603,"lon":53.943653,"pop":0,"dumk_id":6794,"search_terms":["sarybie","сарыбие"]},{"id":90001207,"name":"Sarybulaq","names":{"kk":"Сарыбұлақ","ru":"Сарыбулак","en":"Sarybulaq"},"country":"KZ","lat":49.854281,"lon":55.751962,"pop":0,"dumk_id":6820,"search_terms":["sarybulaq","сарыбұлақ","сарыбулак"]},{"id":90001210,"name":"Soghali","names":{"kk":"Соғали","ru":"Согали","en":"Soghali"},"country":"KZ","lat":50.890303,"lon":54.804634,"pop":0,"dumk_id":6823,"search_terms":["соғали","soghali","согали"]},{"id":90001233,"name":"Sarysay","names":{"kk":"Сарысай","ru":"Сарысай","en":"Sarysay"},"country":"KZ","lat":50.385102,"lon":58.570785,"pop":0,"dumk_id":6846,"search_terms":["sarysay","сарысай"]},{"id":90001247,"name":"Sarysay","names":{"kk":"Сарысай","ru":"Сарысай","en":"Sarysay"},"country":"KZ","lat":48.485532,"lon":58.555909,"pop":0,"dumk_id":6860,"search_terms":["sarysay","сарысай"]},{"id":90001268,"name":"Sarykhobda","names":{"kk":"Сарыхобда","ru":"Сарыхобда","en":"Sarykhobda"},"country":"KZ","lat":49.809551,"lon":56.447536,"pop":0,"dumk_id":6881,"search_terms":["сарыхобда","sarykhobda"]},{"id":90001270,"name":"Stepnoe","names":{"kk":"Степное","ru":"Степное","en":"Stepnoe"},"country":"KZ","lat":50.719831,"lon":58.674676,"pop":0,"dumk_id":6883,"search_terms":["stepnoe","степное"]},{"id":90001274,"name":"Sarybulaq","names":{"kk":"Сарыбұлақ","ru":"Сарыбулак","en":"Sarybulaq"},"country":"KZ","lat":43.904745,"lon":77.676927,"pop":0,"dumk_id":6887,"search_terms":["sarybulaq","сарыбұлақ","сарыбулак"]},{"id":90001311,"name":"Sarytau","names":{"kk":"Сарытау","ru":"Сарытау","en":"Sarytau"},"country":"KZ","lat":43.220104,"lon":78.285662,"pop":0,"dumk_id":6924,"search_terms":["сарытау","sarytau"]},{"id":90001328,"name":"Sarybulaq","names":{"kk":"Сарыбұлақ","ru":"Сарыбулак","en":"Sarybulaq"},"country":"KZ","lat":43.682559,"lon":78.228816,"pop":0,"dumk_id":6941,"search_terms":["sarybulaq","сарыбұлақ","сарыбулак"]},{"id":90001330,"name":"Satay","names":{"kk":"Сатай","ru":"Сатай","en":"Satay"},"country":"KZ","lat":43.443743,"lon":77.623172,"pop":0,"dumk_id":6943,"search_terms":["satay","сатай"]},{"id":90001356,"name":"Saymasay","names":{"kk":"Саймасай","ru":"Саймасай","en":"Saymasay"},"country":"KZ","lat":43.445994,"lon":77.332846,"pop":0,"dumk_id":6969,"search_terms":["саймасай","saymasay"]},{"id":90001382,"name":"Sazy","names":{"kk":"Сазы","ru":"Сазы","en":"Sazy"},"country":"KZ","lat":43.560105,"lon":77.647184,"pop":0,"dumk_id":6995,"search_terms":["сазы","sazy"]},{"id":90001396,"name":"Sungqar","names":{"kk":"Сұңқар","ru":"Сункар","en":"Sungqar"},"country":"KZ","lat":43.12942,"lon":75.752655,"pop":0,"dumk_id":7009,"search_terms":["сункар","sungqar","сұңқар"]},{"id":90001398,"name":"Sauryq batyra","names":{"kk":"Саурық батыра","ru":"Саурык батыра","en":"Sauryq batyra"},"country":"KZ","lat":43.239449,"lon":76.320786,"pop":0,"dumk_id":7011,"search_terms":["sauryq batyra","саурык батыра","саурық батыра"]},{"id":90001402,"name":"Sarybay bi","names":{"kk":"Сарыбай би","ru":"Сарыбай би","en":"Sarybay bi"},"country":"KZ","lat":43.209821,"lon":76.246477,"pop":0,"dumk_id":7015,"search_terms":["sarybay bi","сарыбай би"]},{"id":90001409,"name":"Samsy","names":{"kk":"Самсы","ru":"Самсы","en":"Samsy"},"country":"KZ","lat":43.31935,"lon":76.096943,"pop":0,"dumk_id":7022,"search_terms":["samsy","самсы"]},{"id":90001414,"name":"Suranshy batyr","names":{"kk":"Сұраншы батыр","ru":"Сураншы батыр","en":"Suranshy batyr"},"country":"KZ","lat":43.143137,"lon":76.181987,"pop":0,"dumk_id":7027,"search_terms":["сураншы батыр","suranshy batyr","сұраншы батыр"]},{"id":90001420,"name":"Sarybastau","names":{"kk":"Сарыбастау","ru":"Сарыбастау","en":"Sarybastau"},"country":"KZ","lat":43.304282,"lon":76.029085,"pop":0,"dumk_id":7033,"search_terms":["сарыбастау","sarybastau"]},{"id":90001441,"name":"Saz","names":{"kk":"Саз","ru":"Саз","en":"Saz"},"country":"KZ","lat":43.577081,"lon":75.978788,"pop":0,"dumk_id":7054,"search_terms":["saz","саз"]},{"id":90001490,"name":"Sauynshy","names":{"kk":"Сауыншы","ru":"Сауыншы","en":"Sauynshy"},"country":"KZ","lat":43.160599,"lon":76.47367,"pop":0,"dumk_id":7105,"search_terms":["sauynshy","сауыншы"]},{"id":90001505,"name":"Sauynshy","names":{"kk":"Сауыншы","ru":"Сауыншы","en":"Sauynshy"},"country":"KZ","lat":43.227409,"lon":76.469071,"pop":0,"dumk_id":7120,"search_terms":["sauynshy","сауыншы"]},{"id":90001534,"name":"Sarykol","names":{"kk":"Сарыкөл","ru":"Сарыкол","en":"Sarykol"},"country":"KZ","lat":42.859992,"lon":79.334984,"pop":0,"dumk_id":7149,"search_terms":["sarykol","сарыкол","сарыкөл"]},{"id":90001547,"name":"Saty","names":{"kk":"Саты","ru":"Саты","en":"Saty"},"country":"KZ","lat":43.070834,"lon":78.409881,"pop":0,"dumk_id":7162,"search_terms":["саты","saty"]},{"id":90001560,"name":"Saryzhaz","names":{"kk":"Сарыжаз","ru":"Сарыжаз","en":"Saryzhaz"},"country":"KZ","lat":42.913934,"lon":79.605871,"pop":0,"dumk_id":7175,"search_terms":["saryzhaz","сарыжаз"]},{"id":90001562,"name":"Sumbe","names":{"kk":"Сүмбе","ru":"Сумбе","en":"Sumbe"},"country":"KZ","lat":42.930749,"lon":80.485142,"pop":0,"dumk_id":7177,"search_terms":["sumbe","сүмбе","сумбе"]},{"id":90001566,"name":"Sarybastau","names":{"kk":"Сарыбастау","ru":"Сарыбастау","en":"Sarybastau"},"country":"KZ","lat":42.979769,"lon":80.275628,"pop":0,"dumk_id":7181,"search_terms":["сарыбастау","sarybastau"]},{"id":90001603,"name":"Saqtan","names":{"kk":"Сақтан","ru":"Сактан","en":"Saqtan"},"country":"KZ","lat":43.500072,"lon":77.113217,"pop":0,"dumk_id":7218,"search_terms":["сақтан","сактан","saqtan"]},{"id":90001624,"name":"Sumbe","names":{"kk":"Сүмбе","ru":"Сумбе","en":"Sumbe"},"country":"KZ","lat":43.306736,"lon":79.414134,"pop":0,"dumk_id":7239,"search_terms":["sumbe","сүмбе","сумбе"]},{"id":90001625,"name":"Sungqar","names":{"kk":"Сұңқар","ru":"Сункар","en":"Sungqar"},"country":"KZ","lat":43.479241,"lon":80.166617,"pop":0,"dumk_id":7240,"search_terms":["сункар","sungqar","сұңқар"]},{"id":90001690,"name":"Saryqumaq","names":{"kk":"Сарықұмақ","ru":"Сарыкумак","en":"Saryqumaq"},"country":"KZ","lat":48.339222,"lon":54.641554,"pop":0,"dumk_id":7305,"search_terms":["сарықұмақ","сарыкумак","saryqumaq"]},{"id":90001691,"name":"Sorkol","names":{"kk":"Соркөл","ru":"Соркол","en":"Sorkol"},"country":"KZ","lat":48.470338,"lon":54.450923,"pop":0,"dumk_id":7306,"search_terms":["соркөл","соркол","sorkol"]},{"id":90001695,"name":"Saghyz","names":{"kk":"Сағыз","ru":"Сагыз","en":"Saghyz"},"country":"KZ","lat":48.234179,"lon":54.88127,"pop":0,"dumk_id":7310,"search_terms":["сагыз","saghyz","сағыз"]},{"id":90001738,"name":"Safonovka","names":{"kk":"Сафоновка","ru":"Сафоновка","en":"Safonovka"},"country":"KZ","lat":46.502533,"lon":48.914462,"pop":0,"dumk_id":7353,"search_terms":["сафоновка","safonovka"]},{"id":90001742,"name":"Suyindik","names":{"kk":"Сүйіндік","ru":"Суйиндик","en":"Suyindik"},"country":"KZ","lat":48.131342,"lon":47.669029,"pop":0,"dumk_id":7357,"search_terms":["suyindik","суйиндик","сүйіндік"]},{"id":90001771,"name":"Sarytoghay","names":{"kk":"Сарытоғай","ru":"Сарытогай","en":"Sarytoghay"},"country":"KZ","lat":47.724768,"lon":51.586052,"pop":0,"dumk_id":7386,"search_terms":["сарытогай","сарытоғай","sarytoghay"]},{"id":90001773,"name":"Sarayshyq","names":{"kk":"Сарайшық","ru":"Сарайшык","en":"Sarayshyq"},"country":"KZ","lat":47.500786,"lon":51.714636,"pop":0,"dumk_id":7388,"search_terms":["сарайшық","сарайшык","sarayshyq"]},{"id":90001798,"name":"Samal","names":{"kk":"Самал","ru":"Самал","en":"Samal"},"country":"KZ","lat":50.425003,"lon":51.028342,"pop":0,"dumk_id":7413,"search_terms":["самал","samal"]},{"id":90001814,"name":"Sayqudyq","names":{"kk":"Сайқұдық","ru":"Сайкудык","en":"Sayqudyq"},"country":"KZ","lat":50.039025,"lon":52.122921,"pop":0,"dumk_id":7429,"search_terms":["сайқұдық","сайкудык","sayqudyq"]},{"id":90001818,"name":"Sarman","names":{"kk":"Сарман","ru":"Сарман","en":"Sarman"},"country":"KZ","lat":48.731069,"lon":51.893159,"pop":0,"dumk_id":7433,"search_terms":["сарман","sarman"]},{"id":90001835,"name":"Saykhyn","names":{"kk":"Сайхын","ru":"Сайхын","en":"Saykhyn"},"country":"KZ","lat":48.814683,"lon":46.766186,"pop":0,"dumk_id":7450,"search_terms":["сайхын","saykhyn"]},{"id":90001838,"name":"Saralzhyn","names":{"kk":"Саралжын","ru":"Саралжын","en":"Saralzhyn"},"country":"KZ","lat":49.168672,"lon":48.904167,"pop":0,"dumk_id":7453,"search_terms":["саралжын","saralzhyn"]},{"id":90001839,"name":"Seyitqali","names":{"kk":"Сейітқали","ru":"Сейиткали","en":"Seyitqali"},"country":"KZ","lat":50.823721,"lon":51.497981,"pop":0,"dumk_id":7454,"search_terms":["сейітқали","seyitqali","сейиткали"]},{"id":90001845,"name":"Sataykol","names":{"kk":"Сатайкөл","ru":"Сатайкол","en":"Sataykol"},"country":"KZ","lat":51.068827,"lon":53.071551,"pop":0,"dumk_id":7460,"search_terms":["sataykol","сатайкол","сатайкөл"]},{"id":90001849,"name":"Sulusay","names":{"kk":"Сұлусай","ru":"Сулусай","en":"Sulusay"},"country":"KZ","lat":51.157551,"lon":53.280616,"pop":0,"dumk_id":7464,"search_terms":["сұлусай","сулусай","sulusay"]},{"id":90001864,"name":"Sovkhoz №7 agroferm","names":{"kk":"Совхоз №7 агроферм","ru":"Совхоз №7 агроферм","en":"Sovkhoz №7 agroferm"},"country":"KZ","lat":51.152778,"lon":52.899191,"pop":0,"dumk_id":7479,"search_terms":["совхоз №7 агроферм","sovkhoz №7 agroferm"]},{"id":90001874,"name":"Syrym batyr","names":{"kk":"Сырым батыр","ru":"Сырым батыр","en":"Syrym batyr"},"country":"KZ","lat":51.613743,"lon":51.127632,"pop":0,"dumk_id":7489,"search_terms":["сырым батыр","syrym batyr"]},{"id":90001891,"name":"Sadovoe","names":{"kk":"Садовое","ru":"Садовое","en":"Sadovoe"},"country":"KZ","lat":51.287627,"lon":51.431182,"pop":0,"dumk_id":7506,"search_terms":["sadovoe","садовое"]},{"id":90001907,"name":"Sulu kol","names":{"kk":"Сұлу көл","ru":"Сулу кол","en":"Sulu kol"},"country":"KZ","lat":51.652422,"lon":52.17726,"pop":0,"dumk_id":7523,"search_terms":["sulu kol","сулу кол","сұлу көл"]},{"id":90001919,"name":"Skvorkino","names":{"kk":"Скворкино","ru":"Скворкино","en":"Skvorkino"},"country":"KZ","lat":50.784711,"lon":51.105004,"pop":0,"dumk_id":7535,"search_terms":["скворкино","skvorkino"]},{"id":90001924,"name":"Spartak","names":{"kk":"Спартак","ru":"Спартак","en":"Spartak"},"country":"KZ","lat":51.435669,"lon":52.081796,"pop":0,"dumk_id":7540,"search_terms":["спартак","spartak"]},{"id":90001934,"name":"Sarykol","names":{"kk":"Сарыкөл","ru":"Сарыкол","en":"Sarykol"},"country":"KZ","lat":48.932461,"lon":49.939646,"pop":0,"dumk_id":7550,"search_terms":["sarykol","сарыкол","сарыкөл"]},{"id":90001941,"name":"Saltanat","names":{"kk":"Салтанат","ru":"Салтанат","en":"Saltanat"},"country":"KZ","lat":49.008392,"lon":50.400159,"pop":0,"dumk_id":7557,"search_terms":["салтанат","saltanat"]},{"id":90001942,"name":"Saralzhyn","names":{"kk":"Саралжын","ru":"Саралжын","en":"Saralzhyn"},"country":"KZ","lat":48.948818,"lon":50.514299,"pop":0,"dumk_id":7558,"search_terms":["саралжын","saralzhyn"]},{"id":90001976,"name":"Saralzhyn","names":{"kk":"Саралжын","ru":"Саралжын","en":"Saralzhyn"},"country":"KZ","lat":49.334208,"lon":48.908273,"pop":0,"dumk_id":7592,"search_terms":["саралжын","saralzhyn"]},{"id":90001989,"name":"Seksenbaev","names":{"kk":"Сексенбаев","ru":"Сексенбаев","en":"Seksenbaev"},"country":"KZ","lat":49.78272,"lon":48.514191,"pop":0,"dumk_id":7605,"search_terms":["сексенбаев","seksenbaev"]},{"id":90002001,"name":"Serik","names":{"kk":"Серік","ru":"Серик","en":"Serik"},"country":"KZ","lat":49.698638,"lon":49.644891,"pop":0,"dumk_id":7617,"search_terms":["серик","serik","серік"]},{"id":90002005,"name":"Satybaldy","names":{"kk":"Сатыбалды","ru":"Сатыбалды","en":"Satybaldy"},"country":"KZ","lat":49.512255,"lon":49.588953,"pop":0,"dumk_id":7621,"search_terms":["satybaldy","сатыбалды"]},{"id":90002012,"name":"Saryqudyq","names":{"kk":"Сарықұдық","ru":"Сарыкудык","en":"Saryqudyq"},"country":"KZ","lat":49.767915,"lon":49.975705,"pop":0,"dumk_id":7628,"search_terms":["сарықұдық","сарыкудык","saryqudyq"]},{"id":90002033,"name":"Saule","names":{"kk":"Сәуле","ru":"Сауле","en":"Saule"},"country":"KZ","lat":49.381443,"lon":53.193048,"pop":0,"dumk_id":7649,"search_terms":["сауле","saule","сәуле"]},{"id":90002035,"name":"Sulykol","names":{"kk":"Сулыкөл","ru":"Сулыкол","en":"Sulykol"},"country":"KZ","lat":49.580765,"lon":53.104842,"pop":0,"dumk_id":7651,"search_terms":["sulykol","сулыкөл","сулыкол"]},{"id":90002039,"name":"Sonaly","names":{"kk":"Соналы","ru":"Соналы","en":"Sonaly"},"country":"KZ","lat":49.653903,"lon":53.180229,"pop":0,"dumk_id":7655,"search_terms":["соналы","sonaly"]},{"id":90002043,"name":"Sasyqkol","names":{"kk":"Сасықкөл","ru":"Сасыккол","en":"Sasyqkol"},"country":"KZ","lat":50.41982,"lon":52.115132,"pop":0,"dumk_id":7659,"search_terms":["sasyqkol","сасықкөл","сасыккол"]},{"id":90002062,"name":"Saralzhyn","names":{"kk":"Саралжын","ru":"Саралжын","en":"Saralzhyn"},"country":"KZ","lat":50.140783,"lon":52.636065,"pop":0,"dumk_id":7678,"search_terms":["саралжын","saralzhyn"]},{"id":90002074,"name":"Segizuy","names":{"kk":"Сегізүй","ru":"Сегизуй","en":"Segizuy"},"country":"KZ","lat":50.832875,"lon":52.193133,"pop":0,"dumk_id":7690,"search_terms":["сегизуй","segizuy","сегізүй"]},{"id":90002113,"name":"Satymshegen","names":{"kk":"Сатымшеген","ru":"Сатымшеген","en":"Satymshegen"},"country":"KZ","lat":50.651936,"lon":51.481146,"pop":0,"dumk_id":7729,"search_terms":["сатымшеген","satymshegen"]},{"id":90002116,"name":"Sarsenov","names":{"kk":"Сәрсенов","ru":"Сарсенов","en":"Sarsenov"},"country":"KZ","lat":49.41737,"lon":46.86562,"pop":0,"dumk_id":7732,"search_terms":["сарсенов","сәрсенов","sarsenov"]},{"id":90002142,"name":"Saryomir","names":{"kk":"Сарыөмір","ru":"Сарыомир","en":"Saryomir"},"country":"KZ","lat":50.471102,"lon":51.72759,"pop":0,"dumk_id":7758,"search_terms":["saryomir","сарыомир","сарыөмір"]},{"id":90002150,"name":"Segizsay","names":{"kk":"Сегізсай","ru":"Сегизсай","en":"Segizsay"},"country":"KZ","lat":50.149991,"lon":54.122382,"pop":0,"dumk_id":7766,"search_terms":["сегізсай","сегизсай","segizsay"]},{"id":90002187,"name":"Sengkibay","names":{"kk":"Сеңкібай","ru":"Сенкибай","en":"Sengkibay"},"country":"KZ","lat":43.078807,"lon":71.42736,"pop":0,"dumk_id":7804,"search_terms":["сенкибай","sengkibay","сеңкібай"]},{"id":90002194,"name":"Sarybaraq","names":{"kk":"Сарыбарақ","ru":"Сарыбарак","en":"Sarybaraq"},"country":"KZ","lat":43.381686,"lon":71.472623,"pop":0,"dumk_id":7811,"search_terms":["сарыбарақ","sarybaraq","сарыбарак"]},{"id":90002228,"name":"Senggirbay","names":{"kk":"Сеңгірбай","ru":"Сенгирбай","en":"Senggirbay"},"country":"KZ","lat":43.145689,"lon":71.158204,"pop":0,"dumk_id":7845,"search_terms":["senggirbay","сенгирбай","сеңгірбай"]},{"id":90002235,"name":"Sulutor","names":{"kk":"Сұлутөр","ru":"Сулутор","en":"Sulutor"},"country":"KZ","lat":42.845833,"lon":71.415556,"pop":0,"dumk_id":7852,"search_terms":["сұлутөр","sulutor","сулутор"]},{"id":90002298,"name":"Surym","names":{"kk":"Сұрым","ru":"Сурым","en":"Surym"},"country":"KZ","lat":42.656389,"lon":70.977222,"pop":0,"dumk_id":7915,"search_terms":["surym","сурым","сұрым"]},{"id":90002301,"name":"Sarybastau","names":{"kk":"Сарыбастау","ru":"Сарыбастау","en":"Sarybastau"},"country":"KZ","lat":43.098456,"lon":74.840542,"pop":0,"dumk_id":7918,"search_terms":["сарыбастау","sarybastau"]},{"id":90002310,"name":"Soghandy","names":{"kk":"Соғанды","ru":"Соганды","en":"Soghandy"},"country":"KZ","lat":43.44606,"lon":74.6189,"pop":0,"dumk_id":7927,"search_terms":["соганды","soghandy","соғанды"]},{"id":90002331,"name":"Sarybulaq","names":{"kk":"Сарыбұлақ","ru":"Сарыбулак","en":"Sarybulaq"},"country":"KZ","lat":43.250317,"lon":74.294923,"pop":0,"dumk_id":7948,"search_terms":["sarybulaq","сарыбұлақ","сарыбулак"]},{"id":90002333,"name":"Sortobe","names":{"kk":"Сортөбе","ru":"Сортобе","en":"Sortobe"},"country":"KZ","lat":42.866164,"lon":75.25789,"pop":0,"dumk_id":7950,"search_terms":["сортөбе","sortobe","сортобе"]},{"id":90002336,"name":"Stepnoe","names":{"kk":"Степное","ru":"Степное","en":"Stepnoe"},"country":"KZ","lat":43.142209,"lon":74.620823,"pop":0,"dumk_id":7953,"search_terms":["stepnoe","степное"]},{"id":90002338,"name":"Sulutor","names":{"kk":"Сұлутөр","ru":"Сулутор","en":"Sulutor"},"country":"KZ","lat":43.246389,"lon":75.204167,"pop":0,"dumk_id":7955,"search_terms":["сұлутөр","sulutor","сулутор"]},{"id":90002342,"name":"Sypatay","names":{"kk":"Сыпатай","ru":"Сыпатай","en":"Sypatay"},"country":"KZ","lat":42.849774,"lon":73.323341,"pop":0,"dumk_id":7959,"search_terms":["сыпатай","sypatay"]},{"id":90002364,"name":"Sarymoldaev","names":{"kk":"Сарымолдаев","ru":"Сарымолдаев","en":"Sarymoldaev"},"country":"KZ","lat":42.883131,"lon":73.240966,"pop":0,"dumk_id":7982,"search_terms":["sarymoldaev","сарымолдаев"]},{"id":90002366,"name":"Surat","names":{"kk":"Сұрат","ru":"Сурат","en":"Surat"},"country":"KZ","lat":42.81993,"lon":73.359651,"pop":0,"dumk_id":7984,"search_terms":["surat","сурат","сұрат"]},{"id":90002393,"name":"Saryozek","names":{"kk":"Сарыөзек","ru":"Сарыозек","en":"Saryozek"},"country":"KZ","lat":44.590978,"lon":72.163392,"pop":0,"dumk_id":8011,"search_terms":["сарыозек","сарыөзек","saryozek"]},{"id":90002412,"name":"Saudakent","names":{"kk":"Саудакент","ru":"Саудакент","en":"Saudakent"},"country":"KZ","lat":43.737433,"lon":69.913139,"pop":0,"dumk_id":8030,"search_terms":["саудакент","saudakent"]},{"id":90002450,"name":"Seyilbek","names":{"kk":"Сейілбек","ru":"Сейилбек","en":"Seyilbek"},"country":"KZ","lat":43.841389,"lon":70.982222,"pop":0,"dumk_id":8069,"search_terms":["seyilbek","сейилбек","сейілбек"]},{"id":90002488,"name":"Salimbay Pirmanov","names":{"kk":"Сәлімбай Пірманов","ru":"Салимбай Пирманов","en":"Salimbay Pirmanov"},"country":"KZ","lat":42.967051,"lon":72.118143,"pop":0,"dumk_id":8108,"search_terms":["салимбай пирманов","сәлімбай пірманов","salimbay pirmanov"]},{"id":90002492,"name":"Sungghayty","names":{"kk":"Сұңғайты","ru":"Сунгайты","en":"Sungghayty"},"country":"KZ","lat":43.035833,"lon":72.244722,"pop":0,"dumk_id":8112,"search_terms":["сұңғайты","сунгайты","sungghayty"]},{"id":90002506,"name":"Sauytbek","names":{"kk":"Сауытбек","ru":"Сауытбек","en":"Sauytbek"},"country":"KZ","lat":43.60028,"lon":73.66639,"pop":0,"dumk_id":8126,"search_terms":["сауытбек","sauytbek"]},{"id":90002552,"name":"Saghabuyen","names":{"kk":"Сағабүйен","ru":"Сагабуйен","en":"Saghabuyen"},"country":"KZ","lat":45.411059,"lon":79.230141,"pop":0,"dumk_id":8172,"search_terms":["сағабүйен","сагабуйен","saghabuyen"]},{"id":90002553,"name":"Saghaqures","names":{"kk":"Сағақүрес","ru":"Сагакурес","en":"Saghaqures"},"country":"KZ","lat":45.409819,"lon":79.249824,"pop":0,"dumk_id":8173,"search_terms":["сағақүрес","saghaqures","сагакурес"]},{"id":90002565,"name":"Suyqsay","names":{"kk":"Суықсай","ru":"Суыксай","en":"Suyqsay"},"country":"KZ","lat":45.255573,"lon":79.412958,"pop":0,"dumk_id":8185,"search_terms":["suyqsay","суықсай","суыксай"]},{"id":90002594,"name":"Sapaq","names":{"kk":"Сапақ","ru":"Сапак","en":"Sapaq"},"country":"KZ","lat":45.788141,"lon":80.868956,"pop":0,"dumk_id":8214,"search_terms":["сапак","sapaq","сапақ"]},{"id":90002620,"name":"Syrymbet","names":{"kk":"Сырымбет","ru":"Сырымбет","en":"Syrymbet"},"country":"KZ","lat":44.856519,"lon":78.682484,"pop":0,"dumk_id":8241,"search_terms":["syrymbet","сырымбет"]},{"id":90002635,"name":"Sarybulaq","names":{"kk":"Сарыбұлақ","ru":"Сарыбулак","en":"Sarybulaq"},"country":"KZ","lat":45.075953,"lon":78.071674,"pop":0,"dumk_id":8256,"search_terms":["sarybulaq","сарыбұлақ","сарыбулак"]},{"id":90002663,"name":"Sarybastau","names":{"kk":"Сарыбастау","ru":"Сарыбастау","en":"Sarybastau"},"country":"KZ","lat":44.19855,"lon":77.884196,"pop":0,"dumk_id":8284,"search_terms":["сарыбастау","sarybastau"]},{"id":90002667,"name":"Saryozek","names":{"kk":"Сарыөзек","ru":"Сарыозек","en":"Saryozek"},"country":"KZ","lat":44.352783,"lon":77.967173,"pop":0,"dumk_id":8288,"search_terms":["сарыозек","сарыөзек","saryozek"]},{"id":90002678,"name":"Saylykol","names":{"kk":"Сайлыкөл","ru":"Сайлыкол","en":"Saylykol"},"country":"KZ","lat":44.451959,"lon":78.225043,"pop":0,"dumk_id":8299,"search_terms":["сайлыкөл","saylykol","сайлыкол"]},{"id":90002704,"name":"Sarpyldaq","names":{"kk":"Сарпылдақ","ru":"Сарпылдак","en":"Sarpyldaq"},"country":"KZ","lat":43.95162,"lon":79.807848,"pop":0,"dumk_id":8325,"search_terms":["сарпылдак","сарпылдақ","sarpyldaq"]},{"id":90002707,"name":"Suptay","names":{"kk":"Сұптай","ru":"Суптай","en":"Suptay"},"country":"KZ","lat":44.25469,"lon":80.096414,"pop":0,"dumk_id":8328,"search_terms":["сұптай","suptay","суптай"]},{"id":90002713,"name":"Sarytobe","names":{"kk":"Сарытөбе","ru":"Сарытобе","en":"Sarytobe"},"country":"KZ","lat":44.262095,"lon":79.345773,"pop":0,"dumk_id":8334,"search_terms":["sarytobe","сарытөбе","сарытобе"]},{"id":90002720,"name":"Sadyr","names":{"kk":"Садыр","ru":"Садыр","en":"Sadyr"},"country":"KZ","lat":44.38323,"lon":80.063697,"pop":0,"dumk_id":8341,"search_terms":["садыр","sadyr"]},{"id":90002721,"name":"Sarybel","names":{"kk":"Сарыбел","ru":"Сарыбел","en":"Sarybel"},"country":"KZ","lat":44.423299,"lon":80.059188,"pop":0,"dumk_id":8342,"search_terms":["sarybel","сарыбел"]},{"id":90002759,"name":"Sarepti","names":{"kk":"Сәрепті","ru":"Сарепти","en":"Sarepti"},"country":"KZ","lat":49.670894,"lon":72.379652,"pop":0,"dumk_id":8380,"search_terms":["sarepti","сәрепті","сарепти"]},{"id":90002769,"name":"Soltustik qaraghan bolimshesi","names":{"kk":"Солтүстік қараған бөлімшесі","ru":"Солтустик караган болимшеси","en":"Soltustik qaraghan bolimshesi"},"country":"KZ","lat":49.609079,"lon":72.838413,"pop":0,"dumk_id":8390,"search_terms":["солтүстік қараған бөлімшесі","солтустик караган болимшеси","soltustik qaraghan bolimshesi"]},{"id":90002776,"name":"Sadovoe","names":{"kk":"Садовое","ru":"Садовое","en":"Sadovoe"},"country":"KZ","lat":49.661297,"lon":72.694359,"pop":0,"dumk_id":8397,"search_terms":["sadovoe","садовое"]},{"id":90002779,"name":"Samarka","names":{"kk":"Самарка","ru":"Самарка","en":"Samarka"},"country":"KZ","lat":49.717833,"lon":72.033073,"pop":0,"dumk_id":8400,"search_terms":["самарка","samarka"]},{"id":90002788,"name":"Saule","names":{"kk":"Сәуле","ru":"Сауле","en":"Saule"},"country":"KZ","lat":48.426856,"lon":74.822477,"pop":0,"dumk_id":8409,"search_terms":["сауле","saule","сәуле"]},{"id":90002806,"name":"Saryterek","names":{"kk":"Сарытерек","ru":"Сарытерек","en":"Saryterek"},"country":"KZ","lat":48.068076,"lon":75.33872,"pop":0,"dumk_id":8427,"search_terms":["saryterek","сарытерек"]},{"id":90002807,"name":"Saryshaghan","names":{"kk":"Сарышаған","ru":"Сарышаган","en":"Saryshaghan"},"country":"KZ","lat":46.115357,"lon":73.619273,"pop":0,"dumk_id":8428,"search_terms":["saryshaghan","сарышаған","сарышаган"]},{"id":90002810,"name":"Sona","names":{"kk":"Сона","ru":"Сона","en":"Sona"},"country":"KZ","lat":48.318256,"lon":75.673702,"pop":0,"dumk_id":8431,"search_terms":["сона","sona"]},{"id":90002824,"name":"Semiz-bugha","names":{"kk":"Семіз-бұға","ru":"Семиз-буга","en":"Semiz-bugha"},"country":"KZ","lat":50.196267,"lon":74.829582,"pop":0,"dumk_id":8445,"search_terms":["semiz-bugha","семіз-бұға","семиз-буга"]},{"id":90002828,"name":"Sadovoe","names":{"kk":"Садовое","ru":"Садовое","en":"Sadovoe"},"country":"KZ","lat":50.137729,"lon":72.846695,"pop":0,"dumk_id":8449,"search_terms":["sadovoe","садовое"]},{"id":90002836,"name":"Sarytobe","names":{"kk":"Сарытөбе","ru":"Сарытобе","en":"Sarytobe"},"country":"KZ","lat":50.070112,"lon":73.542836,"pop":0,"dumk_id":8457,"search_terms":["sarytobe","сарытөбе","сарытобе"]},{"id":90002839,"name":"Saratovka","names":{"kk":"Саратовка","ru":"Саратовка","en":"Saratovka"},"country":"KZ","lat":49.984754,"lon":72.8796,"pop":0,"dumk_id":8460,"search_terms":["саратовка","saratovka"]},{"id":90002842,"name":"Sevan","names":{"kk":"Севан","ru":"Севан","en":"Sevan"},"country":"KZ","lat":49.925852,"lon":72.969064,"pop":0,"dumk_id":8463,"search_terms":["севан","sevan"]},{"id":90002843,"name":"Stan","names":{"kk":"Стан","ru":"Стан","en":"Stan"},"country":"KZ","lat":49.889813,"lon":72.9274,"pop":0,"dumk_id":8464,"search_terms":["стан","stan"]},{"id":90002850,"name":"Samarqand","names":{"kk":"Самарқанд","ru":"Самарканд","en":"Samarqand"},"country":"KZ","lat":50.109395,"lon":72.811023,"pop":0,"dumk_id":8471,"search_terms":["samarqand","самарқанд","самарканд"]},{"id":90002853,"name":"Suyqsu","names":{"kk":"Суықсу","ru":"Суыксу","en":"Suyqsu"},"country":"KZ","lat":49.497366,"lon":73.719354,"pop":0,"dumk_id":8474,"search_terms":["suyqsu","суықсу","суыксу"]},{"id":90002861,"name":"Saryarqa","names":{"kk":"Сарыарқа","ru":"Сарыарка","en":"Saryarqa"},"country":"KZ","lat":49.677045,"lon":73.249086,"pop":0,"dumk_id":8482,"search_terms":["сарыарка","сарыарқа","saryarqa"]},{"id":90002862,"name":"Sokurskoe","names":{"kk":"Сокурское","ru":"Сокурское","en":"Sokurskoe"},"country":"KZ","lat":49.792509,"lon":73.249518,"pop":0,"dumk_id":8483,"search_terms":["sokurskoe","сокурское"]},{"id":90002880,"name":"Saryobaly","names":{"kk":"Сарыобалы","ru":"Сарыобалы","en":"Saryobaly"},"country":"KZ","lat":48.731117,"lon":76.133541,"pop":0,"dumk_id":8501,"search_terms":["saryobaly","сарыобалы"]},{"id":90002885,"name":"Saz","names":{"kk":"Саз","ru":"Саз","en":"Saz"},"country":"KZ","lat":48.99896,"lon":75.626289,"pop":0,"dumk_id":8506,"search_terms":["saz","саз"]},{"id":90002942,"name":"Saryozen","names":{"kk":"Сарыөзен","ru":"Сарыозен","en":"Saryozen"},"country":"KZ","lat":49.096632,"lon":69.384004,"pop":0,"dumk_id":8563,"search_terms":["сарыөзен","saryozen","сарыозен"]},{"id":90002943,"name":"Sonaly","names":{"kk":"Соналы","ru":"Соналы","en":"Sonaly"},"country":"KZ","lat":49.946516,"lon":70.280172,"pop":0,"dumk_id":8564,"search_terms":["соналы","sonaly"]},{"id":90002953,"name":"Saryozen","names":{"kk":"Сарыөзен","ru":"Сарыозен","en":"Saryozen"},"country":"KZ","lat":50.31075,"lon":72.921839,"pop":0,"dumk_id":8574,"search_terms":["сарыөзен","saryozen","сарыозен"]},{"id":90002967,"name":"Svyatogorovka","names":{"kk":"Святогоровка","ru":"Святогоровка","en":"Svyatogorovka"},"country":"KZ","lat":50.788612,"lon":73.083482,"pop":0,"dumk_id":8588,"search_terms":["svyatogorovka","святогоровка"]},{"id":90002968,"name":"Senokosnoe","names":{"kk":"Сенокосное","ru":"Сенокосное","en":"Senokosnoe"},"country":"KZ","lat":50.117327,"lon":73.437095,"pop":0,"dumk_id":8589,"search_terms":["сенокосное","senokosnoe"]},{"id":90002984,"name":"Sadovoe","names":{"kk":"Садовое","ru":"Садовое","en":"Sadovoe"},"country":"KZ","lat":50.279584,"lon":72.099656,"pop":0,"dumk_id":8605,"search_terms":["sadovoe","садовое"]},{"id":90002987,"name":"Saryozek","names":{"kk":"Сарыөзек","ru":"Сарыозек","en":"Saryozek"},"country":"KZ","lat":50.399521,"lon":73.064563,"pop":0,"dumk_id":8608,"search_terms":["сарыозек","сарыөзек","saryozek"]},{"id":90002990,"name":"Selstroy","names":{"kk":"Сельстрой","ru":"Сельстрой","en":"Selstroy"},"country":"KZ","lat":50.436186,"lon":72.352918,"pop":0,"dumk_id":8611,"search_terms":["сельстрой","selstroy"]},{"id":90002991,"name":"Sungqar","names":{"kk":"Сұңқар","ru":"Сункар","en":"Sungqar"},"country":"KZ","lat":50.381638,"lon":72.220192,"pop":0,"dumk_id":8612,"search_terms":["сункар","sungqar","сұңқар"]},{"id":90003033,"name":"Sarybulaq","names":{"kk":"Сарыбұлақ","ru":"Сарыбулак","en":"Sarybulaq"},"country":"KZ","lat":48.308351,"lon":72.256205,"pop":0,"dumk_id":8654,"search_terms":["sarybulaq","сарыбұлақ","сарыбулак"]},{"id":90003034,"name":"Saken Seyfullin","names":{"kk":"Сәкен Сейфуллин","ru":"Сакен Сейфуллин","en":"Saken Seyfullin"},"country":"KZ","lat":48.854214,"lon":72.833382,"pop":0,"dumk_id":8655,"search_terms":["сакен сейфуллин","saken seyfullin","сәкен сейфуллин"]},{"id":90003060,"name":"Sverdlovka","names":{"kk":"Свердловка","ru":"Свердловка","en":"Sverdlovka"},"country":"KZ","lat":53.133449,"lon":64.664175,"pop":0,"dumk_id":8681,"search_terms":["свердловка","sverdlovka"]},{"id":90003064,"name":"Silantev","names":{"kk":"Силантьев","ru":"Силантьев","en":"Silantev"},"country":"KZ","lat":53.095668,"lon":64.261451,"pop":0,"dumk_id":8685,"search_terms":["silantev","силантьев"]},{"id":90003068,"name":"Satay","names":{"kk":"Сатай","ru":"Сатай","en":"Satay"},"country":"KZ","lat":53.279338,"lon":64.302127,"pop":0,"dumk_id":8689,"search_terms":["satay","сатай"]},{"id":90003100,"name":"Stepnyak","names":{"kk":"Степняк","ru":"Степняк","en":"Stepnyak"},"country":"KZ","lat":50.778645,"lon":65.066063,"pop":0,"dumk_id":8721,"search_terms":["stepnyak","степняк"]},{"id":90003126,"name":"Sosnovka","names":{"kk":"Сосновка","ru":"Сосновка","en":"Sosnovka"},"country":"KZ","lat":52.345839,"lon":63.894956,"pop":0,"dumk_id":8747,"search_terms":["сосновка","sosnovka"]},{"id":90003163,"name":"Sverdlovka","names":{"kk":"Свердловка","ru":"Свердловка","en":"Sverdlovka"},"country":"KZ","lat":52.925015,"lon":61.544874,"pop":0,"dumk_id":8784,"search_terms":["свердловка","sverdlovka"]},{"id":90003173,"name":"Sarysu","names":{"kk":"Сарысу","ru":"Сарысу","en":"Sarysu"},"country":"KZ","lat":49.874547,"lon":63.769498,"pop":0,"dumk_id":8794,"search_terms":["сарысу","sarysu"]},{"id":90003183,"name":"Sagha","names":{"kk":"Саға","ru":"Сага","en":"Sagha"},"country":"KZ","lat":50.476881,"lon":64.260966,"pop":0,"dumk_id":8804,"search_terms":["сага","sagha","саға"]},{"id":90003185,"name":"Suzharghan","names":{"kk":"Сужарған","ru":"Сужарган","en":"Suzharghan"},"country":"KZ","lat":49.788624,"lon":63.664682,"pop":0,"dumk_id":8806,"search_terms":["suzharghan","сужарған","сужарган"]},{"id":90003197,"name":"Stepnoy","names":{"kk":"Степной","ru":"Степной","en":"Stepnoy"},"country":"KZ","lat":51.74813,"lon":61.356946,"pop":0,"dumk_id":8818,"search_terms":["степной","stepnoy"]},{"id":90003237,"name":"Svyatoslavka","names":{"kk":"Святославка","ru":"Святославка","en":"Svyatoslavka"},"country":"KZ","lat":53.923525,"lon":62.193107,"pop":0,"dumk_id":8858,"search_terms":["svyatoslavka","святославка"]},{"id":90003238,"name":"Stantsionnoe","names":{"kk":"Станционное","ru":"Станционное","en":"Stantsionnoe"},"country":"KZ","lat":53.889072,"lon":61.875831,"pop":0,"dumk_id":8859,"search_terms":["станционное","stantsionnoe"]},{"id":90003243,"name":"Samany","names":{"kk":"Саманы","ru":"Саманы","en":"Samany"},"country":"KZ","lat":53.570498,"lon":61.269702,"pop":0,"dumk_id":8864,"search_terms":["саманы","samany"]},{"id":90003247,"name":"Slavenka","names":{"kk":"Славенка","ru":"Славенка","en":"Slavenka"},"country":"KZ","lat":53.347892,"lon":62.046367,"pop":0,"dumk_id":8868,"search_terms":["slavenka","славенка"]},{"id":90003254,"name":"Sarykol","names":{"kk":"Сарыколь","ru":"Сарыколь","en":"Sarykol"},"country":"KZ","lat":53.818599,"lon":61.740194,"pop":0,"dumk_id":8875,"search_terms":["sarykol","сарыколь"]},{"id":90003258,"name":"Svetloe","names":{"kk":"Светлое","ru":"Светлое","en":"Svetloe"},"country":"KZ","lat":53.720864,"lon":61.711143,"pop":0,"dumk_id":8879,"search_terms":["svetloe","светлое"]},{"id":90003267,"name":"Smirnovka","names":{"kk":"Смирновка","ru":"Смирновка","en":"Smirnovka"},"country":"KZ","lat":53.610038,"lon":62.186468,"pop":0,"dumk_id":8888,"search_terms":["смирновка","smirnovka"]},{"id":90003275,"name":"Stepnoe","names":{"kk":"Степное","ru":"Степное","en":"Stepnoe"},"country":"KZ","lat":52.286304,"lon":65.361869,"pop":0,"dumk_id":8896,"search_terms":["stepnoe","степное"]},{"id":90003290,"name":"Suygensay","names":{"kk":"Сүйгенсай","ru":"Суйгенсай","en":"Suygensay"},"country":"KZ","lat":52.595814,"lon":65.667826,"pop":0,"dumk_id":8911,"search_terms":["suygensay","суйгенсай","сүйгенсай"]},{"id":90003301,"name":"Simferopol","names":{"kk":"Симферополь","ru":"Симферополь","en":"Simferopol"},"country":"KZ","lat":52.434703,"lon":65.367969,"pop":0,"dumk_id":8922,"search_terms":["симферополь","simferopol"]},{"id":90003340,"name":"Stepanovka","names":{"kk":"Степановка","ru":"Степановка","en":"Stepanovka"},"country":"KZ","lat":53.610481,"lon":64.167793,"pop":0,"dumk_id":8968,"search_terms":["stepanovka","степановка"]},{"id":90003349,"name":"Sosna","names":{"kk":"Сосна","ru":"Сосна","en":"Sosna"},"country":"KZ","lat":53.814437,"lon":64.570085,"pop":0,"dumk_id":8979,"search_terms":["сосна","sosna"]},{"id":90003377,"name":"Sarykol","names":{"kk":"Сарыкөл","ru":"Сарыкол","en":"Sarykol"},"country":"KZ","lat":53.316327,"lon":65.540122,"pop":0,"dumk_id":9007,"search_terms":["sarykol","сарыкол","сарыкөл"]},{"id":90003382,"name":"Sevastopol","names":{"kk":"Севастополь","ru":"Севастополь","en":"Sevastopol"},"country":"KZ","lat":53.136074,"lon":65.793105,"pop":0,"dumk_id":9012,"search_terms":["севастополь","sevastopol"]},{"id":90003388,"name":"Sorochinka","names":{"kk":"Сорочинка","ru":"Сорочинка","en":"Sorochinka"},"country":"KZ","lat":53.334446,"lon":65.380348,"pop":0,"dumk_id":9018,"search_terms":["sorochinka","сорочинка"]},{"id":90003391,"name":"Sonaly","names":{"kk":"Соналы","ru":"Соналы","en":"Sonaly"},"country":"KZ","lat":53.27027,"lon":65.895954,"pop":0,"dumk_id":9021,"search_terms":["соналы","sonaly"]},{"id":90003430,"name":"Satay","names":{"kk":"Сатай","ru":"Сатай","en":"Satay"},"country":"KZ","lat":54.310405,"lon":65.88114,"pop":0,"dumk_id":9060,"search_terms":["satay","сатай"]},{"id":90003436,"name":"Sibirka","names":{"kk":"Сибирка","ru":"Сибирка","en":"Sibirka"},"country":"KZ","lat":54.416509,"lon":65.343139,"pop":0,"dumk_id":9066,"search_terms":["sibirka","сибирка"]},{"id":90003437,"name":"Sokol","names":{"kk":"Сокол","ru":"Сокол","en":"Sokol"},"country":"KZ","lat":54.37823,"lon":65.521266,"pop":0,"dumk_id":9067,"search_terms":["сокол","sokol"]},{"id":90003460,"name":"Severnoe","names":{"kk":"Северное","ru":"Северное","en":"Severnoe"},"country":"KZ","lat":53.888648,"lon":63.168246,"pop":0,"dumk_id":9090,"search_terms":["severnoe","северное"]},{"id":90003479,"name":"Staroshumnoe","names":{"kk":"Старошумное","ru":"Старошумное","en":"Staroshumnoe"},"country":"KZ","lat":53.907986,"lon":62.867167,"pop":0,"dumk_id":9109,"search_terms":["staroshumnoe","старошумное"]},{"id":90003499,"name":"Stepnoe","names":{"kk":"Степное","ru":"Степное","en":"Stepnoe"},"country":"KZ","lat":52.972686,"lon":63.88485,"pop":0,"dumk_id":9129,"search_terms":["stepnoe","степное"]},{"id":90003505,"name":"Sergeevka","names":{"kk":"Сергеевка","ru":"Сергеевка","en":"Sergeevka"},"country":"KZ","lat":52.953214,"lon":63.198807,"pop":0,"dumk_id":9135,"search_terms":["сергеевка","sergeevka"]},{"id":90003507,"name":"Sormovka","names":{"kk":"Сормовка","ru":"Сормовка","en":"Sormovka"},"country":"KZ","lat":53.520253,"lon":64.073434,"pop":0,"dumk_id":9137,"search_terms":["sormovka","сормовка"]},{"id":90003510,"name":"Samir","names":{"kk":"Самир","ru":"Самир","en":"Samir"},"country":"KZ","lat":53.339328,"lon":63.626162,"pop":0,"dumk_id":9140,"search_terms":["samir","самир"]},{"id":90003515,"name":"Semiletka","names":{"kk":"Семилетка","ru":"Семилетка","en":"Semiletka"},"country":"KZ","lat":53.033823,"lon":63.36919,"pop":0,"dumk_id":9145,"search_terms":["семилетка","semiletka"]},{"id":90003528,"name":"Sadovoe","names":{"kk":"Садовое","ru":"Садовое","en":"Sadovoe"},"country":"KZ","lat":53.103735,"lon":63.600542,"pop":0,"dumk_id":9158,"search_terms":["sadovoe","садовое"]},{"id":90003530,"name":"Svetlyy zharkol","names":{"kk":"Светлый жарколь","ru":"Светлый жарколь","en":"Svetlyy zharkol"},"country":"KZ","lat":53.351612,"lon":63.203748,"pop":0,"dumk_id":9160,"search_terms":["svetlyy zharkol","светлый жарколь"]},{"id":90003535,"name":"Surikovka","names":{"kk":"Суриковка","ru":"Суриковка","en":"Surikovka"},"country":"KZ","lat":53.609808,"lon":63.454755,"pop":0,"dumk_id":9165,"search_terms":["surikovka","суриковка"]},{"id":90003544,"name":"Sadchikovka","names":{"kk":"Садчиковка","ru":"Садчиковка","en":"Sadchikovka"},"country":"KZ","lat":53.024877,"lon":63.482782,"pop":0,"dumk_id":9174,"search_terms":["sadchikovka","садчиковка"]},{"id":90003560,"name":"Smayyl","names":{"kk":"Смайыл","ru":"Смайыл","en":"Smayyl"},"country":"KZ","lat":52.128359,"lon":62.702664,"pop":0,"dumk_id":9190,"search_terms":["smayyl","смайыл"]},{"id":90003631,"name":"Sazdy","names":{"kk":"Сазды","ru":"Сазды","en":"Sazdy"},"country":"KZ","lat":47.341587,"lon":61.768815,"pop":0,"dumk_id":9261,"search_terms":["сазды","sazdy"]},{"id":90003632,"name":"Sekseuil","names":{"kk":"Сексеуіл","ru":"Сексеуил","en":"Sekseuil"},"country":"KZ","lat":47.082739,"lon":61.15328,"pop":0,"dumk_id":9262,"search_terms":["sekseuil","сексеуил","сексеуіл"]},{"id":90003634,"name":"Sorbetkey","names":{"kk":"Сорбеткей","ru":"Сорбеткей","en":"Sorbetkey"},"country":"KZ","lat":46.280319,"lon":61.940609,"pop":0,"dumk_id":9264,"search_terms":["сорбеткей","sorbetkey"]},{"id":90003635,"name":"Saniaz","names":{"kk":"Саниаз","ru":"Саниаз","en":"Saniaz"},"country":"KZ","lat":46.340248,"lon":61.918824,"pop":0,"dumk_id":9265,"search_terms":["saniaz","саниаз"]},{"id":90003637,"name":"Sapaq","names":{"kk":"Сапақ","ru":"Сапак","en":"Sapaq"},"country":"KZ","lat":46.617614,"lon":61.79474,"pop":0,"dumk_id":9267,"search_terms":["сапак","sapaq","сапақ"]},{"id":90003645,"name":"Satbay","names":{"kk":"Сәтбай","ru":"Сатбай","en":"Satbay"},"country":"KZ","lat":44.603609,"lon":64.301076,"pop":0,"dumk_id":9275,"search_terms":["satbay","сатбай","сәтбай"]},{"id":90003682,"name":"Sunaqata","names":{"kk":"Сунақата","ru":"Сунаката","en":"Sunaqata"},"country":"KZ","lat":44.138107,"lon":66.977498,"pop":0,"dumk_id":9313,"search_terms":["сунақата","sunaqata","сунаката"]},{"id":90003710,"name":"Sarbulaq","names":{"kk":"Сарбұлақ","ru":"Сарбулак","en":"Sarbulaq"},"country":"KZ","lat":45.194688,"lon":62.818038,"pop":0,"dumk_id":9342,"search_terms":["сарбулак","sarbulaq","сарбұлақ"]},{"id":90003742,"name":"Seyfullin","names":{"kk":"Сейфуллин","ru":"Сейфуллин","en":"Seyfullin"},"country":"KZ","lat":45.076373,"lon":64.944512,"pop":0,"dumk_id":9376,"search_terms":["seyfullin","сейфуллин"]},{"id":90003773,"name":"Sulutobe","names":{"kk":"Сұлутөбе","ru":"Сулутобе","en":"Sulutobe"},"country":"KZ","lat":44.631481,"lon":66.043969,"pop":0,"dumk_id":9407,"search_terms":["сұлутөбе","сулутобе","sulutobe"]},{"id":90003784,"name":"Sam","names":{"kk":"Сам","ru":"Сам","en":"Sam"},"country":"KZ","lat":45.236993,"lon":55.86665,"pop":0,"dumk_id":9418,"search_terms":["сам","sam"]},{"id":90003785,"name":"Sargha","names":{"kk":"Сарға","ru":"Сарга","en":"Sargha"},"country":"KZ","lat":45.46429,"lon":55.068991,"pop":0,"dumk_id":9419,"search_terms":["sargha","сарга","сарға"]},{"id":90003786,"name":"Syngghyrlau","names":{"kk":"Сыңғырлау","ru":"Сынгырлау","en":"Syngghyrlau"},"country":"KZ","lat":45.208444,"lon":55.398484,"pop":0,"dumk_id":9420,"search_terms":["syngghyrlau","сыңғырлау","сынгырлау"]},{"id":90003799,"name":"Senek","names":{"kk":"Сенек","ru":"Сенек","en":"Senek"},"country":"KZ","lat":43.363875,"lon":53.39295,"pop":0,"dumk_id":9433,"search_terms":["senek","сенек"]},{"id":90003805,"name":"Sayotes","names":{"kk":"Сайөтес","ru":"Сайотес","en":"Sayotes"},"country":"KZ","lat":44.32853,"lon":53.533572,"pop":0,"dumk_id":9439,"search_terms":["сайөтес","sayotes","сайотес"]},{"id":90003816,"name":"Sayyn Shapaghatov","names":{"kk":"Сайын Шапағатов","ru":"Сайын Шапагатов","en":"Sayyn Shapaghatov"},"country":"KZ","lat":43.851716,"lon":51.032627,"pop":0,"dumk_id":9452,"search_terms":["сайын шапағатов","сайын шапагатов","sayyn shapaghatov"]},{"id":90003842,"name":"Spartak","names":{"kk":"Спартак","ru":"Спартак","en":"Spartak"},"country":"KZ","lat":52.700705,"lon":76.452434,"pop":0,"dumk_id":9478,"search_terms":["спартак","spartak"]},{"id":90003900,"name":"Slavyanovka","names":{"kk":"Славяновка","ru":"Славяновка","en":"Slavyanovka"},"country":"KZ","lat":53.928524,"lon":76.315324,"pop":0,"dumk_id":9536,"search_terms":["славяновка","slavyanovka"]},{"id":90003947,"name":"Severnoe","names":{"kk":"Северное","ru":"Северное","en":"Severnoe"},"country":"KZ","lat":53.744652,"lon":74.963252,"pop":0,"dumk_id":9583,"search_terms":["severnoe","северное"]},{"id":90003951,"name":"Seleti","names":{"kk":"Селеті","ru":"Селети","en":"Seleti"},"country":"KZ","lat":52.965772,"lon":73.90067,"pop":0,"dumk_id":9587,"search_terms":["селеті","селети","seleti"]},{"id":90003969,"name":"Saty","names":{"kk":"Саты","ru":"Саты","en":"Saty"},"country":"KZ","lat":51.318508,"lon":77.747795,"pop":0,"dumk_id":9605,"search_terms":["саты","saty"]},{"id":90003996,"name":"Sychevka","names":{"kk":"Сычевка","ru":"Сычевка","en":"Sychevka"},"country":"KZ","lat":52.592554,"lon":76.756235,"pop":0,"dumk_id":9632,"search_terms":["sychevka","сычевка"]},{"id":90004076,"name":"Sakhnovka","names":{"kk":"Сахновка","ru":"Сахновка","en":"Sakhnovka"},"country":"KZ","lat":52.262334,"lon":77.996988,"pop":0,"dumk_id":9712,"search_terms":["sakhnovka","сахновка"]},{"id":90004081,"name":"Sosnovka","names":{"kk":"Сосновка","ru":"Сосновка","en":"Sosnovka"},"country":"KZ","lat":52.719714,"lon":78.080846,"pop":0,"dumk_id":9717,"search_terms":["сосновка","sosnovka"]},{"id":90004082,"name":"Sofivka","names":{"kk":"Софивка","ru":"Софивка","en":"Sofivka"},"country":"KZ","lat":52.853724,"lon":78.063778,"pop":0,"dumk_id":9718,"search_terms":["софивка","sofivka"]},{"id":90004083,"name":"Sretenka","names":{"kk":"Сретенка","ru":"Сретенка","en":"Sretenka"},"country":"KZ","lat":52.793959,"lon":78.166024,"pop":0,"dumk_id":9719,"search_terms":["sretenka","сретенка"]},{"id":90004087,"name":"Sadik-ashi","names":{"kk":"Сәдік-аши","ru":"Садик-аши","en":"Sadik-ashi"},"country":"KZ","lat":52.035818,"lon":78.799318,"pop":0,"dumk_id":9723,"search_terms":["садик-аши","sadik-ashi","сәдік-аши"]},{"id":90004088,"name":"Sugir","names":{"kk":"Сүгір","ru":"Сугир","en":"Sugir"},"country":"KZ","lat":52.159697,"lon":78.773627,"pop":0,"dumk_id":9724,"search_terms":["сугир","sugir","сүгір"]},{"id":90004094,"name":"Syntas","names":{"kk":"Сынтас","ru":"Сынтас","en":"Syntas"},"country":"KZ","lat":52.672265,"lon":78.380335,"pop":0,"dumk_id":9730,"search_terms":["сынтас","syntas"]},{"id":90004117,"name":"Saumalkol","names":{"kk":"Саумалкөл","ru":"Саумалкол","en":"Saumalkol"},"country":"KZ","lat":53.294454,"lon":68.104138,"pop":0,"dumk_id":9753,"search_terms":["саумалкол","саумалкөл","saumalkol"]},{"id":90004141,"name":"Svetloe","names":{"kk":"Светлое","ru":"Светлое","en":"Svetloe"},"country":"KZ","lat":53.795592,"lon":68.206897,"pop":0,"dumk_id":9777,"search_terms":["svetloe","светлое"]},{"id":90004145,"name":"Sary-ozek","names":{"kk":"Сары-өзек","ru":"Сары-озек","en":"Sary-ozek"},"country":"KZ","lat":53.454283,"lon":67.728885,"pop":0,"dumk_id":9781,"search_terms":["сары-озек","сары-өзек","sary-ozek"]},{"id":90004162,"name":"Sarybulaq","names":{"kk":"Сарыбұлақ","ru":"Сарыбулак","en":"Sarybulaq"},"country":"KZ","lat":53.471781,"lon":68.15792,"pop":0,"dumk_id":9798,"search_terms":["sarybulaq","сарыбұлақ","сарыбулак"]},{"id":90004163,"name":"Sulykol","names":{"kk":"Сулыкөл","ru":"Сулыкол","en":"Sulykol"},"country":"KZ","lat":53.52612,"lon":67.818923,"pop":0,"dumk_id":9799,"search_terms":["sulykol","сулыкөл","сулыкол"]},{"id":90004164,"name":"Syrymbet","names":{"kk":"Сырымбет","ru":"Сырымбет","en":"Syrymbet"},"country":"KZ","lat":53.481138,"lon":67.995433,"pop":0,"dumk_id":9800,"search_terms":["syrymbet","сырымбет"]},{"id":90004174,"name":"Sarysay","names":{"kk":"Сарысай","ru":"Сарысай","en":"Sarysay"},"country":"KZ","lat":53.084295,"lon":67.732469,"pop":0,"dumk_id":9810,"search_terms":["sarysay","сарысай"]},{"id":90004175,"name":"Sarytubek","names":{"kk":"Сарытүбек","ru":"Сарытубек","en":"Sarytubek"},"country":"KZ","lat":53.200528,"lon":67.945226,"pop":0,"dumk_id":9811,"search_terms":["sarytubek","сарытүбек","сарытубек"]},{"id":90004198,"name":"Sennoe","names":{"kk":"Сенное","ru":"Сенное","en":"Sennoe"},"country":"KZ","lat":54.083428,"lon":69.537481,"pop":0,"dumk_id":9834,"search_terms":["sennoe","сенное"]},{"id":90004210,"name":"Smirnovo","names":{"kk":"Смирново","ru":"Смирново","en":"Smirnovo"},"country":"KZ","lat":54.515649,"lon":69.416954,"pop":0,"dumk_id":9846,"search_terms":["smirnovo","смирново"]},{"id":90004235,"name":"Slavyanka","names":{"kk":"Славянка","ru":"Славянка","en":"Slavyanka"},"country":"KZ","lat":53.746212,"lon":68.749317,"pop":0,"dumk_id":9871,"search_terms":["slavyanka","славянка"]},{"id":90004253,"name":"Sarman","names":{"kk":"Сарман","ru":"Сарман","en":"Sarman"},"country":"KZ","lat":54.309717,"lon":67.820962,"pop":0,"dumk_id":9889,"search_terms":["сарман","sarman"]},{"id":90004254,"name":"Spasovka","names":{"kk":"Спасовка","ru":"Спасовка","en":"Spasovka"},"country":"KZ","lat":54.349933,"lon":67.721896,"pop":0,"dumk_id":9890,"search_terms":["spasovka","спасовка"]},{"id":90004258,"name":"Sarykol","names":{"kk":"Сарыкөл","ru":"Сарыкол","en":"Sarykol"},"country":"KZ","lat":54.148454,"lon":68.545238,"pop":0,"dumk_id":9894,"search_terms":["sarykol","сарыкол","сарыкөл"]},{"id":90004272,"name":"Suatkol","names":{"kk":"Суаткөл","ru":"Суаткол","en":"Suatkol"},"country":"KZ","lat":54.140479,"lon":66.982771,"pop":0,"dumk_id":9908,"search_terms":["suatkol","суаткөл","суаткол"]},{"id":90004276,"name":"Svetloe","names":{"kk":"Светлое","ru":"Светлое","en":"Svetloe"},"country":"KZ","lat":54.585914,"lon":66.635833,"pop":0,"dumk_id":9912,"search_terms":["svetloe","светлое"]},{"id":90004279,"name":"Sengzhar","names":{"kk":"Сеңжар","ru":"Сенжар","en":"Sengzhar"},"country":"KZ","lat":54.772842,"lon":67.831302,"pop":0,"dumk_id":9915,"search_terms":["сеңжар","sengzhar","сенжар"]},{"id":90004280,"name":"Simaki","names":{"kk":"Симаки","ru":"Симаки","en":"Simaki"},"country":"KZ","lat":54.731305,"lon":67.804954,"pop":0,"dumk_id":9916,"search_terms":["симаки","simaki"]},{"id":90004284,"name":"Svyatodukhovka","names":{"kk":"Святодуховка","ru":"Святодуховка","en":"Svyatodukhovka"},"country":"KZ","lat":54.492322,"lon":66.786606,"pop":0,"dumk_id":9920,"search_terms":["святодуховка","svyatodukhovka"]},{"id":90004311,"name":"Sosnovka","names":{"kk":"Сосновка","ru":"Сосновка","en":"Sosnovka"},"country":"KZ","lat":54.935436,"lon":69.714225,"pop":0,"dumk_id":9947,"search_terms":["сосновка","sosnovka"]},{"id":90004319,"name":"Sumnoe","names":{"kk":"Сумное","ru":"Сумное","en":"Sumnoe"},"country":"KZ","lat":55.333251,"lon":69.05576,"pop":0,"dumk_id":9955,"search_terms":["sumnoe","сумное"]},{"id":90004346,"name":"Sokolovka","names":{"kk":"Соколовка","ru":"Соколовка","en":"Sokolovka"},"country":"KZ","lat":55.111464,"lon":69.205572,"pop":0,"dumk_id":9982,"search_terms":["sokolovka","соколовка"]},{"id":90004354,"name":"Suvorovka","names":{"kk":"Суворовка","ru":"Суворовка","en":"Suvorovka"},"country":"KZ","lat":55.098367,"lon":70.319653,"pop":0,"dumk_id":9990,"search_terms":["suvorovka","суворовка"]},{"id":90004372,"name":"Sarytomar","names":{"kk":"Сарытомар","ru":"Сарытомар","en":"Sarytomar"},"country":"KZ","lat":54.638351,"lon":70.16756,"pop":0,"dumk_id":10008,"search_terms":["sarytomar","сарытомар"]},{"id":90004381,"name":"Skvortsovka","names":{"kk":"Скворцовка","ru":"Скворцовка","en":"Skvortsovka"},"country":"KZ","lat":54.804306,"lon":70.019742,"pop":0,"dumk_id":10017,"search_terms":["скворцовка","skvortsovka"]},{"id":90004384,"name":"Seyfolla","names":{"kk":"Сейфолла","ru":"Сейфолла","en":"Seyfolla"},"country":"KZ","lat":54.374926,"lon":70.505883,"pop":0,"dumk_id":10020,"search_terms":["seyfolla","сейфолла"]},{"id":90004389,"name":"Sulyshok","names":{"kk":"Сұлышок","ru":"Сулышок","en":"Sulyshok"},"country":"KZ","lat":54.760844,"lon":70.619125,"pop":0,"dumk_id":10025,"search_terms":["сұлышок","sulyshok","сулышок"]},{"id":90004400,"name":"Studennoe","names":{"kk":"Студенное","ru":"Студенное","en":"Studennoe"},"country":"KZ","lat":55.158313,"lon":68.585528,"pop":0,"dumk_id":10036,"search_terms":["studennoe","студенное"]},{"id":90004406,"name":"Stanovoe","names":{"kk":"Становое","ru":"Становое","en":"Stanovoe"},"country":"KZ","lat":54.820405,"lon":68.316365,"pop":0,"dumk_id":10042,"search_terms":["stanovoe","становое"]},{"id":90004475,"name":"Sarybay","names":{"kk":"Сарыбай","ru":"Сарыбай","en":"Sarybay"},"country":"KZ","lat":54.036557,"lon":69.174993,"pop":0,"dumk_id":10111,"search_terms":["sarybay","сарыбай"]},{"id":90004536,"name":"Sadovka","names":{"kk":"Садовка","ru":"Садовка","en":"Sadovka"},"country":"KZ","lat":53.436901,"lon":67.334399,"pop":0,"dumk_id":10172,"search_terms":["садовка","sadovka"]},{"id":90004550,"name":"Sokolovka","names":{"kk":"Соколовка","ru":"Соколовка","en":"Sokolovka"},"country":"KZ","lat":53.651158,"lon":67.408797,"pop":0,"dumk_id":10186,"search_terms":["sokolovka","соколовка"]},{"id":90004558,"name":"Stupinka","names":{"kk":"Ступинка","ru":"Ступинка","en":"Stupinka"},"country":"KZ","lat":54.014623,"lon":67.377132,"pop":0,"dumk_id":10194,"search_terms":["ступинка","stupinka"]},{"id":90004561,"name":"Sukhorabovka","names":{"kk":"Сухорабовка","ru":"Сухорабовка","en":"Sukhorabovka"},"country":"KZ","lat":53.56907,"lon":67.601396,"pop":0,"dumk_id":10197,"search_terms":["сухорабовка","sukhorabovka"]},{"id":90004572,"name":"Starobelka","names":{"kk":"Старобелка","ru":"Старобелка","en":"Starobelka"},"country":"KZ","lat":52.983753,"lon":66.830157,"pop":0,"dumk_id":10208,"search_terms":["starobelka","старобелка"]},{"id":90004577,"name":"Sterlitamak","names":{"kk":"Стерлитамак","ru":"Стерлитамак","en":"Sterlitamak"},"country":"KZ","lat":52.770843,"lon":66.55768,"pop":0,"dumk_id":10213,"search_terms":["стерлитамак","sterlitamak"]},{"id":90004584,"name":"Sarybulaq","names":{"kk":"Сарыбұлақ","ru":"Сарыбулак","en":"Sarybulaq"},"country":"KZ","lat":52.87972,"lon":67.315777,"pop":0,"dumk_id":10220,"search_terms":["sarybulaq","сарыбұлақ","сарыбулак"]},{"id":90004586,"name":"Sokologorovka","names":{"kk":"Сокологоровка","ru":"Сокологоровка","en":"Sokologorovka"},"country":"KZ","lat":52.50755,"lon":67.866741,"pop":0,"dumk_id":10222,"search_terms":["сокологоровка","sokologorovka"]},{"id":90004588,"name":"Stavropolka","names":{"kk":"Ставрополка","ru":"Ставрополка","en":"Stavropolka"},"country":"KZ","lat":52.838604,"lon":66.561821,"pop":0,"dumk_id":10224,"search_terms":["stavropolka","ставрополка"]},{"id":90004602,"name":"Saryadyr","names":{"kk":"Сарыадыр","ru":"Сарыадыр","en":"Saryadyr"},"country":"KZ","lat":52.789815,"lon":67.063296,"pop":0,"dumk_id":10238,"search_terms":["сарыадыр","saryadyr"]},{"id":90004603,"name":"Sivkovka","names":{"kk":"Сивковка","ru":"Сивковка","en":"Sivkovka"},"country":"KZ","lat":52.848841,"lon":66.981792,"pop":0,"dumk_id":10239,"search_terms":["сивковка","sivkovka"]},{"id":90004605,"name":"Salqynkol","names":{"kk":"Салқынкөл","ru":"Салкынкол","en":"Salqynkol"},"country":"KZ","lat":52.560073,"lon":67.43086,"pop":0,"dumk_id":10241,"search_terms":["salqynkol","салкынкол","салқынкөл"]},{"id":90004615,"name":"Simonovka","names":{"kk":"Симоновка","ru":"Симоновка","en":"Simonovka"},"country":"KZ","lat":52.648286,"lon":66.9228,"pop":0,"dumk_id":10251,"search_terms":["симоновка","simonovka"]},{"id":90004643,"name":"Sarybulaq","names":{"kk":"Сарыбұлақ","ru":"Сарыбулак","en":"Sarybulaq"},"country":"KZ","lat":42.67241,"lon":69.842145,"pop":0,"dumk_id":10279,"search_terms":["sarybulaq","сарыбұлақ","сарыбулак"]},{"id":90004652,"name":"Sarqyrama","names":{"kk":"Сарқырама","ru":"Саркырама","en":"Sarqyrama"},"country":"KZ","lat":42.850263,"lon":69.408546,"pop":0,"dumk_id":10288,"search_terms":["sarqyrama","саркырама","сарқырама"]},{"id":90004703,"name":"S.Seyfullina","names":{"kk":"С.Сейфуллина","ru":"С.Сейфуллина","en":"S.Seyfullina"},"country":"KZ","lat":40.940004,"lon":68.250097,"pop":0,"dumk_id":10339,"search_terms":["с.сейфуллина","s.seyfullina"]},{"id":90004710,"name":"Seyfullina","names":{"kk":"Сейфуллина","ru":"Сейфуллина","en":"Seyfullina"},"country":"KZ","lat":40.812547,"lon":68.066364,"pop":0,"dumk_id":10346,"search_terms":["сейфуллина","seyfullina"]},{"id":90004723,"name":"Satpaeva","names":{"kk":"Сәтпаева","ru":"Сатпаева","en":"Satpaeva"},"country":"KZ","lat":40.819883,"lon":68.264725,"pop":0,"dumk_id":10359,"search_terms":["сәтпаева","сатпаева","satpaeva"]},{"id":90004744,"name":"Sarqyrama","names":{"kk":"Сарқырама","ru":"Саркырама","en":"Sarqyrama"},"country":"KZ","lat":40.933117,"lon":68.201848,"pop":0,"dumk_id":10380,"search_terms":["sarqyrama","саркырама","сарқырама"]},{"id":90004758,"name":"Saylau","names":{"kk":"Сайлау","ru":"Сайлау","en":"Saylau"},"country":"KZ","lat":40.929669,"lon":68.41165,"pop":0,"dumk_id":10394,"search_terms":["сайлау","saylau"]},{"id":90004759,"name":"Sulubulaq","names":{"kk":"Сұлұбұлақ","ru":"Сулубулак","en":"Sulubulaq"},"country":"KZ","lat":40.949738,"lon":68.414812,"pop":0,"dumk_id":10395,"search_terms":["сулубулак","сұлұбұлақ","sulubulaq"]},{"id":90004760,"name":"Syrabat","names":{"kk":"Сырабат","ru":"Сырабат","en":"Syrabat"},"country":"KZ","lat":40.949431,"lon":68.423166,"pop":0,"dumk_id":10396,"search_terms":["сырабат","syrabat"]},{"id":90004785,"name":"Syrlysay","names":{"kk":"Сырлысай","ru":"Сырлысай","en":"Syrlysay"},"country":"KZ","lat":41.571401,"lon":69.513604,"pop":0,"dumk_id":10421,"search_terms":["syrlysay","сырлысай"]},{"id":90004788,"name":"Syntas","names":{"kk":"Сынтас","ru":"Сынтас","en":"Syntas"},"country":"KZ","lat":41.892662,"lon":69.567332,"pop":0,"dumk_id":10424,"search_terms":["сынтас","syntas"]},{"id":90004804,"name":"Sarapkhana","names":{"kk":"Сарапхана","ru":"Сарапхана","en":"Sarapkhana"},"country":"KZ","lat":41.876461,"lon":69.436451,"pop":0,"dumk_id":10440,"search_terms":["sarapkhana","сарапхана"]},{"id":90004881,"name":"Sangyrau","names":{"kk":"Саңырау","ru":"Санырау","en":"Sangyrau"},"country":"KZ","lat":41.381683,"lon":68.826537,"pop":0,"dumk_id":10517,"search_terms":["sangyrau","санырау","саңырау"]},{"id":90004882,"name":"Saryzhylgha","names":{"kk":"Сарыжылға","ru":"Сарыжылга","en":"Saryzhylgha"},"country":"KZ","lat":41.404858,"lon":68.779375,"pop":0,"dumk_id":10518,"search_terms":["сарыжылға","saryzhylgha","сарыжылга"]},{"id":90004883,"name":"Sambet Sattarov","names":{"kk":"Сәмбет Саттаров","ru":"Самбет Саттаров","en":"Sambet Sattarov"},"country":"KZ","lat":41.340506,"lon":68.709747,"pop":0,"dumk_id":10519,"search_terms":["sambet sattarov","сәмбет саттаров","самбет саттаров"]},{"id":90004935,"name":"S.Rakhimov","names":{"kk":"С.Рахимов","ru":"С.Рахимов","en":"S.Rakhimov"},"country":"KZ","lat":40.681905,"lon":68.615334,"pop":0,"dumk_id":10571,"search_terms":["с.рахимов","s.rakhimov"]},{"id":90004983,"name":"Saryaryq","names":{"kk":"Сарыарық","ru":"Сарыарык","en":"Saryaryq"},"country":"KZ","lat":42.467491,"lon":68.964114,"pop":0,"dumk_id":10619,"search_terms":["сарыарық","saryaryq","сарыарык"]},{"id":90004992,"name":"Spataev","names":{"kk":"Спатаев","ru":"Спатаев","en":"Spataev"},"country":"KZ","lat":42.899862,"lon":69.000262,"pop":0,"dumk_id":10628,"search_terms":["спатаев","spataev"]},{"id":90004997,"name":"Sarytoghay","names":{"kk":"Сарытоғай","ru":"Сарытогай","en":"Sarytoghay"},"country":"KZ","lat":42.599038,"lon":69.41637,"pop":0,"dumk_id":10633,"search_terms":["сарытогай","сарытоғай","sarytoghay"]},{"id":90005025,"name":"Sarykol","names":{"kk":"Сарыкөл","ru":"Сарыкол","en":"Sarykol"},"country":"KZ","lat":42.632816,"lon":68.295569,"pop":0,"dumk_id":10661,"search_terms":["sarykol","сарыкол","сарыкөл"]},{"id":90005038,"name":"Sikhym","names":{"kk":"Сихым","ru":"Сихым","en":"Sikhym"},"country":"KZ","lat":42.440723,"lon":69.916013,"pop":0,"dumk_id":10675,"search_terms":["сихым","sikhym"]},{"id":90005042,"name":"Saryaryq","names":{"kk":"Сарыарық","ru":"Сарыарык","en":"Saryaryq"},"country":"KZ","lat":42.53686,"lon":69.51735,"pop":0,"dumk_id":10679,"search_terms":["сарыарық","saryaryq","сарыарык"]},{"id":90005073,"name":"Sarysu","names":{"kk":"Сарысу","ru":"Сарысу","en":"Sarysu"},"country":"KZ","lat":41.500827,"lon":68.772736,"pop":0,"dumk_id":10710,"search_terms":["сарысу","sarysu"]},{"id":90005126,"name":"Sauran","names":{"kk":"Сауран","ru":"Сауран","en":"Sauran"},"country":"KZ","lat":43.437891,"lon":67.920819,"pop":0,"dumk_id":10763,"search_terms":["сауран","sauran"]},{"id":90005140,"name":"Sultanbek Qozhanov","names":{"kk":"Сұлтанбек Қожанов","ru":"Султанбек Кожанов","en":"Sultanbek Qozhanov"},"country":"KZ","lat":43.173724,"lon":68.071251,"pop":0,"dumk_id":10777,"search_terms":["сұлтанбек қожанов","султанбек кожанов","sultanbek qozhanov"]},{"id":90005158,"name":"Saryzhaz","names":{"kk":"Сарыжаз","ru":"Сарыжаз","en":"Saryzhaz"},"country":"KZ","lat":44.326086,"lon":67.835785,"pop":0,"dumk_id":10795,"search_terms":["saryzhaz","сарыжаз"]},{"id":90005169,"name":"Sozaq","names":{"kk":"Созақ","ru":"Созак","en":"Sozaq"},"country":"KZ","lat":44.138605,"lon":68.467201,"pop":0,"dumk_id":10806,"search_terms":["sozaq","созақ","созак"]},{"id":90005170,"name":"Syzghan","names":{"kk":"Сызған","ru":"Сызган","en":"Syzghan"},"country":"KZ","lat":43.583701,"lon":68.323511,"pop":0,"dumk_id":10807,"search_terms":["сызган","syzghan","сызған"]},{"id":90005205,"name":"Sarqyrama","names":{"kk":"Сарқырама","ru":"Саркырама","en":"Sarqyrama"},"country":"KZ","lat":42.363339,"lon":70.006096,"pop":0,"dumk_id":10842,"search_terms":["sarqyrama","саркырама","сарқырама"]},{"id":90005222,"name":"Sultanrabat","names":{"kk":"Сұлтанрабат","ru":"Султанрабат","en":"Sultanrabat"},"country":"KZ","lat":42.182392,"lon":69.83256,"pop":0,"dumk_id":10859,"search_terms":["sultanrabat","султанрабат","сұлтанрабат"]},{"id":90005235,"name":"Sarytur","names":{"kk":"Сарытұр","ru":"Сарытур","en":"Sarytur"},"country":"KZ","lat":42.557398,"lon":70.403807,"pop":0,"dumk_id":10872,"search_terms":["сарытур","сарытұр","sarytur"]},{"id":90005256,"name":"Seslavino","names":{"kk":"Сеславино","ru":"Сеславино","en":"Seslavino"},"country":"KZ","lat":42.430042,"lon":70.171198,"pop":0,"dumk_id":10893,"search_terms":["сеславино","seslavino"]},{"id":90005278,"name":"Sastobe","names":{"kk":"Састөбе","ru":"Састобе","en":"Sastobe"},"country":"KZ","lat":42.548777,"lon":70.001677,"pop":0,"dumk_id":10916,"search_terms":["састөбе","sastobe","састобе"]},{"id":90005304,"name":"Sutkent","names":{"kk":"Сүткент","ru":"Суткент","en":"Sutkent"},"country":"KZ","lat":41.941413,"lon":68.091391,"pop":0,"dumk_id":10942,"search_terms":["сүткент","sutkent","суткент"]},{"id":90005338,"name":"Sarlyq","names":{"kk":"Сарлық","ru":"Сарлык","en":"Sarlyq"},"country":"KZ","lat":48.758178,"lon":66.62773,"pop":0,"dumk_id":10976,"search_terms":["сарлық","sarlyq","сарлык"]},{"id":90005373,"name":"Solovevo","names":{"kk":"Соловьево","ru":"Соловьево","en":"Solovevo"},"country":"KZ","lat":49.611525,"lon":84.348149,"pop":0,"dumk_id":11011,"search_terms":["solovevo","соловьево"]},{"id":90005376,"name":"Sredigornoe","names":{"kk":"Средигорное","ru":"Средигорное","en":"Sredigornoe"},"country":"KZ","lat":49.510693,"lon":84.389705,"pop":0,"dumk_id":11014,"search_terms":["средигорное","sredigornoe"]},{"id":90005381,"name":"Snegirevo","names":{"kk":"Снегирево","ru":"Снегирево","en":"Snegirevo"},"country":"KZ","lat":49.752918,"lon":84.070246,"pop":0,"dumk_id":11019,"search_terms":["снегирево","snegirevo"]},{"id":90005395,"name":"Smetanino","names":{"kk":"Сметанино","ru":"Сметанино","en":"Smetanino"},"country":"KZ","lat":50.234219,"lon":82.322223,"pop":0,"dumk_id":11033,"search_terms":["smetanino","сметанино"]},{"id":90005402,"name":"Sekisovka","names":{"kk":"Секисовка","ru":"Секисовка","en":"Sekisovka"},"country":"KZ","lat":50.329764,"lon":82.591197,"pop":0,"dumk_id":11040,"search_terms":["sekisovka","секисовка"]},{"id":90005419,"name":"Satbay","names":{"kk":"Сәтбай","ru":"Сатбай","en":"Satbay"},"country":"KZ","lat":47.60196,"lon":84.607861,"pop":0,"dumk_id":11057,"search_terms":["satbay","сатбай","сәтбай"]},{"id":90005428,"name":"Saryterek","names":{"kk":"Сарытерек","ru":"Сарытерек","en":"Saryterek"},"country":"KZ","lat":47.502375,"lon":85.168967,"pop":0,"dumk_id":11066,"search_terms":["saryterek","сарытерек"]},{"id":90005444,"name":"Sogornoe","names":{"kk":"Согорное","ru":"Согорное","en":"Sogornoe"},"country":"KZ","lat":49.210929,"lon":85.369947,"pop":0,"dumk_id":11082,"search_terms":["согорное","sogornoe"]},{"id":90005459,"name":"Sennoe","names":{"kk":"Сенное","ru":"Сенное","en":"Sennoe"},"country":"KZ","lat":49.580461,"lon":84.791387,"pop":0,"dumk_id":11097,"search_terms":["sennoe","сенное"]},{"id":90005464,"name":"Soldatovo","names":{"kk":"Солдатово","ru":"Солдатово","en":"Soldatovo"},"country":"KZ","lat":49.215531,"lon":85.075416,"pop":0,"dumk_id":11102,"search_terms":["солдатово","soldatovo"]},{"id":90005466,"name":"Solonovka","names":{"kk":"Солоновка","ru":"Солоновка","en":"Solonovka"},"country":"KZ","lat":49.302596,"lon":84.747944,"pop":0,"dumk_id":11104,"search_terms":["солоновка","solonovka"]},{"id":90005470,"name":"Svinchatka","names":{"kk":"Свинчатка","ru":"Свинчатка","en":"Svinchatka"},"country":"KZ","lat":49.090945,"lon":84.202397,"pop":0,"dumk_id":11108,"search_terms":["svinchatka","свинчатка"]},{"id":90005505,"name":"Saryolen","names":{"kk":"Сарыөлен","ru":"Сарыолен","en":"Saryolen"},"country":"KZ","lat":48.570182,"lon":83.846081,"pop":0,"dumk_id":11144,"search_terms":["saryolen","сарыөлен","сарыолен"]},{"id":90005519,"name":"Samarskoe","names":{"kk":"Самарское","ru":"Самарское","en":"Samarskoe"},"country":"KZ","lat":49.021268,"lon":83.363622,"pop":0,"dumk_id":11158,"search_terms":["самарское","samarskoe"]},{"id":90005521,"name":"Sarybel","names":{"kk":"Сарыбел","ru":"Сарыбел","en":"Sarybel"},"country":"KZ","lat":49.107196,"lon":84.043737,"pop":0,"dumk_id":11160,"search_terms":["sarybel","сарыбел"]},{"id":90005525,"name":"Saghyndyq","names":{"kk":"Сағындық","ru":"Сагындык","en":"Saghyndyq"},"country":"KZ","lat":47.472983,"lon":84.001148,"pop":0,"dumk_id":11164,"search_terms":["сагындык","saghyndyq","сағындық"]},{"id":90005528,"name":"Saryolen","names":{"kk":"Сарыөлен","ru":"Сарыолен","en":"Saryolen"},"country":"KZ","lat":47.281378,"lon":84.088725,"pop":0,"dumk_id":11167,"search_terms":["saryolen","сарыөлен","сарыолен"]},{"id":90005551,"name":"Saghyr","names":{"kk":"Сағыр","ru":"Сагыр","en":"Saghyr"},"country":"KZ","lat":49.715777,"lon":82.670455,"pop":0,"dumk_id":11190,"search_terms":["saghyr","сағыр","сагыр"]},{"id":90005557,"name":"Sariozek","names":{"kk":"Сариозек","ru":"Сариозек","en":"Sariozek"},"country":"KZ","lat":49.855687,"lon":82.421209,"pop":0,"dumk_id":11196,"search_terms":["сариозек","sariozek"]},{"id":90005571,"name":"Saratovka","names":{"kk":"Саратовка","ru":"Саратовка","en":"Saratovka"},"country":"KZ","lat":50.058773,"lon":82.321119,"pop":0,"dumk_id":11210,"search_terms":["саратовка","saratovka"]},{"id":90005588,"name":"Sugatovka","names":{"kk":"Сугатовка","ru":"Сугатовка","en":"Sugatovka"},"country":"KZ","lat":50.674558,"lon":81.712384,"pop":0,"dumk_id":11227,"search_terms":["sugatovka","сугатовка"]},{"id":90005608,"name":"Sadovoe","names":{"kk":"Садовое","ru":"Садовое","en":"Sadovoe"},"country":"KZ","lat":50.673484,"lon":81.834887,"pop":0,"dumk_id":11247,"search_terms":["sadovoe","садовое"]}]