[{"id":90000004,"name":"Tortkulak","names":{"kk":"Торткулак","ru":"Торткулак","en":"Tortkulak"},"country":"KZ","lat":49.717099,"lon":50.690153,"pop":0,"dumk_id":11263,"search_terms":["tortkulak","торткулак"]},{"id":90000006,"name":"Tengdik","names":{"kk":"Теңдік","ru":"Тендик","en":"Tengdik"},"country":"KZ","lat":49.300704,"lon":49.941766,"pop":0,"dumk_id":11265,"search_terms":["tengdik","теңдік","тендик"]},{"id":90000012,"name":"Toghyz","names":{"kk":"Тоғыз","ru":"Тогыз","en":"Toghyz"},"country":"KZ","lat":47.555417,"lon":60.542012,"pop":0,"dumk_id":11274,"search_terms":["toghyz","тогыз","тоғыз"]},{"id":90000023,"name":"Temirzholshy","names":{"kk":"Теміржолшы","ru":"Темиржолшы","en":"Temirzholshy"},"country":"KZ","lat":42.508287,"lon":68.789625,"pop":0,"dumk_id":11289,"search_terms":["темиржолшы","temirzholshy","теміржолшы"]},{"id":90000029,"name":"Toghayly","names":{"kk":"Тоғайлы","ru":"Тогайлы","en":"Toghayly"},"country":"KZ","lat":42.300985,"lon":68.269258,"pop":0,"dumk_id":11297,"search_terms":["toghayly","тоғайлы","тогайлы"]},{"id":90000030,"name":"Torghay","names":{"kk":"Торғай","ru":"Торгай","en":"Torghay"},"country":"KZ","lat":49.632447,"lon":63.491837,"pop":0,"dumk_id":11343,"search_terms":["торгай","торғай","torghay"]},{"id":90000050,"name":"Toghansay","names":{"kk":"Тоғансай","ru":"Тогансай","en":"Toghansay"},"country":"KZ","lat":42.226339,"lon":69.006307,"pop":0,"dumk_id":11325,"search_terms":["toghansay","тоғансай","тогансай"]},{"id":90000068,"name":"Tilektes","names":{"kk":"Тілектес","ru":"Тилектес","en":"Tilektes"},"country":"KZ","lat":51.808723,"lon":77.45772,"pop":0,"dumk_id":11350,"search_terms":["тилектес","тілектес","tilektes"]},{"id":90000082,"name":"Taqyrkol","names":{"kk":"Тақыркөл","ru":"Такыркол","en":"Taqyrkol"},"country":"KZ","lat":42.245004,"lon":68.290054,"pop":0,"dumk_id":11301,"search_terms":["taqyrkol","тақыркөл","такыркол"]},{"id":90000085,"name":"Toqzhaylau","names":{"kk":"Тоқжайлау","ru":"Токжайлау","en":"Toqzhaylau"},"country":"KZ","lat":45.819951,"lon":81.086887,"pop":0,"dumk_id":11310,"search_terms":["toqzhaylau","тоқжайлау","токжайлау"]},{"id":90000087,"name":"Terengkol","names":{"kk":"Тереңкөл","ru":"Теренкол","en":"Terengkol"},"country":"KZ","lat":53.066751,"lon":76.099324,"pop":0,"dumk_id":11313,"search_terms":["теренкол","тереңкөл","terengkol"]},{"id":90000096,"name":"Tobyl","names":{"kk":"Тобыл","ru":"Тобыл","en":"Tobyl"},"country":"KZ","lat":52.693905,"lon":62.582554,"pop":0,"dumk_id":11346,"search_terms":["тобыл","tobyl"]},{"id":90000109,"name":"Tongkeris","names":{"kk":"Төңкеріс","ru":"Тонкерис","en":"Tongkeris"},"country":"KZ","lat":45.673372,"lon":80.653693,"pop":0,"dumk_id":11367,"search_terms":["tongkeris","тонкерис","төңкеріс"]},{"id":90000119,"name":"Tayynsha","names":{"kk":"Тайынша","ru":"Тайынша","en":"Tayynsha"},"country":"KZ","lat":53.852738,"lon":69.782631,"pop":0,"dumk_id":103,"search_terms":["tayynsha","тайынша"]},{"id":90000122,"name":"Tengiz ken orny","names":{"kk":"Теңіз кен орны","ru":"Тениз кен орны","en":"Tengiz ken orny"},"country":"KZ","lat":46.079223,"lon":53.387326,"pop":0,"dumk_id":136,"search_terms":["тениз кен орны","теңіз кен орны","tengiz ken orny"]},{"id":90000124,"name":"Tekeli","names":{"kk":"Текелі","ru":"Текели","en":"Tekeli"},"country":"KZ","lat":44.863094,"lon":78.764266,"pop":0,"dumk_id":143,"search_terms":["текелі","текели","tekeli"]},{"id":90000133,"name":"Temir","names":{"kk":"Темір","ru":"Темир","en":"Temir"},"country":"KZ","lat":49.143142,"lon":57.12633,"pop":0,"dumk_id":158,"search_terms":["temir","темір","темир"]},{"id":90000136,"name":"Tobyl","names":{"kk":"Тобыл","ru":"Тобыл","en":"Tobyl"},"country":"KZ","lat":53.207372,"lon":63.705088,"pop":0,"dumk_id":169,"search_terms":["тобыл","tobyl"]},{"id":90000156,"name":"Toqtamys","names":{"kk":"Тоқтамыс","ru":"Токтамыс","en":"Toqtamys"},"country":"KZ","lat":49.217773,"lon":78.347978,"pop":0,"dumk_id":5766,"search_terms":["токтамыс","тоқтамыс","toqtamys"]},{"id":90000195,"name":"Tarbaghatay","names":{"kk":"Тарбағатай","ru":"Тарбагатай","en":"Tarbaghatay"},"country":"KZ","lat":47.805775,"lon":81.273952,"pop":0,"dumk_id":5805,"search_terms":["тарбағатай","tarbaghatay","тарбагатай"]},{"id":90000198,"name":"Tarlauly","names":{"kk":"Тарлаулы","ru":"Тарлаулы","en":"Tarlauly"},"country":"KZ","lat":47.314995,"lon":79.741328,"pop":0,"dumk_id":5808,"search_terms":["тарлаулы","tarlauly"]},{"id":90000225,"name":"Tanamyrza","names":{"kk":"Танамырза","ru":"Танамырза","en":"Tanamyrza"},"country":"KZ","lat":47.842297,"lon":82.891692,"pop":0,"dumk_id":5835,"search_terms":["tanamyrza","танамырза"]},{"id":90000254,"name":"Tarsk","names":{"kk":"Тарск","ru":"Тарск","en":"Tarsk"},"country":"KZ","lat":51.153473,"lon":81.037758,"pop":0,"dumk_id":5864,"search_terms":["тарск","tarsk"]},{"id":90000332,"name":"Toleughali obdibekov","names":{"kk":"Төлеуғали өбдібеков","ru":"Толеугали обдибеков","en":"Toleughali obdibekov"},"country":"KZ","lat":48.915466,"lon":80.871094,"pop":0,"dumk_id":5943,"search_terms":["толеугали обдибеков","toleughali obdibekov","төлеуғали өбдібеков"]},{"id":90000340,"name":"Teristanbaly","names":{"kk":"Терістанбалы","ru":"Теристанбалы","en":"Teristanbaly"},"country":"KZ","lat":50.093332,"lon":80.806577,"pop":0,"dumk_id":5951,"search_terms":["teristanbaly","терістанбалы","теристанбалы"]},{"id":90000356,"name":"Tolaghay","names":{"kk":"Толағай","ru":"Толагай","en":"Tolaghay"},"country":"KZ","lat":48.889414,"lon":82.441969,"pop":0,"dumk_id":5967,"search_terms":["tolaghay","толагай","толағай"]},{"id":90000358,"name":"Tassay","names":{"kk":"Тассай","ru":"Тассай","en":"Tassay"},"country":"KZ","lat":48.356551,"lon":82.910961,"pop":0,"dumk_id":5969,"search_terms":["тассай","tassay"]},{"id":90000360,"name":"Terekty","names":{"kk":"Теректы","ru":"Теректы","en":"Terekty"},"country":"KZ","lat":48.794876,"lon":82.763647,"pop":0,"dumk_id":5971,"search_terms":["terekty","теректы"]},{"id":90000388,"name":"Tekebulaq","names":{"kk":"Текебұлақ","ru":"Текебулак","en":"Tekebulaq"},"country":"KZ","lat":47.17165,"lon":81.026808,"pop":0,"dumk_id":6000,"search_terms":["текебұлақ","текебулак","tekebulaq"]},{"id":90000397,"name":"Tasaryq","names":{"kk":"Тасарық","ru":"Тасарык","en":"Tasaryq"},"country":"KZ","lat":47.103708,"lon":81.296545,"pop":0,"dumk_id":6009,"search_terms":["tasaryq","тасарык","тасарық"]},{"id":90000403,"name":"Taskesken","names":{"kk":"Таскескен","ru":"Таскескен","en":"Taskesken"},"country":"KZ","lat":47.223222,"lon":80.789509,"pop":0,"dumk_id":6015,"search_terms":["таскескен","taskesken"]},{"id":90000430,"name":"Tabighat","names":{"kk":"Табиғат","ru":"Табигат","en":"Tabighat"},"country":"KZ","lat":51.860774,"lon":70.769601,"pop":0,"dumk_id":6042,"search_terms":["tabighat","табиғат","табигат"]},{"id":90000433,"name":"Tastyadyr","names":{"kk":"Тастыадыр","ru":"Тастыадыр","en":"Tastyadyr"},"country":"KZ","lat":52.382892,"lon":71.247487,"pop":0,"dumk_id":6045,"search_terms":["tastyadyr","тастыадыр"]},{"id":90000450,"name":"Talqara","names":{"kk":"Талқара","ru":"Талкара","en":"Talqara"},"country":"KZ","lat":52.00945,"lon":70.599523,"pop":0,"dumk_id":6062,"search_terms":["talqara","талқара","талкара"]},{"id":90000475,"name":"Turgen","names":{"kk":"Түрген","ru":"Турген","en":"Turgen"},"country":"KZ","lat":50.76094,"lon":72.323606,"pop":0,"dumk_id":6087,"search_terms":["түрген","turgen","турген"]},{"id":90000488,"name":"Tavolzhanka","names":{"kk":"Таволжанка","ru":"Таволжанка","en":"Tavolzhanka"},"country":"KZ","lat":51.578809,"lon":69.612392,"pop":0,"dumk_id":6100,"search_terms":["таволжанка","tavolzhanka"]},{"id":90000517,"name":"Tretyakovka","names":{"kk":"Третяковка","ru":"Третяковка","en":"Tretyakovka"},"country":"KZ","lat":52.078275,"lon":68.360652,"pop":0,"dumk_id":6129,"search_terms":["tretyakovka","третяковка"]},{"id":90000526,"name":"Titovka","names":{"kk":"Титовка","ru":"Титовка","en":"Titovka"},"country":"KZ","lat":52.047468,"lon":68.647197,"pop":0,"dumk_id":6138,"search_terms":["титовка","titovka"]},{"id":90000531,"name":"Telmana","names":{"kk":"Телмана","ru":"Телмана","en":"Telmana"},"country":"KZ","lat":51.736659,"lon":68.586579,"pop":0,"dumk_id":6143,"search_terms":["телмана","telmana"]},{"id":90000536,"name":"Timoshevka","names":{"kk":"Тимошевка","ru":"Тимошевка","en":"Timoshevka"},"country":"KZ","lat":51.691621,"lon":68.430847,"pop":0,"dumk_id":6148,"search_terms":["timoshevka","тимошевка"]},{"id":90000551,"name":"Tasshalqar","names":{"kk":"Тасшалқар","ru":"Тасшалкар","en":"Tasshalqar"},"country":"KZ","lat":53.020397,"lon":70.758435,"pop":0,"dumk_id":6163,"search_terms":["тасшалкар","tasshalqar","тасшалқар"]},{"id":90000569,"name":"Trambovka","names":{"kk":"Трамбовка","ru":"Трамбовка","en":"Trambovka"},"country":"KZ","lat":52.853485,"lon":70.507365,"pop":0,"dumk_id":6181,"search_terms":["трамбовка","trambovka"]},{"id":90000574,"name":"Toqtamys","names":{"kk":"Тоқтамыс","ru":"Токтамыс","en":"Toqtamys"},"country":"KZ","lat":52.402083,"lon":70.02722,"pop":0,"dumk_id":6186,"search_terms":["токтамыс","тоқтамыс","toqtamys"]},{"id":90000593,"name":"Tastyozek","names":{"kk":"Тастыөзек","ru":"Тастыозек","en":"Tastyozek"},"country":"KZ","lat":52.386946,"lon":70.398457,"pop":0,"dumk_id":6205,"search_terms":["тастыөзек","tastyozek","тастыозек"]},{"id":90000650,"name":"Tulkili","names":{"kk":"Түлкілі","ru":"Тулкили","en":"Tulkili"},"country":"KZ","lat":52.717663,"lon":69.608242,"pop":0,"dumk_id":6262,"search_terms":["tulkili","тулкили","түлкілі"]},{"id":90000668,"name":"Toghanas","names":{"kk":"Тоғанас","ru":"Тоганас","en":"Toghanas"},"country":"KZ","lat":50.872731,"lon":70.092972,"pop":0,"dumk_id":6280,"search_terms":["тоганас","тоғанас","toghanas"]},{"id":90000687,"name":"Taybay","names":{"kk":"Тайбай","ru":"Тайбай","en":"Taybay"},"country":"KZ","lat":51.547169,"lon":72.973558,"pop":0,"dumk_id":6299,"search_terms":["taybay","тайбай"]},{"id":90000692,"name":"Torghay","names":{"kk":"Торғай","ru":"Торгай","en":"Torghay"},"country":"KZ","lat":51.763204,"lon":72.746274,"pop":0,"dumk_id":6304,"search_terms":["торгай","торғай","torghay"]},{"id":90000718,"name":"Taypaq","names":{"kk":"Тайпақ","ru":"Тайпак","en":"Taypaq"},"country":"KZ","lat":51.545018,"lon":67.716057,"pop":0,"dumk_id":6330,"search_terms":["тайпак","taypaq","тайпақ"]},{"id":90000728,"name":"Tarasovka","names":{"kk":"Тарасовка","ru":"Тарасовка","en":"Tarasovka"},"country":"KZ","lat":51.944893,"lon":67.700983,"pop":0,"dumk_id":6340,"search_terms":["tarasovka","тарасовка"]},{"id":90000735,"name":"Tasty-taldy","names":{"kk":"Тасты-талды","ru":"Тасты-талды","en":"Tasty-taldy"},"country":"KZ","lat":50.723389,"lon":66.626239,"pop":0,"dumk_id":6347,"search_terms":["tasty-taldy","тасты-талды"]},{"id":90000742,"name":"Tasotkel","names":{"kk":"Тасөткел","ru":"Тасоткел","en":"Tasotkel"},"country":"KZ","lat":51.360904,"lon":66.564893,"pop":0,"dumk_id":6354,"search_terms":["tasotkel","тасөткел","тасоткел"]},{"id":90000743,"name":"Tassuat","names":{"kk":"Тассуат","ru":"Тассуат","en":"Tassuat"},"country":"KZ","lat":51.142167,"lon":66.668433,"pop":0,"dumk_id":6355,"search_terms":["tassuat","тассуат"]},{"id":90000772,"name":"Terekti","names":{"kk":"Теректі","ru":"Теректи","en":"Terekti"},"country":"KZ","lat":53.656628,"lon":69.659949,"pop":0,"dumk_id":6385,"search_terms":["теректи","теректі","terekti"]},{"id":90000808,"name":"Troitsk","names":{"kk":"Троицк","ru":"Троицк","en":"Troitsk"},"country":"KZ","lat":53.011675,"lon":68.897476,"pop":0,"dumk_id":6421,"search_terms":["троицк","troitsk"]},{"id":90000815,"name":"Tupolevka","names":{"kk":"Туполевка","ru":"Туполевка","en":"Tupolevka"},"country":"KZ","lat":53.322857,"lon":69.853473,"pop":0,"dumk_id":6428,"search_terms":["tupolevka","туполевка"]},{"id":90000881,"name":"Tongkeris","names":{"kk":"Төңкеріс","ru":"Тонкерис","en":"Tongkeris"},"country":"KZ","lat":51.315282,"lon":70.910736,"pop":0,"dumk_id":6494,"search_terms":["tongkeris","тонкерис","төңкеріс"]},{"id":90000913,"name":"Talapker","names":{"kk":"Талапкер","ru":"Талапкер","en":"Talapker"},"country":"KZ","lat":51.244103,"lon":71.159497,"pop":0,"dumk_id":6526,"search_terms":["талапкер","talapker"]},{"id":90000914,"name":"Tastaq","names":{"kk":"Тастақ","ru":"Тастак","en":"Tastaq"},"country":"KZ","lat":51.413564,"lon":70.718766,"pop":0,"dumk_id":6527,"search_terms":["tastaq","тастақ","тастак"]},{"id":90000915,"name":"Tasty auyl","names":{"kk":"Тасты ауыл","ru":"Тасты ауыл","en":"Tasty auyl"},"country":"KZ","lat":51.342971,"lon":70.666825,"pop":0,"dumk_id":6528,"search_terms":["tasty auyl","тасты ауыл"]},{"id":90000963,"name":"Terengsay","names":{"kk":"Тереңсай","ru":"Теренсай","en":"Terengsay"},"country":"KZ","lat":51.036589,"lon":61.655843,"pop":0,"dumk_id":6576,"search_terms":["теренсай","terengsay","тереңсай"]},{"id":90000966,"name":"Tolybay","names":{"kk":"Толыбай","ru":"Толыбай","en":"Tolybay"},"country":"KZ","lat":50.522208,"lon":62.263948,"pop":0,"dumk_id":6579,"search_terms":["tolybay","толыбай"]},{"id":90000975,"name":"Taldyq","names":{"kk":"Талдық","ru":"Талдык","en":"Taldyq"},"country":"KZ","lat":49.075019,"lon":59.847444,"pop":0,"dumk_id":6588,"search_terms":["taldyq","талдық","талдык"]},{"id":90000985,"name":"Taldysay","names":{"kk":"Талдысай","ru":"Талдысай","en":"Taldysay"},"country":"KZ","lat":50.461171,"lon":60.334088,"pop":0,"dumk_id":6598,"search_terms":["taldysay","талдысай"]},{"id":90000986,"name":"Temirbek zhurgenov","names":{"kk":"Темірбек жүргенов","ru":"Темирбек жургенов","en":"Temirbek zhurgenov"},"country":"KZ","lat":50.431028,"lon":60.496531,"pop":0,"dumk_id":6599,"search_terms":["темирбек жургенов","темірбек жүргенов","temirbek zhurgenov"]},{"id":90000988,"name":"Tumabulaq","names":{"kk":"Тұмабұлақ","ru":"Тумабулак","en":"Tumabulaq"},"country":"KZ","lat":49.985681,"lon":61.486663,"pop":0,"dumk_id":6601,"search_terms":["тумабулак","тұмабұлақ","tumabulaq"]},{"id":90001001,"name":"Tiqayyn","names":{"kk":"Тиқайын","ru":"Тикайын","en":"Tiqayyn"},"country":"KZ","lat":50.102855,"lon":56.613545,"pop":0,"dumk_id":6614,"search_terms":["тикайын","тиқайын","tiqayyn"]},{"id":90001010,"name":"Taldysay","names":{"kk":"Талдысай","ru":"Талдысай","en":"Taldysay"},"country":"KZ","lat":49.805115,"lon":57.261661,"pop":0,"dumk_id":6623,"search_terms":["taldysay","талдысай"]},{"id":90001011,"name":"Tamdy","names":{"kk":"Тамды","ru":"Тамды","en":"Tamdy"},"country":"KZ","lat":49.814637,"lon":57.345861,"pop":0,"dumk_id":6624,"search_terms":["tamdy","тамды"]},{"id":90001013,"name":"Toqmansay","names":{"kk":"Тоқмансай","ru":"Токмансай","en":"Toqmansay"},"country":"KZ","lat":49.833978,"lon":57.935632,"pop":0,"dumk_id":6626,"search_terms":["тоқмансай","токмансай","toqmansay"]},{"id":90001102,"name":"Torayghyr","names":{"kk":"Торайғыр","ru":"Торайгыр","en":"Torayghyr"},"country":"KZ","lat":50.436989,"lon":56.470884,"pop":0,"dumk_id":6715,"search_terms":["торайгыр","torayghyr","торайғыр"]},{"id":90001129,"name":"Tepsen-qarabulaq","names":{"kk":"Тепсен-қарабұлақ","ru":"Тепсен-карабулак","en":"Tepsen-qarabulaq"},"country":"KZ","lat":49.545601,"lon":57.025602,"pop":0,"dumk_id":6742,"search_terms":["tepsen-qarabulaq","тепсен-карабулак","тепсен-қарабұлақ"]},{"id":90001143,"name":"Terisbutaq","names":{"kk":"Терісбұтақ","ru":"Терисбутак","en":"Terisbutaq"},"country":"KZ","lat":49.512758,"lon":58.583164,"pop":0,"dumk_id":6756,"search_terms":["терісбұтақ","terisbutaq","терисбутак"]},{"id":90001146,"name":"Taldysay","names":{"kk":"Талдысай","ru":"Талдысай","en":"Taldysay"},"country":"KZ","lat":49.404985,"lon":56.719888,"pop":0,"dumk_id":6759,"search_terms":["taldysay","талдысай"]},{"id":90001163,"name":"Tasqopa","names":{"kk":"Тасқопа","ru":"Таскопа","en":"Tasqopa"},"country":"KZ","lat":48.860456,"lon":55.588792,"pop":0,"dumk_id":6776,"search_terms":["тасқопа","таскопа","tasqopa"]},{"id":90001211,"name":"Taldysay","names":{"kk":"Талдысай","ru":"Талдысай","en":"Taldysay"},"country":"KZ","lat":50.203117,"lon":55.964135,"pop":0,"dumk_id":6824,"search_terms":["taldysay","талдысай"]},{"id":90001213,"name":"Terisaqqan","names":{"kk":"Терісаққан","ru":"Терисаккан","en":"Terisaqqan"},"country":"KZ","lat":50.437081,"lon":55.831283,"pop":0,"dumk_id":6826,"search_terms":["terisaqqan","терісаққан","терисаккан"]},{"id":90001229,"name":"Tamdy","names":{"kk":"Тамды","ru":"Тамды","en":"Tamdy"},"country":"KZ","lat":49.930224,"lon":59.039904,"pop":0,"dumk_id":6842,"search_terms":["tamdy","тамды"]},{"id":90001237,"name":"Tabantal","names":{"kk":"Табантал","ru":"Табантал","en":"Tabantal"},"country":"KZ","lat":50.112059,"lon":57.828211,"pop":0,"dumk_id":6850,"search_terms":["tabantal","табантал"]},{"id":90001239,"name":"Tasotkel","names":{"kk":"Тасөткел","ru":"Тасоткел","en":"Tasotkel"},"country":"KZ","lat":50.318441,"lon":59.627321,"pop":0,"dumk_id":6852,"search_terms":["tasotkel","тасөткел","тасоткел"]},{"id":90001241,"name":"Tassay","names":{"kk":"Тассай","ru":"Тассай","en":"Tassay"},"country":"KZ","lat":50.278098,"lon":58.310103,"pop":0,"dumk_id":6854,"search_terms":["тассай","tassay"]},{"id":90001261,"name":"Tosbulaq","names":{"kk":"Тосбұлақ","ru":"Тосбулак","en":"Tosbulaq"},"country":"KZ","lat":47.555414,"lon":60.541998,"pop":0,"dumk_id":6874,"search_terms":["tosbulaq","тосбулак","тосбұлақ"]},{"id":90001264,"name":"Taldyqum","names":{"kk":"Талдықұм","ru":"Талдыкум","en":"Taldyqum"},"country":"KZ","lat":48.216286,"lon":59.769012,"pop":0,"dumk_id":6877,"search_terms":["талдыкум","талдықұм","taldyqum"]},{"id":90001266,"name":"Tumalykol","names":{"kk":"Тұмалыкөл","ru":"Тумалыкол","en":"Tumalykol"},"country":"KZ","lat":48.366291,"lon":60.076667,"pop":0,"dumk_id":6879,"search_terms":["тұмалыкөл","tumalykol","тумалыкол"]},{"id":90001304,"name":"Topar","names":{"kk":"Топар","ru":"Топар","en":"Topar"},"country":"KZ","lat":45.035031,"lon":75.025685,"pop":0,"dumk_id":6917,"search_terms":["topar","топар"]},{"id":90001331,"name":"Taldybulaq","names":{"kk":"Талдыбұлақ","ru":"Талдыбулак","en":"Taldybulaq"},"country":"KZ","lat":43.446047,"lon":77.665887,"pop":0,"dumk_id":6944,"search_terms":["талдыбұлақ","taldybulaq","талдыбулак"]},{"id":90001337,"name":"Tauqaraturyq","names":{"kk":"Тауқаратұрық","ru":"Таукаратурык","en":"Tauqaraturyq"},"country":"KZ","lat":43.496475,"lon":78.020776,"pop":0,"dumk_id":6950,"search_terms":["тауқаратұрық","таукаратурык","tauqaraturyq"]},{"id":90001342,"name":"Tole bi","names":{"kk":"Төле би","ru":"Толе би","en":"Tole bi"},"country":"KZ","lat":43.387544,"lon":77.550337,"pop":0,"dumk_id":6955,"search_terms":["tole bi","төле би","толе би"]},{"id":90001360,"name":"Tashkensaz","names":{"kk":"Ташкенсаз","ru":"Ташкенсаз","en":"Tashkensaz"},"country":"KZ","lat":43.478567,"lon":77.40101,"pop":0,"dumk_id":6973,"search_terms":["tashkensaz","ташкенсаз"]},{"id":90001363,"name":"Tolqyn","names":{"kk":"Толқын","ru":"Толкын","en":"Tolqyn"},"country":"KZ","lat":43.629638,"lon":77.893978,"pop":0,"dumk_id":6976,"search_terms":["tolqyn","толкын","толқын"]},{"id":90001364,"name":"Tauturgen","names":{"kk":"Таутүрген","ru":"Таутурген","en":"Tauturgen"},"country":"KZ","lat":43.35308,"lon":77.619983,"pop":0,"dumk_id":6977,"search_terms":["tauturgen","таутүрген","таутурген"]},{"id":90001365,"name":"Turgen","names":{"kk":"Түрген","ru":"Турген","en":"Turgen"},"country":"KZ","lat":43.397835,"lon":77.594696,"pop":0,"dumk_id":6978,"search_terms":["түрген","turgen","турген"]},{"id":90001368,"name":"Tausugir","names":{"kk":"Таусүгір","ru":"Таусугир","en":"Tausugir"},"country":"KZ","lat":43.441059,"lon":78.220956,"pop":0,"dumk_id":6981,"search_terms":["tausugir","таусүгір","таусугир"]},{"id":90001380,"name":"Teskensu","names":{"kk":"Тескенсу","ru":"Тескенсу","en":"Teskensu"},"country":"KZ","lat":43.546639,"lon":77.869005,"pop":0,"dumk_id":6993,"search_terms":["тескенсу","teskensu"]},{"id":90001381,"name":"Torghaybaza","names":{"kk":"Торғайбаза","ru":"Торгайбаза","en":"Torghaybaza"},"country":"KZ","lat":43.59116,"lon":78.181951,"pop":0,"dumk_id":6994,"search_terms":["торгайбаза","торғайбаза","torghaybaza"]},{"id":90001410,"name":"Targhap","names":{"kk":"Тарғап","ru":"Таргап","en":"Targhap"},"country":"KZ","lat":43.331201,"lon":75.841076,"pop":0,"dumk_id":7023,"search_terms":["таргап","тарғап","targhap"]},{"id":90001435,"name":"Tangbalytas","names":{"kk":"Таңбалытас","ru":"Танбалытас","en":"Tangbalytas"},"country":"KZ","lat":43.576761,"lon":75.427465,"pop":0,"dumk_id":7048,"search_terms":["танбалытас","таңбалытас","tangbalytas"]},{"id":90001455,"name":"Tole bi","names":{"kk":"Төле би","ru":"Толе би","en":"Tole bi"},"country":"KZ","lat":43.447545,"lon":76.871857,"pop":0,"dumk_id":7068,"search_terms":["tole bi","төле би","толе би"]},{"id":90001484,"name":"Turar","names":{"kk":"Тұрар","ru":"Турар","en":"Turar"},"country":"KZ","lat":43.315742,"lon":76.584594,"pop":0,"dumk_id":7099,"search_terms":["turar","тұрар","турар"]},{"id":90001522,"name":"Toghyzbulaq","names":{"kk":"Тоғызбұлақ","ru":"Тогызбулак","en":"Toghyzbulaq"},"country":"KZ","lat":43.026258,"lon":78.717949,"pop":0,"dumk_id":7137,"search_terms":["тоғызбұлақ","тогызбулак","toghyzbulaq"]},{"id":90001530,"name":"Temirlik","names":{"kk":"Темірлік","ru":"Темирлик","en":"Temirlik"},"country":"KZ","lat":43.122873,"lon":79.206246,"pop":0,"dumk_id":7145,"search_terms":["темирлик","temirlik","темірлік"]},{"id":90001531,"name":"Tumenbay","names":{"kk":"Түменбай","ru":"Туменбай","en":"Tumenbay"},"country":"KZ","lat":43.026449,"lon":79.245404,"pop":0,"dumk_id":7146,"search_terms":["туменбай","түменбай","tumenbay"]},{"id":90001535,"name":"Tuyyq","names":{"kk":"Тұйық","ru":"Туйык","en":"Tuyyq"},"country":"KZ","lat":43.101944,"lon":79.398234,"pop":0,"dumk_id":7150,"search_terms":["tuyyq","туйык","тұйық"]},{"id":90001541,"name":"Taldy","names":{"kk":"Талды","ru":"Талды","en":"Taldy"},"country":"KZ","lat":42.982005,"lon":78.96928,"pop":0,"dumk_id":7156,"search_terms":["taldy","талды"]},{"id":90001550,"name":"Tasashy","names":{"kk":"Тасашы","ru":"Тасашы","en":"Tasashy"},"country":"KZ","lat":42.895245,"lon":79.436251,"pop":0,"dumk_id":7165,"search_terms":["тасашы","tasashy"]},{"id":90001556,"name":"Tuzkol","names":{"kk":"Тұзкөл","ru":"Тузкол","en":"Tuzkol"},"country":"KZ","lat":43.080989,"lon":80.003609,"pop":0,"dumk_id":7171,"search_terms":["тұзкөл","tuzkol","тузкол"]},{"id":90001563,"name":"Tegistik","names":{"kk":"Тегістік","ru":"Тегистик","en":"Tegistik"},"country":"KZ","lat":42.813634,"lon":79.977378,"pop":0,"dumk_id":7178,"search_terms":["тегістік","тегистик","tegistik"]},{"id":90001565,"name":"Tekes","names":{"kk":"Текес","ru":"Текес","en":"Tekes"},"country":"KZ","lat":42.821511,"lon":80.053438,"pop":0,"dumk_id":7180,"search_terms":["текес","tekes"]},{"id":90001567,"name":"Talas","names":{"kk":"Талас","ru":"Талас","en":"Talas"},"country":"KZ","lat":43.133085,"lon":79.819086,"pop":0,"dumk_id":7182,"search_terms":["талас","talas"]},{"id":90001574,"name":"Terengqara","names":{"kk":"Тереңқара","ru":"Теренкара","en":"Terengqara"},"country":"KZ","lat":43.506035,"lon":77.13236,"pop":0,"dumk_id":7189,"search_terms":["terengqara","тереңқара","теренкара"]},{"id":90001575,"name":"Tuzusay","names":{"kk":"Түзусай","ru":"Тузусай","en":"Tuzusay"},"country":"KZ","lat":43.368758,"lon":77.117618,"pop":0,"dumk_id":7190,"search_terms":["тузусай","түзусай","tuzusay"]},{"id":90001588,"name":"Taldybulaq","names":{"kk":"Талдыбұлақ","ru":"Талдыбулак","en":"Taldybulaq"},"country":"KZ","lat":43.31138,"lon":77.157998,"pop":0,"dumk_id":7203,"search_terms":["талдыбұлақ","taldybulaq","талдыбулак"]},{"id":90001611,"name":"Tughanbay","names":{"kk":"Туғанбай","ru":"Туганбай","en":"Tughanbay"},"country":"KZ","lat":43.705444,"lon":77.27176,"pop":0,"dumk_id":7226,"search_terms":["туганбай","туғанбай","tughanbay"]},{"id":90001616,"name":"Tongkeris","names":{"kk":"Төңкеріс","ru":"Тонкерис","en":"Tongkeris"},"country":"KZ","lat":43.475689,"lon":77.135935,"pop":0,"dumk_id":7231,"search_terms":["tongkeris","тонкерис","төңкеріс"]},{"id":90001617,"name":"Tuzdybastau","names":{"kk":"Тұздыбастау","ru":"Туздыбастау","en":"Tuzdybastau"},"country":"KZ","lat":43.324164,"lon":77.062749,"pop":0,"dumk_id":7232,"search_terms":["тұздыбастау","tuzdybastau","туздыбастау"]},{"id":90001626,"name":"Tiirmen","names":{"kk":"Тиірмен","ru":"Тиирмен","en":"Tiirmen"},"country":"KZ","lat":43.398098,"lon":79.710408,"pop":0,"dumk_id":7241,"search_terms":["tiirmen","тиирмен","тиірмен"]},{"id":90001632,"name":"Tasqarasu","names":{"kk":"Тасқарасу","ru":"Таскарасу","en":"Tasqarasu"},"country":"KZ","lat":43.769489,"lon":79.45022,"pop":0,"dumk_id":7247,"search_terms":["таскарасу","тасқарасу","tasqarasu"]},{"id":90001646,"name":"Turghyzba","names":{"kk":"Тұрғызба","ru":"Тургызба","en":"Turghyzba"},"country":"KZ","lat":47.005386,"lon":53.865024,"pop":0,"dumk_id":7261,"search_terms":["тұрғызба","turghyzba","тургызба"]},{"id":90001676,"name":"Tushchyqudyq","names":{"kk":"Тұщықұдық","ru":"Тущыкудык","en":"Tushchyqudyq"},"country":"KZ","lat":47.260314,"lon":51.067948,"pop":0,"dumk_id":7291,"search_terms":["тущыкудык","tushchyqudyq","тұщықұдық"]},{"id":90001692,"name":"Tasqudyq","names":{"kk":"Тасқұдық","ru":"Таскудык","en":"Tasqudyq"},"country":"KZ","lat":47.788858,"lon":54.500573,"pop":0,"dumk_id":7307,"search_terms":["таскудык","тасқұдық","tasqudyq"]},{"id":90001697,"name":"Taysoyghan","names":{"kk":"Тайсойған","ru":"Тайсойган","en":"Taysoyghan"},"country":"KZ","lat":48.563302,"lon":53.446624,"pop":0,"dumk_id":7312,"search_terms":["тайсойган","taysoyghan","тайсойған"]},{"id":90001699,"name":"Tasshaghyl","names":{"kk":"Тасшағыл","ru":"Тасшагыл","en":"Tasshaghyl"},"country":"KZ","lat":48.87811,"lon":52.967894,"pop":0,"dumk_id":7314,"search_terms":["tasshaghyl","тасшағыл","тасшагыл"]},{"id":90001744,"name":"Tengiz","names":{"kk":"Теңіз","ru":"Тениз","en":"Tengiz"},"country":"KZ","lat":46.550121,"lon":49.20946,"pop":0,"dumk_id":7359,"search_terms":["тениз","tengiz","теңіз"]},{"id":90001761,"name":"Tanday","names":{"kk":"Тандай","ru":"Тандай","en":"Tanday"},"country":"KZ","lat":47.550127,"lon":51.513594,"pop":0,"dumk_id":7376,"search_terms":["тандай","tanday"]},{"id":90001762,"name":"Toman","names":{"kk":"Томан","ru":"Томан","en":"Toman"},"country":"KZ","lat":47.233809,"lon":51.434398,"pop":0,"dumk_id":7377,"search_terms":["томан","toman"]},{"id":90001765,"name":"Taldykol","names":{"kk":"Талдыкөл","ru":"Талдыкол","en":"Taldykol"},"country":"KZ","lat":47.34265,"lon":51.877483,"pop":0,"dumk_id":7380,"search_terms":["талдыкол","талдыкөл","taldykol"]},{"id":90001777,"name":"Tinali","names":{"kk":"Тинали","ru":"Тинали","en":"Tinali"},"country":"KZ","lat":49.711403,"lon":51.4282,"pop":0,"dumk_id":7392,"search_terms":["tinali","тинали"]},{"id":90001784,"name":"Tegiszhol","names":{"kk":"Тегісжол","ru":"Тегисжол","en":"Tegiszhol"},"country":"KZ","lat":50.587706,"lon":50.562089,"pop":0,"dumk_id":7399,"search_terms":["tegiszhol","тегисжол","тегісжол"]},{"id":90001785,"name":"Togan","names":{"kk":"Тоган","ru":"Тоган","en":"Togan"},"country":"KZ","lat":50.651188,"lon":50.897385,"pop":0,"dumk_id":7400,"search_terms":["тоган","togan"]},{"id":90001801,"name":"Tasoba","names":{"kk":"Тасоба","ru":"Тасоба","en":"Tasoba"},"country":"KZ","lat":49.85528,"lon":51.466414,"pop":0,"dumk_id":7416,"search_terms":["tasoba","тасоба"]},{"id":90001819,"name":"Taypaq","names":{"kk":"Тайпақ","ru":"Тайпак","en":"Taypaq"},"country":"KZ","lat":49.034606,"lon":51.828327,"pop":0,"dumk_id":7434,"search_terms":["тайпак","taypaq","тайпақ"]},{"id":90001820,"name":"Tompaq","names":{"kk":"Томпақ","ru":"Томпак","en":"Tompaq"},"country":"KZ","lat":48.909651,"lon":51.806965,"pop":0,"dumk_id":7435,"search_terms":["томпақ","томпак","tompaq"]},{"id":90001829,"name":"Terenqudyq","names":{"kk":"Теренқұдық","ru":"Теренкудык","en":"Terenqudyq"},"country":"KZ","lat":48.898323,"lon":48.66438,"pop":0,"dumk_id":7444,"search_terms":["terenqudyq","теренқұдық","теренкудык"]},{"id":90001832,"name":"Tayghara","names":{"kk":"Тайғара","ru":"Тайгара","en":"Tayghara"},"country":"KZ","lat":49.163906,"lon":47.483625,"pop":0,"dumk_id":7447,"search_terms":["тайгара","tayghara","тайғара"]},{"id":90001913,"name":"Talovaya","names":{"kk":"Таловая","ru":"Таловая","en":"Talovaya"},"country":"KZ","lat":51.560721,"lon":50.592156,"pop":0,"dumk_id":7529,"search_terms":["talovaya","таловая"]},{"id":90001914,"name":"Tyngdala","names":{"kk":"Тыңдала","ru":"Тындала","en":"Tyngdala"},"country":"KZ","lat":51.464166,"lon":50.571207,"pop":0,"dumk_id":7530,"search_terms":["тыңдала","tyngdala","тындала"]},{"id":90001954,"name":"Tegisshil","names":{"kk":"Тегісшіл","ru":"Тегисшил","en":"Tegisshil"},"country":"KZ","lat":49.912378,"lon":47.340353,"pop":0,"dumk_id":7570,"search_terms":["tegisshil","тегісшіл","тегисшил"]},{"id":90001964,"name":"Talovka","names":{"kk":"Таловка","ru":"Таловка","en":"Talovka"},"country":"KZ","lat":50.402743,"lon":47.595403,"pop":0,"dumk_id":7580,"search_terms":["talovka","таловка"]},{"id":90001966,"name":"Tau","names":{"kk":"Тау","ru":"Тау","en":"Tau"},"country":"KZ","lat":49.61965,"lon":47.12465,"pop":0,"dumk_id":7582,"search_terms":["тау","tau"]},{"id":90001985,"name":"Tangat","names":{"kk":"Таңат","ru":"Танат","en":"Tangat"},"country":"KZ","lat":49.724816,"lon":49.396588,"pop":0,"dumk_id":7601,"search_terms":["tangat","танат","таңат"]},{"id":90001997,"name":"Toreghali","names":{"kk":"Төреғали","ru":"Торегали","en":"Toreghali"},"country":"KZ","lat":49.230247,"lon":49.809283,"pop":0,"dumk_id":7613,"search_terms":["toreghali","торегали","төреғали"]},{"id":90002013,"name":"Taldyapan","names":{"kk":"Талдыапан","ru":"Талдыапан","en":"Taldyapan"},"country":"KZ","lat":49.729079,"lon":50.232371,"pop":0,"dumk_id":7629,"search_terms":["талдыапан","taldyapan"]},{"id":90002015,"name":"Taldyqudyq","names":{"kk":"Талдықұдық","ru":"Талдыкудык","en":"Taldyqudyq"},"country":"KZ","lat":50.123512,"lon":49.556003,"pop":0,"dumk_id":7631,"search_terms":["талдыкудык","талдықұдық","taldyqudyq"]},{"id":90002016,"name":"Taskutir","names":{"kk":"Таскүтір","ru":"Таскутир","en":"Taskutir"},"country":"KZ","lat":50.124523,"lon":49.552293,"pop":0,"dumk_id":7632,"search_terms":["taskutir","таскутир","таскүтір"]},{"id":90002036,"name":"Temirbek","names":{"kk":"Темірбек","ru":"Темирбек","en":"Temirbek"},"country":"KZ","lat":49.729283,"lon":52.907734,"pop":0,"dumk_id":7652,"search_terms":["temirbek","темірбек","темирбек"]},{"id":90002037,"name":"Tolen","names":{"kk":"Төлен","ru":"Толен","en":"Tolen"},"country":"KZ","lat":49.463495,"lon":52.696998,"pop":0,"dumk_id":7653,"search_terms":["толен","төлен","tolen"]},{"id":90002054,"name":"Tasqudyq","names":{"kk":"Тасқұдық","ru":"Таскудык","en":"Tasqudyq"},"country":"KZ","lat":50.735664,"lon":52.933381,"pop":0,"dumk_id":7670,"search_terms":["таскудык","тасқұдық","tasqudyq"]},{"id":90002059,"name":"Tamdy","names":{"kk":"Тамды","ru":"Тамды","en":"Tamdy"},"country":"KZ","lat":50.369563,"lon":53.355948,"pop":0,"dumk_id":7675,"search_terms":["tamdy","тамды"]},{"id":90002070,"name":"Taldybulaq","names":{"kk":"Талдыбұлақ","ru":"Талдыбулак","en":"Taldybulaq"},"country":"KZ","lat":50.704071,"lon":52.776391,"pop":0,"dumk_id":7686,"search_terms":["талдыбұлақ","taldybulaq","талдыбулак"]},{"id":90002075,"name":"Toghanas","names":{"kk":"Тоғанас","ru":"Тоганас","en":"Toghanas"},"country":"KZ","lat":50.825086,"lon":52.034311,"pop":0,"dumk_id":7691,"search_terms":["тоганас","тоғанас","toghanas"]},{"id":90002091,"name":"Tasqala","names":{"kk":"Тасқала","ru":"Таскала","en":"Tasqala"},"country":"KZ","lat":51.106202,"lon":50.287357,"pop":0,"dumk_id":7707,"search_terms":["tasqala","тасқала","таскала"]},{"id":90002093,"name":"Taldybulaq","names":{"kk":"Талдыбұлақ","ru":"Талдыбулак","en":"Taldybulaq"},"country":"KZ","lat":50.784882,"lon":49.642232,"pop":0,"dumk_id":7709,"search_terms":["талдыбұлақ","taldybulaq","талдыбулак"]},{"id":90002099,"name":"Talpyn","names":{"kk":"Талпын","ru":"Талпын","en":"Talpyn"},"country":"KZ","lat":50.786402,"lon":51.660711,"pop":0,"dumk_id":7715,"search_terms":["talpyn","талпын"]},{"id":90002101,"name":"Tabynbay","names":{"kk":"Табынбай","ru":"Табынбай","en":"Tabynbay"},"country":"KZ","lat":50.741028,"lon":51.241952,"pop":0,"dumk_id":7717,"search_terms":["табынбай","tabynbay"]},{"id":90002114,"name":"Tasanshegen","names":{"kk":"Тасаншеген","ru":"Тасаншеген","en":"Tasanshegen"},"country":"KZ","lat":50.848295,"lon":51.777995,"pop":0,"dumk_id":7730,"search_terms":["tasanshegen","тасаншеген"]},{"id":90002119,"name":"Tongkeris","names":{"kk":"Төңкеріс","ru":"Тонкерис","en":"Tongkeris"},"country":"KZ","lat":51.391229,"lon":52.314352,"pop":0,"dumk_id":7735,"search_terms":["tongkeris","тонкерис","төңкеріс"]},{"id":90002125,"name":"Toqpay","names":{"kk":"Тоқпай","ru":"Токпай","en":"Toqpay"},"country":"KZ","lat":51.169865,"lon":51.525613,"pop":0,"dumk_id":7741,"search_terms":["toqpay","тоқпай","токпай"]},{"id":90002130,"name":"Taqsay","names":{"kk":"Тақсай","ru":"Таксай","en":"Taqsay"},"country":"KZ","lat":51.201248,"lon":52.081544,"pop":0,"dumk_id":7746,"search_terms":["таксай","тақсай","taqsay"]},{"id":90002131,"name":"Terekti","names":{"kk":"Теректі","ru":"Теректи","en":"Terekti"},"country":"KZ","lat":51.224534,"lon":51.963802,"pop":0,"dumk_id":7747,"search_terms":["теректи","теректі","terekti"]},{"id":90002157,"name":"Taldysay","names":{"kk":"Талдысай","ru":"Талдысай","en":"Taldysay"},"country":"KZ","lat":51.25354,"lon":53.653749,"pop":0,"dumk_id":7773,"search_terms":["taldysay","талдысай"]},{"id":90002177,"name":"Tortkul","names":{"kk":"Төрткүл","ru":"Торткул","en":"Tortkul"},"country":"KZ","lat":43.139644,"lon":71.407585,"pop":0,"dumk_id":7794,"search_terms":["төрткүл","tortkul","торткул"]},{"id":90002197,"name":"Tuymekent","names":{"kk":"Түймекент","ru":"Туймекент","en":"Tuymekent"},"country":"KZ","lat":43.133973,"lon":71.631517,"pop":0,"dumk_id":7814,"search_terms":["туймекент","tuymekent","түймекент"]},{"id":90002202,"name":"Tegistik (Zhangaturmys)","names":{"kk":"Тегістік (Жаңатұрмыс)","ru":"Тегистик (Жанатурмыс)","en":"Tegistik (Zhangaturmys)"},"country":"KZ","lat":43.072778,"lon":71.613611,"pop":0,"dumk_id":7819,"search_terms":["tegistik (zhangaturmys)","тегистик (жанатурмыс)","тегістік (жаңатұрмыс)"]},{"id":90002203,"name":"Tegistik (Temirbek)","names":{"kk":"Тегістік (Темірбек)","ru":"Тегистик (Темирбек)","en":"Tegistik (Temirbek)"},"country":"KZ","lat":43.344444,"lon":71.449444,"pop":0,"dumk_id":7820,"search_terms":["тегістік (темірбек)","tegistik (temirbek)","тегистик (темирбек)"]},{"id":90002204,"name":"Talas","names":{"kk":"Талас","ru":"Талас","en":"Talas"},"country":"KZ","lat":42.937778,"lon":71.469722,"pop":0,"dumk_id":7821,"search_terms":["талас","talas"]},{"id":90002205,"name":"Talas (st.)","names":{"kk":"Талас (ст.)","ru":"Талас (ст.)","en":"Talas (st.)"},"country":"KZ","lat":42.919444,"lon":71.4775,"pop":0,"dumk_id":7822,"search_terms":["талас (ст.)","talas (st.)"]},{"id":90002218,"name":"Turksib","names":{"kk":"Түрксіб","ru":"Турксиб","en":"Turksib"},"country":"KZ","lat":42.831436,"lon":71.395485,"pop":0,"dumk_id":7835,"search_terms":["турксиб","turksib","түрксіб"]},{"id":90002224,"name":"Tanty","names":{"kk":"Танты","ru":"Танты","en":"Tanty"},"country":"KZ","lat":42.945508,"lon":71.325093,"pop":0,"dumk_id":7841,"search_terms":["танты","tanty"]},{"id":90002239,"name":"Tastobe","names":{"kk":"Тастөбе","ru":"Тастобе","en":"Tastobe"},"country":"KZ","lat":43.063339,"lon":71.234363,"pop":0,"dumk_id":7856,"search_terms":["tastobe","тастөбе","тастобе"]},{"id":90002246,"name":"Toghyztarau","names":{"kk":"Тоғызтарау","ru":"Тогызтарау","en":"Toghyztarau"},"country":"KZ","lat":43.096266,"lon":70.790404,"pop":0,"dumk_id":7863,"search_terms":["toghyztarau","тоғызтарау","тогызтарау"]},{"id":90002267,"name":"Tasbastau","names":{"kk":"Тасбастау","ru":"Тасбастау","en":"Tasbastau"},"country":"KZ","lat":42.673143,"lon":70.55818,"pop":0,"dumk_id":7884,"search_terms":["тасбастау","tasbastau"]},{"id":90002277,"name":"Teris","names":{"kk":"Теріс","ru":"Терис","en":"Teris"},"country":"KZ","lat":42.666709,"lon":70.825432,"pop":0,"dumk_id":7894,"search_terms":["теріс","teris","терис"]},{"id":90002286,"name":"Teris-ashchybulaq","names":{"kk":"Теріс-ащыбұлақ","ru":"Терис-ащыбулак","en":"Teris-ashchybulaq"},"country":"KZ","lat":42.664444,"lon":70.961667,"pop":0,"dumk_id":7903,"search_terms":["teris-ashchybulaq","терис-ащыбулак","теріс-ащыбұлақ"]},{"id":90002287,"name":"Talapty","names":{"kk":"Талапты","ru":"Талапты","en":"Talapty"},"country":"KZ","lat":42.591757,"lon":70.859433,"pop":0,"dumk_id":7904,"search_terms":["талапты","talapty"]},{"id":90002289,"name":"Tuktibay","names":{"kk":"Түктібай","ru":"Туктибай","en":"Tuktibay"},"country":"KZ","lat":42.659887,"lon":70.894916,"pop":0,"dumk_id":7906,"search_terms":["түктібай","туктибай","tuktibay"]},{"id":90002291,"name":"Tattibay Duysebayuly","names":{"kk":"Тәттібай Дүйсебайұлы","ru":"Таттибай Дуйсебайулы","en":"Tattibay Duysebayuly"},"country":"KZ","lat":42.52837,"lon":70.666798,"pop":0,"dumk_id":7908,"search_terms":["tattibay duysebayuly","таттибай дуйсебайулы","тәттібай дүйсебайұлы"]},{"id":90002297,"name":"Tesiktas","names":{"kk":"Тесіктас","ru":"Тесиктас","en":"Tesiktas"},"country":"KZ","lat":42.8725,"lon":70.331389,"pop":0,"dumk_id":7914,"search_terms":["тесіктас","tesiktas","тесиктас"]},{"id":90002355,"name":"Taldybulaq","names":{"kk":"Талдыбұлақ","ru":"Талдыбулак","en":"Taldybulaq"},"country":"KZ","lat":42.805833,"lon":73.151944,"pop":0,"dumk_id":7972,"search_terms":["талдыбұлақ","taldybulaq","талдыбулак"]},{"id":90002356,"name":"Turlybay batyr","names":{"kk":"Тұрлыбай батыр","ru":"Турлыбай батыр","en":"Turlybay batyr"},"country":"KZ","lat":42.975758,"lon":73.166531,"pop":0,"dumk_id":7973,"search_terms":["тұрлыбай батыр","турлыбай батыр","turlybay batyr"]},{"id":90002367,"name":"Teskentoghan","names":{"kk":"Тескентоған","ru":"Тескентоган","en":"Teskentoghan"},"country":"KZ","lat":42.812814,"lon":73.292592,"pop":0,"dumk_id":7985,"search_terms":["тескентоган","teskentoghan","тескентоған"]},{"id":90002369,"name":"Turar Rysqulov","names":{"kk":"Тұрар Рысқұлов","ru":"Турар Рыскулов","en":"Turar Rysqulov"},"country":"KZ","lat":42.951389,"lon":73.238889,"pop":0,"dumk_id":7987,"search_terms":["тұрар рысқұлов","turar rysqulov","турар рыскулов"]},{"id":90002373,"name":"Tatti","names":{"kk":"Тәтті","ru":"Татти","en":"Tatti"},"country":"KZ","lat":43.21674,"lon":73.303237,"pop":0,"dumk_id":7991,"search_terms":["тәтті","tatti","татти"]},{"id":90002374,"name":"Tatti (st.)","names":{"kk":"Тәтті (ст.)","ru":"Татти (ст.)","en":"Tatti (st.)"},"country":"KZ","lat":43.216741,"lon":73.303238,"pop":0,"dumk_id":7992,"search_terms":["tatti (st.)","тәтті (ст.)","татти (ст.)"]},{"id":90002383,"name":"Tasotkel","names":{"kk":"Тасөткел","ru":"Тасоткел","en":"Tasotkel"},"country":"KZ","lat":43.28,"lon":73.483611,"pop":0,"dumk_id":8001,"search_terms":["tasotkel","тасөткел","тасоткел"]},{"id":90002431,"name":"Toghyzkent","names":{"kk":"Тоғызкент","ru":"Тогызкент","en":"Toghyzkent"},"country":"KZ","lat":43.93253,"lon":70.394061,"pop":0,"dumk_id":8049,"search_terms":["тоғызкент","toghyzkent","тогызкент"]},{"id":90002441,"name":"Talapty","names":{"kk":"Талапты","ru":"Талапты","en":"Talapty"},"country":"KZ","lat":43.585642,"lon":71.23881,"pop":0,"dumk_id":8060,"search_terms":["талапты","talapty"]},{"id":90002451,"name":"Turymqul","names":{"kk":"Тұрымқұл","ru":"Турымкул","en":"Turymqul"},"country":"KZ","lat":43.7525,"lon":70.998611,"pop":0,"dumk_id":8070,"search_terms":["турымкул","тұрымқұл","turymqul"]},{"id":90002452,"name":"Tamdy","names":{"kk":"Тамды","ru":"Тамды","en":"Tamdy"},"country":"KZ","lat":43.14855,"lon":70.593936,"pop":0,"dumk_id":8071,"search_terms":["tamdy","тамды"]},{"id":90002457,"name":"Tamabek","names":{"kk":"Тамабек","ru":"Тамабек","en":"Tamabek"},"country":"KZ","lat":43.71067,"lon":71.098565,"pop":0,"dumk_id":8076,"search_terms":["тамабек","tamabek"]},{"id":90002473,"name":"Tassholaq","names":{"kk":"Тасшолақ","ru":"Тасшолак","en":"Tassholaq"},"country":"KZ","lat":42.932228,"lon":72.88446,"pop":0,"dumk_id":8093,"search_terms":["tassholaq","тасшолақ","тасшолак"]},{"id":90002489,"name":"Terengozek","names":{"kk":"Тереңөзек","ru":"Теренозек","en":"Terengozek"},"country":"KZ","lat":42.978694,"lon":72.066562,"pop":0,"dumk_id":8109,"search_terms":["terengozek","теренозек","тереңөзек"]},{"id":90002491,"name":"Tayqudyq","names":{"kk":"Тайқұдық","ru":"Тайкудык","en":"Tayqudyq"},"country":"KZ","lat":43.071667,"lon":73.120278,"pop":0,"dumk_id":8111,"search_terms":["tayqudyq","тайкудык","тайқұдық"]},{"id":90002526,"name":"Tole bi","names":{"kk":"Төле би","ru":"Толе би","en":"Tole bi"},"country":"KZ","lat":43.675876,"lon":73.761989,"pop":0,"dumk_id":8146,"search_terms":["tole bi","төле би","толе би"]},{"id":90002528,"name":"Tasotkel","names":{"kk":"Тасөткел","ru":"Тасоткел","en":"Tasotkel"},"country":"KZ","lat":43.352778,"lon":73.587778,"pop":0,"dumk_id":8148,"search_terms":["tasotkel","тасөткел","тасоткел"]},{"id":90002529,"name":"Tasotkel (Eskishu)","names":{"kk":"Тасөткел (Ескішу)","ru":"Тасоткел (Ескишу)","en":"Tasotkel (Eskishu)"},"country":"KZ","lat":43.406944,"lon":73.867222,"pop":0,"dumk_id":8149,"search_terms":["tasotkel (eskishu)","тасөткел (ескішу)","тасоткел (ескишу)"]},{"id":90002543,"name":"Tausamaly","names":{"kk":"Таусамалы","ru":"Таусамалы","en":"Tausamaly"},"country":"KZ","lat":45.384491,"lon":79.541435,"pop":0,"dumk_id":8163,"search_terms":["tausamaly","таусамалы"]},{"id":90002550,"name":"Taras","names":{"kk":"Тарас","ru":"Тарас","en":"Taras"},"country":"KZ","lat":45.444103,"lon":79.793628,"pop":0,"dumk_id":8170,"search_terms":["taras","тарас"]},{"id":90002595,"name":"Taldybulaq","names":{"kk":"Талдыбұлақ","ru":"Талдыбулак","en":"Taldybulaq"},"country":"KZ","lat":45.852709,"lon":80.699606,"pop":0,"dumk_id":8215,"search_terms":["талдыбұлақ","taldybulaq","талдыбулак"]},{"id":90002596,"name":"Terekti","names":{"kk":"Теректі","ru":"Теректи","en":"Terekti"},"country":"KZ","lat":45.823487,"lon":80.70292,"pop":0,"dumk_id":8216,"search_terms":["теректи","теректі","terekti"]},{"id":90002597,"name":"Toqzhaylau","names":{"kk":"Тоқжайлау","ru":"Токжайлау","en":"Toqzhaylau"},"country":"KZ","lat":45.819951,"lon":81.086887,"pop":0,"dumk_id":8217,"search_terms":["toqzhaylau","тоқжайлау","токжайлау"]},{"id":90002603,"name":"Tambala","names":{"kk":"Тамбала","ru":"Тамбала","en":"Tambala"},"country":"KZ","lat":45.232143,"lon":78.667329,"pop":0,"dumk_id":8223,"search_terms":["tambala","тамбала"]},{"id":90002618,"name":"Tenglik","names":{"kk":"Теңлік","ru":"Тенлик","en":"Tenglik"},"country":"KZ","lat":44.9124,"lon":78.651123,"pop":0,"dumk_id":8239,"search_terms":["тенлик","tenglik","теңлік"]},{"id":90002646,"name":"Tastobe","names":{"kk":"Тастөбе","ru":"Тастобе","en":"Tastobe"},"country":"KZ","lat":45.023641,"lon":78.018018,"pop":0,"dumk_id":8267,"search_terms":["tastobe","тастөбе","тастобе"]},{"id":90002651,"name":"Tastybastau","names":{"kk":"Тастыбастау","ru":"Тастыбастау","en":"Tastybastau"},"country":"KZ","lat":44.293202,"lon":78.446757,"pop":0,"dumk_id":8272,"search_terms":["тастыбастау","tastybastau"]},{"id":90002669,"name":"Taldybulaq","names":{"kk":"Талдыбұлақ","ru":"Талдыбулак","en":"Taldybulaq"},"country":"KZ","lat":44.510182,"lon":78.887443,"pop":0,"dumk_id":8290,"search_terms":["талдыбұлақ","taldybulaq","талдыбулак"]},{"id":90002681,"name":"Tastyozek","names":{"kk":"Тастыөзек","ru":"Тастыозек","en":"Tastyozek"},"country":"KZ","lat":44.42442,"lon":78.643946,"pop":0,"dumk_id":8302,"search_terms":["тастыөзек","tastyozek","тастыозек"]},{"id":90002690,"name":"Terekti","names":{"kk":"Теректі","ru":"Теректи","en":"Terekti"},"country":"KZ","lat":44.894045,"lon":78.208416,"pop":0,"dumk_id":8311,"search_terms":["теректи","теректі","terekti"]},{"id":90002699,"name":"Talapty","names":{"kk":"Талапты","ru":"Талапты","en":"Talapty"},"country":"KZ","lat":44.79988,"lon":78.402919,"pop":0,"dumk_id":8320,"search_terms":["талапты","talapty"]},{"id":90002722,"name":"Turpan","names":{"kk":"Тұрпан","ru":"Турпан","en":"Turpan"},"country":"KZ","lat":44.336009,"lon":80.058559,"pop":0,"dumk_id":8343,"search_terms":["turpan","турпан","тұрпан"]},{"id":90002724,"name":"Taldy","names":{"kk":"Талды","ru":"Талды","en":"Taldy"},"country":"KZ","lat":44.287879,"lon":79.903447,"pop":0,"dumk_id":8345,"search_terms":["taldy","талды"]},{"id":90002740,"name":"Tasqudyq","names":{"kk":"Тасқұдық","ru":"Таскудык","en":"Tasqudyq"},"country":"KZ","lat":45.706286,"lon":80.132832,"pop":0,"dumk_id":8361,"search_terms":["таскудык","тасқұдық","tasqudyq"]},{"id":90002742,"name":"Topolevka","names":{"kk":"Тополевка","ru":"Тополевка","en":"Topolevka"},"country":"KZ","lat":45.427577,"lon":80.331844,"pop":0,"dumk_id":8363,"search_terms":["topolevka","тополевка"]},{"id":90002753,"name":"Terekti","names":{"kk":"Теректі","ru":"Теректи","en":"Terekti"},"country":"KZ","lat":45.56739,"lon":80.354688,"pop":0,"dumk_id":8374,"search_terms":["теректи","теректі","terekti"]},{"id":90002763,"name":"Taszaemka","names":{"kk":"Тасзаемка","ru":"Тасзаемка","en":"Taszaemka"},"country":"KZ","lat":49.542515,"lon":72.630345,"pop":0,"dumk_id":8384,"search_terms":["тасзаемка","taszaemka"]},{"id":90002780,"name":"Topar","names":{"kk":"Топар","ru":"Топар","en":"Topar"},"country":"KZ","lat":49.521133,"lon":72.827166,"pop":0,"dumk_id":8401,"search_terms":["topar","топар"]},{"id":90002808,"name":"Tasaral","names":{"kk":"Тасарал","ru":"Тасарал","en":"Tasaral"},"country":"KZ","lat":46.302924,"lon":73.968152,"pop":0,"dumk_id":8429,"search_terms":["тасарал","tasaral"]},{"id":90002840,"name":"Tasaul","names":{"kk":"Тасаул","ru":"Тасаул","en":"Tasaul"},"country":"KZ","lat":50.024287,"lon":72.755291,"pop":0,"dumk_id":8461,"search_terms":["тасаул","tasaul"]},{"id":90002851,"name":"Tegiszhol","names":{"kk":"Тегісжол","ru":"Тегисжол","en":"Tegiszhol"},"country":"KZ","lat":50.084432,"lon":72.724722,"pop":0,"dumk_id":8472,"search_terms":["tegiszhol","тегисжол","тегісжол"]},{"id":90002854,"name":"Toghyzqudyq","names":{"kk":"Тоғызқұдық","ru":"Тогызкудык","en":"Toghyzqudyq"},"country":"KZ","lat":49.879162,"lon":73.577789,"pop":0,"dumk_id":8475,"search_terms":["toghyzqudyq","тогызкудык","тоғызқұдық"]},{"id":90002857,"name":"Tuzdy","names":{"kk":"Тұзды","ru":"Тузды","en":"Tuzdy"},"country":"KZ","lat":50.12804,"lon":73.261753,"pop":0,"dumk_id":8478,"search_terms":["tuzdy","тузды","тұзды"]},{"id":90002858,"name":"Tortkol","names":{"kk":"Төрткөл","ru":"Торткол","en":"Tortkol"},"country":"KZ","lat":50.444263,"lon":74.403323,"pop":0,"dumk_id":8479,"search_terms":["төрткөл","торткол","tortkol"]},{"id":90002881,"name":"Taldy","names":{"kk":"Талды","ru":"Талды","en":"Taldy"},"country":"KZ","lat":49.10893,"lon":75.85801,"pop":0,"dumk_id":8502,"search_terms":["taldy","талды"]},{"id":90002906,"name":"Tatan","names":{"kk":"Татан","ru":"Татан","en":"Tatan"},"country":"KZ","lat":48.7046,"lon":76.70142,"pop":0,"dumk_id":8527,"search_terms":["tatan","татан"]},{"id":90002907,"name":"Tomar","names":{"kk":"Томар","ru":"Томар","en":"Tomar"},"country":"KZ","lat":48.907354,"lon":76.518676,"pop":0,"dumk_id":8528,"search_terms":["томар","tomar"]},{"id":90002911,"name":"Terekti","names":{"kk":"Теректі","ru":"Теректи","en":"Terekti"},"country":"KZ","lat":50.010684,"lon":76.169195,"pop":0,"dumk_id":8532,"search_terms":["теректи","теректі","terekti"]},{"id":90002926,"name":"Tassuat","names":{"kk":"Тассуат","ru":"Тассуат","en":"Tassuat"},"country":"KZ","lat":49.997773,"lon":71.495386,"pop":0,"dumk_id":8547,"search_terms":["tassuat","тассуат"]},{"id":90002933,"name":"Toparkol","names":{"kk":"Топаркөл","ru":"Топаркол","en":"Toparkol"},"country":"KZ","lat":49.761148,"lon":70.595229,"pop":0,"dumk_id":8554,"search_terms":["toparkol","топаркөл","топаркол"]},{"id":90002944,"name":"Taldysay","names":{"kk":"Талдысай","ru":"Талдысай","en":"Taldysay"},"country":"KZ","lat":49.475391,"lon":69.091962,"pop":0,"dumk_id":8565,"search_terms":["taldysay","талдысай"]},{"id":90002975,"name":"Topan","names":{"kk":"Топан","ru":"Топан","en":"Topan"},"country":"KZ","lat":50.345408,"lon":72.359997,"pop":0,"dumk_id":8596,"search_terms":["topan","топан"]},{"id":90003026,"name":"Tomengi qayraqty","names":{"kk":"Төменгі қайрақты","ru":"Томенги кайракты","en":"Tomengi qayraqty"},"country":"KZ","lat":48.453281,"lon":73.208779,"pop":0,"dumk_id":8647,"search_terms":["төменгі қайрақты","tomengi qayraqty","томенги кайракты"]},{"id":90003038,"name":"Taldy","names":{"kk":"Талды","ru":"Талды","en":"Taldy"},"country":"KZ","lat":49.107591,"lon":73.748038,"pop":0,"dumk_id":8659,"search_terms":["taldy","талды"]},{"id":90003044,"name":"Tumsyq","names":{"kk":"Тұмсық","ru":"Тумсык","en":"Tumsyq"},"country":"KZ","lat":48.904967,"lon":73.481813,"pop":0,"dumk_id":8665,"search_terms":["тумсык","тұмсық","tumsyq"]},{"id":90003052,"name":"Tanabay","names":{"kk":"Танабай","ru":"Танабай","en":"Tanabay"},"country":"KZ","lat":53.345962,"lon":64.578359,"pop":0,"dumk_id":8673,"search_terms":["танабай","tanabay"]},{"id":90003071,"name":"Temir qazyq","names":{"kk":"Темір қазық","ru":"Темир казык","en":"Temir qazyq"},"country":"KZ","lat":53.063217,"lon":64.082111,"pop":0,"dumk_id":8692,"search_terms":["темир казык","темір қазық","temir qazyq"]},{"id":90003095,"name":"Tasty","names":{"kk":"Тасты","ru":"Тасты","en":"Tasty"},"country":"KZ","lat":50.464124,"lon":65.974008,"pop":0,"dumk_id":8716,"search_terms":["tasty","тасты"]},{"id":90003131,"name":"Timofeev","names":{"kk":"Тимофеев","ru":"Тимофеев","en":"Timofeev"},"country":"KZ","lat":52.29671,"lon":63.526827,"pop":0,"dumk_id":8752,"search_terms":["тимофеев","timofeev"]},{"id":90003168,"name":"Tuyemoynaq","names":{"kk":"Түйемойнақ","ru":"Туйемойнак","en":"Tuyemoynaq"},"country":"KZ","lat":49.308194,"lon":62.919116,"pop":0,"dumk_id":8789,"search_terms":["түйемойнақ","туйемойнак","tuyemoynaq"]},{"id":90003174,"name":"Tauish","names":{"kk":"Тауіш","ru":"Тауиш","en":"Tauish"},"country":"KZ","lat":49.983966,"lon":63.943286,"pop":0,"dumk_id":8795,"search_terms":["тауіш","тауиш","tauish"]},{"id":90003175,"name":"Tenteksay","names":{"kk":"Тентексай","ru":"Тентексай","en":"Tenteksay"},"country":"KZ","lat":49.97216,"lon":64.160301,"pop":0,"dumk_id":8796,"search_terms":["tenteksay","тентексай"]},{"id":90003176,"name":"Toqanay","names":{"kk":"Тоқанай","ru":"Токанай","en":"Toqanay"},"country":"KZ","lat":50.070026,"lon":64.470103,"pop":0,"dumk_id":8797,"search_terms":["тоқанай","toqanay","токанай"]},{"id":90003190,"name":"Tasybay","names":{"kk":"Тасыбай","ru":"Тасыбай","en":"Tasybay"},"country":"KZ","lat":51.856452,"lon":60.369743,"pop":0,"dumk_id":8811,"search_terms":["tasybay","тасыбай"]},{"id":90003191,"name":"Turgenov","names":{"kk":"Тургенов","ru":"Тургенов","en":"Turgenov"},"country":"KZ","lat":52.147895,"lon":61.097288,"pop":0,"dumk_id":8812,"search_terms":["тургенов","turgenov"]},{"id":90003202,"name":"Timiryazev","names":{"kk":"Тимирязев","ru":"Тимирязев","en":"Timiryazev"},"country":"KZ","lat":51.746038,"lon":61.026513,"pop":0,"dumk_id":8823,"search_terms":["timiryazev","тимирязев"]},{"id":90003205,"name":"Toqtarov","names":{"kk":"Тоқтаров","ru":"Токтаров","en":"Toqtarov"},"country":"KZ","lat":52.111528,"lon":61.554072,"pop":0,"dumk_id":8826,"search_terms":["токтаров","тоқтаров","toqtarov"]},{"id":90003227,"name":"Taldykol","names":{"kk":"Талдыкөл","ru":"Талдыкол","en":"Taldykol"},"country":"KZ","lat":51.392719,"lon":61.985731,"pop":0,"dumk_id":8848,"search_terms":["талдыкол","талдыкөл","taldykol"]},{"id":90003229,"name":"Tauksor","names":{"kk":"Тауксор","ru":"Тауксор","en":"Tauksor"},"country":"KZ","lat":51.325313,"lon":62.336218,"pop":0,"dumk_id":8850,"search_terms":["тауксор","tauksor"]},{"id":90003232,"name":"Togyzak","names":{"kk":"Тогызак","ru":"Тогызак","en":"Togyzak"},"country":"KZ","lat":53.800749,"lon":62.203771,"pop":0,"dumk_id":8853,"search_terms":["тогызак","togyzak"]},{"id":90003244,"name":"Talapker","names":{"kk":"Талапкер","ru":"Талапкер","en":"Talapker"},"country":"KZ","lat":53.636687,"lon":61.336977,"pop":0,"dumk_id":8865,"search_terms":["талапкер","talapker"]},{"id":90003246,"name":"Tastyozek","names":{"kk":"Тастыозек","ru":"Тастыозек","en":"Tastyozek"},"country":"KZ","lat":53.397881,"lon":61.838713,"pop":0,"dumk_id":8867,"search_terms":["tastyozek","тастыозек"]},{"id":90003259,"name":"Terentevka","names":{"kk":"Терентьевка","ru":"Терентьевка","en":"Terentevka"},"country":"KZ","lat":53.703054,"lon":61.827241,"pop":0,"dumk_id":8880,"search_terms":["терентьевка","terentevka"]},{"id":90003295,"name":"Timtuir","names":{"kk":"Тімтуір","ru":"Тимтуир","en":"Timtuir"},"country":"KZ","lat":52.72719,"lon":65.805166,"pop":0,"dumk_id":8916,"search_terms":["тімтуір","timtuir","тимтуир"]},{"id":90003306,"name":"Terekti","names":{"kk":"Теректі","ru":"Теректи","en":"Terekti"},"country":"KZ","lat":51.863433,"lon":65.193121,"pop":0,"dumk_id":8927,"search_terms":["теректи","теректі","terekti"]},{"id":90003318,"name":"Tuchkovka","names":{"kk":"Тучковка","ru":"Тучковка","en":"Tuchkovka"},"country":"KZ","lat":52.511979,"lon":65.406507,"pop":0,"dumk_id":8939,"search_terms":["тучковка","tuchkovka"]},{"id":90003328,"name":"Tolenggut","names":{"kk":"Төлеңгүт","ru":"Толенгут","en":"Tolenggut"},"country":"KZ","lat":54.327535,"lon":64.505949,"pop":0,"dumk_id":8954,"search_terms":["төлеңгүт","tolenggut","толенгут"]},{"id":90003352,"name":"Tengiz","names":{"kk":"Теңіз","ru":"Тениз","en":"Tengiz"},"country":"KZ","lat":54.097729,"lon":64.428331,"pop":0,"dumk_id":8982,"search_terms":["тениз","tengiz","теңіз"]},{"id":90003392,"name":"Taghyl","names":{"kk":"Тағыл","ru":"Тагыл","en":"Taghyl"},"country":"KZ","lat":53.278871,"lon":65.648686,"pop":0,"dumk_id":9022,"search_terms":["тагыл","тағыл","taghyl"]},{"id":90003393,"name":"Timiryazevka","names":{"kk":"Тимирязевка","ru":"Тимирязевка","en":"Timiryazevka"},"country":"KZ","lat":53.698128,"lon":65.558115,"pop":0,"dumk_id":9023,"search_terms":["timiryazevka","тимирязевка"]},{"id":90003414,"name":"Taysoyghan","names":{"kk":"Тайсойған","ru":"Тайсойган","en":"Taysoyghan"},"country":"KZ","lat":54.306822,"lon":64.983382,"pop":0,"dumk_id":9044,"search_terms":["тайсойган","taysoyghan","тайсойған"]},{"id":90003431,"name":"Troebratskoe","names":{"kk":"Троебрацкое","ru":"Троебрацкое","en":"Troebratskoe"},"country":"KZ","lat":54.44134,"lon":66.073497,"pop":0,"dumk_id":9061,"search_terms":["троебрацкое","troebratskoe"]},{"id":90003468,"name":"Turaghash","names":{"kk":"Тұрағаш","ru":"Турагаш","en":"Turaghash"},"country":"KZ","lat":54.023621,"lon":62.90928,"pop":0,"dumk_id":9098,"search_terms":["турагаш","turaghash","тұрағаш"]},{"id":90003480,"name":"Toghuzaq","names":{"kk":"Тоғұзақ","ru":"Тогузак","en":"Toghuzaq"},"country":"KZ","lat":54.043896,"lon":62.717022,"pop":0,"dumk_id":9110,"search_terms":["тоғұзақ","тогузак","toghuzaq"]},{"id":90003482,"name":"Traktovoe","names":{"kk":"Трактовое","ru":"Трактовое","en":"Traktovoe"},"country":"KZ","lat":53.482161,"lon":62.503888,"pop":0,"dumk_id":9112,"search_terms":["трактовое","traktovoe"]},{"id":90003521,"name":"Talapker","names":{"kk":"Талапкер","ru":"Талапкер","en":"Talapker"},"country":"KZ","lat":53.054098,"lon":63.728831,"pop":0,"dumk_id":9151,"search_terms":["талапкер","talapker"]},{"id":90003546,"name":"Tobyl","names":{"kk":"Тобыл","ru":"Тобыл","en":"Tobyl"},"country":"KZ","lat":53.207372,"lon":63.705088,"pop":0,"dumk_id":9176,"search_terms":["тобыл","tobyl"]},{"id":90003580,"name":"Tobol","names":{"kk":"Тобол","ru":"Тобол","en":"Tobol"},"country":"KZ","lat":52.693905,"lon":62.582554,"pop":0,"dumk_id":9210,"search_terms":["tobol","тобол"]},{"id":90003613,"name":"Toqabay","names":{"kk":"Тоқабай","ru":"Токабай","en":"Toqabay"},"country":"KZ","lat":46.821583,"lon":62.300545,"pop":0,"dumk_id":9243,"search_terms":["токабай","тоқабай","toqabay"]},{"id":90003621,"name":"Tastaq","names":{"kk":"Тастақ","ru":"Тастак","en":"Tastaq"},"country":"KZ","lat":45.996691,"lon":61.091189,"pop":0,"dumk_id":9251,"search_terms":["tastaq","тастақ","тастак"]},{"id":90003628,"name":"Tastubek","names":{"kk":"Тастүбек","ru":"Тастубек","en":"Tastubek"},"country":"KZ","lat":46.604465,"lon":60.824326,"pop":0,"dumk_id":9258,"search_terms":["тастубек","тастүбек","tastubek"]},{"id":90003636,"name":"Tasboget","names":{"kk":"Тасбөгет","ru":"Тасбогет","en":"Tasboget"},"country":"KZ","lat":46.679037,"lon":61.770953,"pop":0,"dumk_id":9266,"search_terms":["tasboget","тасбогет","тасбөгет"]},{"id":90003650,"name":"Temirbek Zhurgenov","names":{"kk":"Темірбек Жүргенов","ru":"Темирбек Жургенов","en":"Temirbek Zhurgenov"},"country":"KZ","lat":44.878616,"lon":64.288841,"pop":0,"dumk_id":9280,"search_terms":["темирбек жургенов","темірбек жүргенов","temirbek zhurgenov"]},{"id":90003653,"name":"Tang","names":{"kk":"Таң","ru":"Тан","en":"Tang"},"country":"KZ","lat":45.066882,"lon":64.421836,"pop":0,"dumk_id":9283,"search_terms":["тан","таң","tang"]},{"id":90003656,"name":"Tugisken","names":{"kk":"Түгіскен","ru":"Тугискен","en":"Tugisken"},"country":"KZ","lat":43.592727,"lon":67.411717,"pop":0,"dumk_id":9286,"search_terms":["tugisken","түгіскен","тугискен"]},{"id":90003683,"name":"Taqyrkol","names":{"kk":"Тақыркөл","ru":"Такыркол","en":"Taqyrkol"},"country":"KZ","lat":44.055002,"lon":67.073717,"pop":0,"dumk_id":9314,"search_terms":["taqyrkol","тақыркөл","такыркол"]},{"id":90003684,"name":"Tomenaryq","names":{"kk":"Төменарық","ru":"Томенарык","en":"Tomenaryq"},"country":"KZ","lat":44.02708,"lon":67.010925,"pop":0,"dumk_id":9315,"search_terms":["tomenaryq","томенарык","төменарық"]},{"id":90003704,"name":"Tapa","names":{"kk":"Тапа","ru":"Тапа","en":"Tapa"},"country":"KZ","lat":46.479869,"lon":62.648158,"pop":0,"dumk_id":9336,"search_terms":["тапа","tapa"]},{"id":90003714,"name":"Tasaryq","names":{"kk":"Тасарық","ru":"Тасарык","en":"Tasaryq"},"country":"KZ","lat":45.355713,"lon":61.877789,"pop":0,"dumk_id":9346,"search_terms":["tasaryq","тасарык","тасарық"]},{"id":90003715,"name":"Tasotkel","names":{"kk":"Тасөткел","ru":"Тасоткел","en":"Tasotkel"},"country":"KZ","lat":45.412286,"lon":61.975382,"pop":0,"dumk_id":9347,"search_terms":["tasotkel","тасөткел","тасоткел"]},{"id":90003722,"name":"Turmaghambet","names":{"kk":"Тұрмағамбет","ru":"Турмагамбет","en":"Turmaghambet"},"country":"KZ","lat":45.075259,"lon":63.937096,"pop":0,"dumk_id":9355,"search_terms":["турмагамбет","turmaghambet","тұрмағамбет"]},{"id":90003724,"name":"Torebay bi","names":{"kk":"Төребай би","ru":"Торебай би","en":"Torebay bi"},"country":"KZ","lat":45.525364,"lon":63.79748,"pop":0,"dumk_id":9357,"search_terms":["торебай би","torebay bi","төребай би"]},{"id":90003734,"name":"Toretam","names":{"kk":"Төретам","ru":"Торетам","en":"Toretam"},"country":"KZ","lat":45.648857,"lon":63.315974,"pop":0,"dumk_id":9368,"search_terms":["торетам","toretam","төретам"]},{"id":90003743,"name":"Terengozek","names":{"kk":"Тереңөзек","ru":"Теренозек","en":"Terengozek"},"country":"KZ","lat":45.053372,"lon":64.985412,"pop":0,"dumk_id":9377,"search_terms":["terengozek","теренозек","тереңөзек"]},{"id":90003746,"name":"Toqmaghambetov","names":{"kk":"Тоқмағамбетов","ru":"Токмагамбетов","en":"Toqmaghambetov"},"country":"KZ","lat":45.060249,"lon":65.052957,"pop":0,"dumk_id":9380,"search_terms":["тоқмағамбетов","токмагамбетов","toqmaghambetov"]},{"id":90003752,"name":"Toghayly","names":{"kk":"Тоғайлы","ru":"Тогайлы","en":"Toghayly"},"country":"KZ","lat":44.241401,"lon":66.575233,"pop":0,"dumk_id":9386,"search_terms":["toghayly","тоғайлы","тогайлы"]},{"id":90003767,"name":"Tursynbay datqa","names":{"kk":"Тұрсынбай датқа","ru":"Турсынбай датка","en":"Tursynbay datqa"},"country":"KZ","lat":44.351565,"lon":66.199521,"pop":0,"dumk_id":9401,"search_terms":["тұрсынбай датқа","турсынбай датка","tursynbay datqa"]},{"id":90003775,"name":"Tartoghay","names":{"kk":"Тартоғай","ru":"Тартогай","en":"Tartoghay"},"country":"KZ","lat":44.444804,"lon":66.24052,"pop":0,"dumk_id":9409,"search_terms":["тартогай","тартоғай","tartoghay"]},{"id":90003787,"name":"Tazhen","names":{"kk":"Тәжен","ru":"Тажен","en":"Tazhen"},"country":"KZ","lat":44.88856,"lon":55.975921,"pop":0,"dumk_id":9421,"search_terms":["тажен","тәжен","tazhen"]},{"id":90003788,"name":"Tolep","names":{"kk":"Төлеп","ru":"Толеп","en":"Tolep"},"country":"KZ","lat":44.835008,"lon":54.54857,"pop":0,"dumk_id":9422,"search_terms":["tolep","төлеп","толеп"]},{"id":90003789,"name":"Turysh","names":{"kk":"Тұрыш","ru":"Турыш","en":"Turysh"},"country":"KZ","lat":45.448953,"lon":56.105862,"pop":0,"dumk_id":9423,"search_terms":["тұрыш","турыш","turysh"]},{"id":90003817,"name":"Taushyq","names":{"kk":"Таушық","ru":"Таушык","en":"Taushyq"},"country":"KZ","lat":44.341425,"lon":51.349453,"pop":0,"dumk_id":9453,"search_terms":["таушық","taushyq","таушык"]},{"id":90003819,"name":"Tushchyqudyq","names":{"kk":"Тұщықұдық","ru":"Тущыкудык","en":"Tushchyqudyq"},"country":"KZ","lat":44.739043,"lon":51.965527,"pop":0,"dumk_id":9455,"search_terms":["тущыкудык","tushchyqudyq","тұщықұдық"]},{"id":90003827,"name":"Tortay","names":{"kk":"Тортай","ru":"Тортай","en":"Tortay"},"country":"KZ","lat":52.991933,"lon":76.036846,"pop":0,"dumk_id":9463,"search_terms":["тортай","tortay"]},{"id":90003856,"name":"Taqyr","names":{"kk":"Тақыр","ru":"Такыр","en":"Taqyr"},"country":"KZ","lat":52.09164,"lon":78.064577,"pop":0,"dumk_id":9492,"search_terms":["taqyr","тақыр","такыр"]},{"id":90003888,"name":"Torayghyr","names":{"kk":"Торайғыр","ru":"Торайгыр","en":"Torayghyr"},"country":"KZ","lat":50.86342,"lon":75.631526,"pop":0,"dumk_id":9524,"search_terms":["торайгыр","torayghyr","торайғыр"]},{"id":90003936,"name":"Tasqudyq","names":{"kk":"Тасқұдық","ru":"Таскудык","en":"Tasqudyq"},"country":"KZ","lat":53.071761,"lon":74.761167,"pop":0,"dumk_id":9572,"search_terms":["таскудык","тасқұдық","tasqudyq"]},{"id":90003940,"name":"Toghyzaq","names":{"kk":"Тоғызақ","ru":"Тогызак","en":"Toghyzaq"},"country":"KZ","lat":53.457034,"lon":75.362894,"pop":0,"dumk_id":9576,"search_terms":["тоғызақ","тогызак","toghyzaq"]},{"id":90003945,"name":"Toqty","names":{"kk":"Тоқты","ru":"Токты","en":"Toqty"},"country":"KZ","lat":53.11013,"lon":74.446666,"pop":0,"dumk_id":9581,"search_terms":["токты","toqty","тоқты"]},{"id":90003948,"name":"Tobeles","names":{"kk":"Төбелес","ru":"Тобелес","en":"Tobeles"},"country":"KZ","lat":53.575861,"lon":74.749138,"pop":0,"dumk_id":9584,"search_terms":["тобелес","төбелес","tobeles"]},{"id":90004000,"name":"Tolubay","names":{"kk":"Толубай","ru":"Толубай","en":"Tolubay"},"country":"KZ","lat":52.290056,"lon":77.444021,"pop":0,"dumk_id":9636,"search_terms":["tolubay","толубай"]},{"id":90004004,"name":"Tileubay","names":{"kk":"Тілеубай","ru":"Тилеубай","en":"Tileubay"},"country":"KZ","lat":53.033081,"lon":76.65857,"pop":0,"dumk_id":9640,"search_terms":["тилеубай","тілеубай","tileubay"]},{"id":90004012,"name":"Timofeevka","names":{"kk":"Тимофеевка","ru":"Тимофеевка","en":"Timofeevka"},"country":"KZ","lat":53.339742,"lon":76.516888,"pop":0,"dumk_id":9648,"search_terms":["timofeevka","тимофеевка"]},{"id":90004020,"name":"Tegistik","names":{"kk":"Тегістік","ru":"Тегистик","en":"Tegistik"},"country":"KZ","lat":53.605107,"lon":77.000271,"pop":0,"dumk_id":9656,"search_terms":["тегістік","тегистик","tegistik"]},{"id":90004039,"name":"Tomarly","names":{"kk":"Томарлы","ru":"Томарлы","en":"Tomarly"},"country":"KZ","lat":53.370012,"lon":76.316114,"pop":0,"dumk_id":9675,"search_terms":["томарлы","tomarly"]},{"id":90004055,"name":"Timiryazevo","names":{"kk":"Тимирязево","ru":"Тимирязево","en":"Timiryazevo"},"country":"KZ","lat":53.074839,"lon":76.975801,"pop":0,"dumk_id":9691,"search_terms":["тимирязево","timiryazevo"]},{"id":90004058,"name":"Tavolzhan","names":{"kk":"Таволжан","ru":"Таволжан","en":"Tavolzhan"},"country":"KZ","lat":52.7123,"lon":77.456355,"pop":0,"dumk_id":9694,"search_terms":["tavolzhan","таволжан"]},{"id":90004060,"name":"Travyanka","names":{"kk":"Травянка","ru":"Травянка","en":"Travyanka"},"country":"KZ","lat":52.993933,"lon":77.279953,"pop":0,"dumk_id":9696,"search_terms":["травянка","travyanka"]},{"id":90004095,"name":"Tatyanovka","names":{"kk":"Татьяновка","ru":"Татьяновка","en":"Tatyanovka"},"country":"KZ","lat":52.436235,"lon":78.312629,"pop":0,"dumk_id":9731,"search_terms":["татьяновка","tatyanovka"]},{"id":90004155,"name":"Tomengi burlyq","names":{"kk":"Төменгі бұрлық","ru":"Томенги бурлык","en":"Tomengi burlyq"},"country":"KZ","lat":52.777424,"lon":68.169697,"pop":0,"dumk_id":9791,"search_terms":["tomengi burlyq","томенги бурлык","төменгі бұрлық"]},{"id":90004188,"name":"Talshyq","names":{"kk":"Талшық","ru":"Талшык","en":"Talshyq"},"country":"KZ","lat":53.63335,"lon":71.860875,"pop":0,"dumk_id":9824,"search_terms":["talshyq","талшық","талшык"]},{"id":90004211,"name":"Tokushi","names":{"kk":"Токуши","ru":"Токуши","en":"Tokushi"},"country":"KZ","lat":54.858803,"lon":69.715455,"pop":0,"dumk_id":9847,"search_terms":["tokushi","токуши"]},{"id":90004212,"name":"Tyumenka","names":{"kk":"Тюменка","ru":"Тюменка","en":"Tyumenka"},"country":"KZ","lat":54.884255,"lon":69.781715,"pop":0,"dumk_id":9848,"search_terms":["tyumenka","тюменка"]},{"id":90004223,"name":"Talapker","names":{"kk":"Талапкер","ru":"Талапкер","en":"Talapker"},"country":"KZ","lat":54.431375,"lon":68.35935,"pop":0,"dumk_id":9859,"search_terms":["талапкер","talapker"]},{"id":90004226,"name":"Tamambay","names":{"kk":"Тамамбай","ru":"Тамамбай","en":"Tamambay"},"country":"KZ","lat":54.060974,"lon":68.176947,"pop":0,"dumk_id":9862,"search_terms":["тамамбай","tamambay"]},{"id":90004236,"name":"Tonkoshurovka","names":{"kk":"Тонкошуровка","ru":"Тонкошуровка","en":"Tonkoshurovka"},"country":"KZ","lat":53.903011,"lon":68.68321,"pop":0,"dumk_id":9872,"search_terms":["тонкошуровка","tonkoshurovka"]},{"id":90004255,"name":"Tauaghash","names":{"kk":"Тауағаш","ru":"Тауагаш","en":"Tauaghash"},"country":"KZ","lat":54.394651,"lon":67.894454,"pop":0,"dumk_id":9891,"search_terms":["тауагаш","тауағаш","tauaghash"]},{"id":90004259,"name":"Tarangul","names":{"kk":"Тарангүл","ru":"Тарангул","en":"Tarangul"},"country":"KZ","lat":54.037741,"lon":68.366689,"pop":0,"dumk_id":9895,"search_terms":["tarangul","тарангул","тарангүл"]},{"id":90004303,"name":"Tolmachevka","names":{"kk":"Толмачевка","ru":"Толмачевка","en":"Tolmachevka"},"country":"KZ","lat":54.837467,"lon":69.384453,"pop":0,"dumk_id":9939,"search_terms":["толмачевка","tolmachevka"]},{"id":90004326,"name":"Trudovaya niva","names":{"kk":"Трудовая нива","ru":"Трудовая нива","en":"Trudovaya niva"},"country":"KZ","lat":54.663948,"lon":69.194702,"pop":0,"dumk_id":9962,"search_terms":["trudovaya niva","трудовая нива"]},{"id":90004338,"name":"Toqta paraq","names":{"kk":"Тоқта парақ","ru":"Токта парак","en":"Toqta paraq"},"country":"KZ","lat":54.875403,"lon":68.846812,"pop":0,"dumk_id":9974,"search_terms":["тоқта парақ","токта парак","toqta paraq"]},{"id":90004340,"name":"Teplichnoe","names":{"kk":"Тепличное","ru":"Тепличное","en":"Teplichnoe"},"country":"KZ","lat":54.83265,"lon":69.093067,"pop":0,"dumk_id":9976,"search_terms":["тепличное","teplichnoe"]},{"id":90004385,"name":"Taman","names":{"kk":"Таман","ru":"Таман","en":"Taman"},"country":"KZ","lat":54.480999,"lon":70.514696,"pop":0,"dumk_id":10021,"search_terms":["taman","таман"]},{"id":90004393,"name":"Tishchenko","names":{"kk":"Тищенко","ru":"Тищенко","en":"Tishchenko"},"country":"KZ","lat":54.867254,"lon":70.568837,"pop":0,"dumk_id":10029,"search_terms":["tishchenko","тищенко"]},{"id":90004420,"name":"Tokarevka","names":{"kk":"Токаревка","ru":"Токаревка","en":"Tokarevka"},"country":"KZ","lat":54.725899,"lon":68.236649,"pop":0,"dumk_id":10056,"search_terms":["токаревка","tokarevka"]},{"id":90004429,"name":"Tapshyl","names":{"kk":"Тапшыл","ru":"Тапшыл","en":"Tapshyl"},"country":"KZ","lat":53.574508,"lon":70.038067,"pop":0,"dumk_id":10065,"search_terms":["тапшыл","tapshyl"]},{"id":90004432,"name":"Taldykol","names":{"kk":"Талдыкөл","ru":"Талдыкол","en":"Taldykol"},"country":"KZ","lat":53.501817,"lon":70.718739,"pop":0,"dumk_id":10068,"search_terms":["талдыкол","талдыкөл","taldykol"]},{"id":90004439,"name":"Ternovka","names":{"kk":"Терновка","ru":"Терновка","en":"Ternovka"},"country":"KZ","lat":53.63319,"lon":69.934357,"pop":0,"dumk_id":10075,"search_terms":["терновка","ternovka"]},{"id":90004464,"name":"Talap","names":{"kk":"Талап","ru":"Талап","en":"Talap"},"country":"KZ","lat":53.6837,"lon":68.798563,"pop":0,"dumk_id":10100,"search_terms":["талап","talap"]},{"id":90004477,"name":"Tendyq","names":{"kk":"Тендық","ru":"Тендык","en":"Tendyq"},"country":"KZ","lat":53.994355,"lon":69.859536,"pop":0,"dumk_id":10113,"search_terms":["тендык","tendyq","тендық"]},{"id":90004507,"name":"Timiryazevo","names":{"kk":"Тимирязево","ru":"Тимирязево","en":"Timiryazevo"},"country":"KZ","lat":53.748193,"lon":66.492076,"pop":0,"dumk_id":10143,"search_terms":["тимирязево","timiryazevo"]},{"id":90004516,"name":"Tileusay","names":{"kk":"Тілеусай","ru":"Тилеусай","en":"Tileusay"},"country":"KZ","lat":53.730901,"lon":73.274967,"pop":0,"dumk_id":10152,"search_terms":["tileusay","тилеусай","тілеусай"]},{"id":90004534,"name":"Telzhan","names":{"kk":"Телжан","ru":"Телжан","en":"Telzhan"},"country":"KZ","lat":53.662086,"lon":72.598769,"pop":0,"dumk_id":10170,"search_terms":["телжан","telzhan"]},{"id":90004566,"name":"Telmanov","names":{"kk":"Тельманов","ru":"Тельманов","en":"Telmanov"},"country":"KZ","lat":53.63832,"lon":66.96768,"pop":0,"dumk_id":10202,"search_terms":["тельманов","telmanov"]},{"id":90004594,"name":"Toqsan bi","names":{"kk":"Тоқсан би","ru":"Токсан би","en":"Toqsan bi"},"country":"KZ","lat":52.957614,"lon":66.620777,"pop":0,"dumk_id":10230,"search_terms":["токсан би","тоқсан би","toqsan bi"]},{"id":90004606,"name":"Toqty","names":{"kk":"Тоқты","ru":"Токты","en":"Toqty"},"country":"KZ","lat":52.569544,"lon":67.40877,"pop":0,"dumk_id":10242,"search_terms":["токты","toqty","тоқты"]},{"id":90004609,"name":"Takhtabrod","names":{"kk":"Тахтаброд","ru":"Тахтаброд","en":"Takhtabrod"},"country":"KZ","lat":52.632078,"lon":67.57945,"pop":0,"dumk_id":10245,"search_terms":["takhtabrod","тахтаброд"]},{"id":90004628,"name":"Turaqty","names":{"kk":"Тұрақты","ru":"Туракты","en":"Turaqty"},"country":"KZ","lat":42.858207,"lon":69.726083,"pop":0,"dumk_id":10264,"search_terms":["тұрақты","туракты","turaqty"]},{"id":90004630,"name":"Tangatar","names":{"kk":"Таңатар","ru":"Танатар","en":"Tangatar"},"country":"KZ","lat":43.060098,"lon":69.423431,"pop":0,"dumk_id":10266,"search_terms":["танатар","tangatar","таңатар"]},{"id":90004644,"name":"Talap","names":{"kk":"Талап","ru":"Талап","en":"Talap"},"country":"KZ","lat":42.703783,"lon":69.794974,"pop":0,"dumk_id":10280,"search_terms":["талап","talap"]},{"id":90004645,"name":"Terekti","names":{"kk":"Теректі","ru":"Теректи","en":"Terekti"},"country":"KZ","lat":42.834391,"lon":69.771959,"pop":0,"dumk_id":10281,"search_terms":["теректи","теректі","terekti"]},{"id":90004646,"name":"Tuyetas","names":{"kk":"Түйетас","ru":"Туйетас","en":"Tuyetas"},"country":"KZ","lat":42.623264,"lon":69.711009,"pop":0,"dumk_id":10282,"search_terms":["туйетас","tuyetas","түйетас"]},{"id":90004656,"name":"Tasqudyq","names":{"kk":"Тасқұдық","ru":"Таскудык","en":"Tasqudyq"},"country":"KZ","lat":42.903851,"lon":69.177113,"pop":0,"dumk_id":10292,"search_terms":["таскудык","тасқұдық","tasqudyq"]},{"id":90004684,"name":"Talapty","names":{"kk":"Талапты","ru":"Талапты","en":"Talapty"},"country":"KZ","lat":40.852023,"lon":68.130055,"pop":0,"dumk_id":10320,"search_terms":["талапты","talapty"]},{"id":90004716,"name":"Taubay ata","names":{"kk":"Таубай ата","ru":"Таубай ата","en":"Taubay ata"},"country":"KZ","lat":40.805102,"lon":68.36203,"pop":0,"dumk_id":10352,"search_terms":["таубай ата","taubay ata"]},{"id":90004745,"name":"Temirzhol","names":{"kk":"Теміржол","ru":"Темиржол","en":"Temirzhol"},"country":"KZ","lat":40.921425,"lon":68.114981,"pop":0,"dumk_id":10381,"search_terms":["теміржол","темиржол","temirzhol"]},{"id":90004746,"name":"Tyn","names":{"kk":"Тын","ru":"Тын","en":"Tyn"},"country":"KZ","lat":40.879295,"lon":68.240952,"pop":0,"dumk_id":10382,"search_terms":["тын","tyn"]},{"id":90004767,"name":"Talapty","names":{"kk":"Талапты","ru":"Талапты","en":"Talapty"},"country":"KZ","lat":40.880366,"lon":68.32436,"pop":0,"dumk_id":10403,"search_terms":["талапты","talapty"]},{"id":90004772,"name":"Turkebay","names":{"kk":"Туркебай","ru":"Туркебай","en":"Turkebay"},"country":"KZ","lat":41.007557,"lon":68.221386,"pop":0,"dumk_id":10408,"search_terms":["туркебай","turkebay"]},{"id":90004780,"name":"Tilektes","names":{"kk":"Тілектес","ru":"Тилектес","en":"Tilektes"},"country":"KZ","lat":41.975823,"lon":69.67116,"pop":0,"dumk_id":10416,"search_terms":["тилектес","тілектес","tilektes"]},{"id":90004806,"name":"Turbat","names":{"kk":"Тұрбат","ru":"Турбат","en":"Turbat"},"country":"KZ","lat":41.75304,"lon":69.589206,"pop":0,"dumk_id":10442,"search_terms":["turbat","турбат","тұрбат"]},{"id":90004815,"name":"Taldybulaq","names":{"kk":"Талдыбұлақ","ru":"Талдыбулак","en":"Taldybulaq"},"country":"KZ","lat":41.890279,"lon":69.377922,"pop":0,"dumk_id":10451,"search_terms":["талдыбұлақ","taldybulaq","талдыбулак"]},{"id":90004819,"name":"Tughyrtas","names":{"kk":"Тұғыртас","ru":"Тугыртас","en":"Tughyrtas"},"country":"KZ","lat":41.683306,"lon":69.50392,"pop":0,"dumk_id":10455,"search_terms":["tughyrtas","тұғыртас","тугыртас"]},{"id":90004820,"name":"Tesiktobe","names":{"kk":"Тесіктөбе","ru":"Тесиктобе","en":"Tesiktobe"},"country":"KZ","lat":41.904749,"lon":69.776676,"pop":0,"dumk_id":10456,"search_terms":["тесиктобе","tesiktobe","тесіктөбе"]},{"id":90004853,"name":"Tenteksay","names":{"kk":"Тентексай","ru":"Тентексай","en":"Tenteksay"},"country":"KZ","lat":41.638849,"lon":68.340069,"pop":0,"dumk_id":10489,"search_terms":["tenteksay","тентексай"]},{"id":90004891,"name":"Tortkul","names":{"kk":"Төрткүл","ru":"Торткул","en":"Tortkul"},"country":"KZ","lat":40.813043,"lon":68.445911,"pop":0,"dumk_id":10527,"search_terms":["төрткүл","tortkul","торткул"]},{"id":90004892,"name":"Turan","names":{"kk":"Тұран","ru":"Туран","en":"Turan"},"country":"KZ","lat":40.74076,"lon":68.429221,"pop":0,"dumk_id":10528,"search_terms":["тұран","туран","turan"]},{"id":90004899,"name":"Tabysty","names":{"kk":"Табысты","ru":"Табысты","en":"Tabysty"},"country":"KZ","lat":40.780691,"lon":68.534674,"pop":0,"dumk_id":10535,"search_terms":["tabysty","табысты"]},{"id":90004909,"name":"Tanirbergen Zhaylybaeva","names":{"kk":"Тәнірберген Жайлыбаева","ru":"Танирберген Жайлыбаева","en":"Tanirbergen Zhaylybaeva"},"country":"KZ","lat":40.628343,"lon":68.575044,"pop":0,"dumk_id":10545,"search_terms":["tanirbergen zhaylybaeva","танирберген жайлыбаева","тәнірберген жайлыбаева"]},{"id":90004951,"name":"Tulpar","names":{"kk":"Тұлпар","ru":"Тулпар","en":"Tulpar"},"country":"KZ","lat":40.780315,"lon":68.481718,"pop":0,"dumk_id":10587,"search_terms":["тұлпар","tulpar","тулпар"]},{"id":90004972,"name":"Temirlanovka","names":{"kk":"Темірлановка","ru":"Темирлановка","en":"Temirlanovka"},"country":"KZ","lat":42.599137,"lon":69.256309,"pop":0,"dumk_id":10608,"search_terms":["темірлановка","temirlanovka","темирлановка"]},{"id":90004984,"name":"Torearyk","names":{"kk":"Тореарык","ru":"Тореарык","en":"Torearyk"},"country":"KZ","lat":42.514754,"lon":69.078828,"pop":0,"dumk_id":10620,"search_terms":["torearyk","тореарык"]},{"id":90004993,"name":"Tortkul","names":{"kk":"Төрткүл","ru":"Торткул","en":"Tortkul"},"country":"KZ","lat":42.857421,"lon":68.923267,"pop":0,"dumk_id":10629,"search_terms":["төрткүл","tortkul","торткул"]},{"id":90004998,"name":"Toqsansay","names":{"kk":"Тоқсансай","ru":"Токсансай","en":"Toqsansay"},"country":"KZ","lat":42.539863,"lon":69.375335,"pop":0,"dumk_id":10634,"search_terms":["токсансай","тоқсансай","toqsansay"]},{"id":90005019,"name":"Talapty","names":{"kk":"Талапты","ru":"Талапты","en":"Talapty"},"country":"KZ","lat":42.860064,"lon":68.292605,"pop":0,"dumk_id":10655,"search_terms":["талапты","talapty"]},{"id":90005028,"name":"Temir","names":{"kk":"Темір","ru":"Темир","en":"Temir"},"country":"KZ","lat":42.823984,"lon":68.435123,"pop":0,"dumk_id":10664,"search_terms":["temir","темір","темир"]},{"id":90005043,"name":"Taskeshu","names":{"kk":"Таскешу","ru":"Таскешу","en":"Taskeshu"},"country":"KZ","lat":42.48522,"lon":69.508079,"pop":0,"dumk_id":10680,"search_terms":["taskeshu","таскешу"]},{"id":90005044,"name":"Togan","names":{"kk":"Тоган","ru":"Тоган","en":"Togan"},"country":"KZ","lat":42.506798,"lon":69.574636,"pop":0,"dumk_id":10681,"search_terms":["тоган","togan"]},{"id":90005056,"name":"Tespe","names":{"kk":"Теспе","ru":"Теспе","en":"Tespe"},"country":"KZ","lat":42.534987,"lon":69.614826,"pop":0,"dumk_id":10693,"search_terms":["tespe","теспе"]},{"id":90005071,"name":"Tasqudyq","names":{"kk":"Тасқұдық","ru":"Таскудык","en":"Tasqudyq"},"country":"KZ","lat":41.555533,"lon":68.903495,"pop":0,"dumk_id":10708,"search_terms":["таскудык","тасқұдық","tasqudyq"]},{"id":90005078,"name":"Tongkeris","names":{"kk":"Төңкеріс","ru":"Тонкерис","en":"Tongkeris"},"country":"KZ","lat":41.409193,"lon":69.157117,"pop":0,"dumk_id":10715,"search_terms":["tongkeris","тонкерис","төңкеріс"]},{"id":90005081,"name":"Tyn","names":{"kk":"Тын","ru":"Тын","en":"Tyn"},"country":"KZ","lat":41.517154,"lon":69.332656,"pop":0,"dumk_id":10718,"search_terms":["тын","tyn"]},{"id":90005111,"name":"Taskesken","names":{"kk":"Таскескен","ru":"Таскескен","en":"Taskesken"},"country":"KZ","lat":41.409998,"lon":69.017339,"pop":0,"dumk_id":10748,"search_terms":["таскескен","taskesken"]},{"id":90005112,"name":"Tegisshil","names":{"kk":"Тегісшіл","ru":"Тегисшил","en":"Tegisshil"},"country":"KZ","lat":41.447487,"lon":69.032942,"pop":0,"dumk_id":10749,"search_terms":["tegisshil","тегісшіл","тегисшил"]},{"id":90005117,"name":"Tasqulaq","names":{"kk":"Тасқұлақ","ru":"Таскулак","en":"Tasqulaq"},"country":"KZ","lat":41.454313,"lon":69.309543,"pop":0,"dumk_id":10754,"search_terms":["tasqulaq","таскулак","тасқұлақ"]},{"id":90005141,"name":"Teke","names":{"kk":"Теке","ru":"Теке","en":"Teke"},"country":"KZ","lat":43.223139,"lon":68.13292,"pop":0,"dumk_id":10778,"search_terms":["teke","теке"]},{"id":90005167,"name":"Tayqonyr","names":{"kk":"Тайқоныр","ru":"Тайконыр","en":"Tayqonyr"},"country":"KZ","lat":45.209377,"lon":67.533537,"pop":0,"dumk_id":10804,"search_terms":["тайқоныр","тайконыр","tayqonyr"]},{"id":90005173,"name":"Taskomirsay","names":{"kk":"Таскөмірсай","ru":"Таскомирсай","en":"Taskomirsay"},"country":"KZ","lat":43.264101,"lon":69.165412,"pop":0,"dumk_id":10810,"search_terms":["таскомирсай","taskomirsay","таскөмірсай"]},{"id":90005174,"name":"Toretoghan","names":{"kk":"Торетоған","ru":"Торетоган","en":"Toretoghan"},"country":"KZ","lat":44.809741,"lon":69.42635,"pop":0,"dumk_id":10811,"search_terms":["торетоган","toretoghan","торетоған"]},{"id":90005175,"name":"Tasty auyl","names":{"kk":"Тасты ауыл","ru":"Тасты ауыл","en":"Tasty auyl"},"country":"KZ","lat":44.800271,"lon":69.169064,"pop":0,"dumk_id":10812,"search_terms":["tasty auyl","тасты ауыл"]},{"id":90005176,"name":"Taukent","names":{"kk":"Таукент","ru":"Таукент","en":"Taukent"},"country":"KZ","lat":43.863403,"lon":68.757106,"pop":0,"dumk_id":10813,"search_terms":["таукент","taukent"]},{"id":90005202,"name":"Taghayna","names":{"kk":"Тағайна","ru":"Тагайна","en":"Taghayna"},"country":"KZ","lat":42.112601,"lon":69.866516,"pop":0,"dumk_id":10839,"search_terms":["тағайна","taghayna","тагайна"]},{"id":90005211,"name":"Tongkeris","names":{"kk":"Төңкеріс","ru":"Тонкерис","en":"Tongkeris"},"country":"KZ","lat":42.26084,"lon":70.380128,"pop":0,"dumk_id":10848,"search_terms":["tongkeris","тонкерис","төңкеріс"]},{"id":90005231,"name":"Tasaryq","names":{"kk":"Тасарық","ru":"Тасарык","en":"Tasaryq"},"country":"KZ","lat":42.241032,"lon":70.133361,"pop":0,"dumk_id":10868,"search_terms":["tasaryq","тасарык","тасарық"]},{"id":90005272,"name":"Tausaghyz","names":{"kk":"Таусағыз","ru":"Таусагыз","en":"Tausaghyz"},"country":"KZ","lat":42.549123,"lon":70.240359,"pop":0,"dumk_id":10910,"search_terms":["tausaghyz","таусагыз","таусағыз"]},{"id":90005275,"name":"Tastybulaq","names":{"kk":"Тастыбұлақ","ru":"Тастыбулак","en":"Tastybulaq"},"country":"KZ","lat":42.522981,"lon":70.290153,"pop":0,"dumk_id":10913,"search_terms":["tastybulaq","тастыбұлақ","тастыбулак"]},{"id":90005284,"name":"Tastumsyq","names":{"kk":"Тастұмсық","ru":"Тастумсык","en":"Tastumsyq"},"country":"KZ","lat":42.555831,"lon":70.246315,"pop":0,"dumk_id":10922,"search_terms":["тастумсык","тастұмсық","tastumsyq"]},{"id":90005287,"name":"Tulkibas","names":{"kk":"Түлкібас","ru":"Тулкибас","en":"Tulkibas"},"country":"KZ","lat":42.493477,"lon":70.290737,"pop":0,"dumk_id":10925,"search_terms":["тулкибас","tulkibas","түлкібас"]},{"id":90005332,"name":"Taldybulaq","names":{"kk":"Талдыбұлақ","ru":"Талдыбулак","en":"Taldybulaq"},"country":"KZ","lat":48.851594,"lon":71.376387,"pop":0,"dumk_id":10970,"search_terms":["талдыбұлақ","taldybulaq","талдыбулак"]},{"id":90005334,"name":"Tugisken","names":{"kk":"Түгіскен","ru":"Тугискен","en":"Tugisken"},"country":"KZ","lat":48.371942,"lon":69.997733,"pop":0,"dumk_id":10972,"search_terms":["tugisken","түгіскен","тугискен"]},{"id":90005343,"name":"Taldyqudyq","names":{"kk":"Талдықұдық","ru":"Талдыкудык","en":"Taldyqudyq"},"country":"KZ","lat":48.442147,"lon":65.672147,"pop":0,"dumk_id":10981,"search_terms":["талдыкудык","талдықұдық","taldyqudyq"]},{"id":90005352,"name":"Tersaqqan","names":{"kk":"Терсаққан","ru":"Терсаккан","en":"Tersaqqan"},"country":"KZ","lat":49.730238,"lon":67.444856,"pop":0,"dumk_id":10990,"search_terms":["терсаққан","tersaqqan","терсаккан"]},{"id":90005354,"name":"Taldysay","names":{"kk":"Талдысай","ru":"Талдысай","en":"Taldysay"},"country":"KZ","lat":48.215145,"lon":67.023474,"pop":0,"dumk_id":10992,"search_terms":["taldysay","талдысай"]},{"id":90005377,"name":"Turghysyn","names":{"kk":"Тұрғысын","ru":"Тургысын","en":"Turghysyn"},"country":"KZ","lat":49.770132,"lon":84.007355,"pop":0,"dumk_id":11015,"search_terms":["turghysyn","тұрғысын","тургысын"]},{"id":90005404,"name":"Tarkhanka","names":{"kk":"Тарханка","ru":"Тарханка","en":"Tarkhanka"},"country":"KZ","lat":50.112382,"lon":82.95161,"pop":0,"dumk_id":11042,"search_terms":["тарханка","tarkhanka"]},{"id":90005410,"name":"Taldy","names":{"kk":"Талды","ru":"Талды","en":"Taldy"},"country":"KZ","lat":47.312973,"lon":84.690524,"pop":0,"dumk_id":11048,"search_terms":["taldy","талды"]},{"id":90005431,"name":"Tasbastau","names":{"kk":"Тасбастау","ru":"Тасбастау","en":"Tasbastau"},"country":"KZ","lat":47.221246,"lon":84.55601,"pop":0,"dumk_id":11069,"search_terms":["тасбастау","tasbastau"]},{"id":90005445,"name":"Topqayyn","names":{"kk":"Топқайын","ru":"Топкайын","en":"Topqayyn"},"country":"KZ","lat":49.189284,"lon":85.427268,"pop":0,"dumk_id":11083,"search_terms":["топкайын","топқайын","topqayyn"]},{"id":90005476,"name":"Terektibulaq","names":{"kk":"Теректібұлақ","ru":"Теректибулак","en":"Terektibulaq"},"country":"KZ","lat":48.666919,"lon":84.034592,"pop":0,"dumk_id":11114,"search_terms":["теректібұлақ","теректибулак","terektibulaq"]},{"id":90005477,"name":"Tosqayyn","names":{"kk":"Тосқайын","ru":"Тоскайын","en":"Tosqayyn"},"country":"KZ","lat":48.873062,"lon":86.284018,"pop":0,"dumk_id":11115,"search_terms":["тоскайын","тосқайын","tosqayyn"]},{"id":90005480,"name":"Teriskey-bokenbay","names":{"kk":"Теріскей-бөкенбай","ru":"Терискей-бокенбай","en":"Teriskey-bokenbay"},"country":"KZ","lat":48.33119,"lon":84.733176,"pop":0,"dumk_id":11118,"search_terms":["теріскей-бөкенбай","teriskey-bokenbay","терискей-бокенбай"]},{"id":90005489,"name":"Taqyr","names":{"kk":"Тақыр","ru":"Такыр","en":"Taqyr"},"country":"KZ","lat":48.149771,"lon":84.972263,"pop":0,"dumk_id":11127,"search_terms":["taqyr","тақыр","такыр"]},{"id":90005494,"name":"Topterek","names":{"kk":"Төптерек","ru":"Топтерек","en":"Topterek"},"country":"KZ","lat":48.593088,"lon":83.623011,"pop":0,"dumk_id":11132,"search_terms":["топтерек","төптерек","topterek"]},{"id":90005534,"name":"Tauke","names":{"kk":"Тәуке","ru":"Тауке","en":"Tauke"},"country":"KZ","lat":47.849034,"lon":83.522507,"pop":0,"dumk_id":11173,"search_terms":["тауке","tauke","тәуке"]},{"id":90005547,"name":"Tughyl","names":{"kk":"Тұғыл","ru":"Тугыл","en":"Tughyl"},"country":"KZ","lat":47.727326,"lon":84.204967,"pop":0,"dumk_id":11186,"search_terms":["тугыл","tughyl","тұғыл"]},{"id":90005575,"name":"Tavricheskoe","names":{"kk":"Таврическое","ru":"Таврическое","en":"Tavricheskoe"},"country":"KZ","lat":50.166923,"lon":82.056951,"pop":0,"dumk_id":11214,"search_terms":["tavricheskoe","таврическое"]},{"id":90005580,"name":"Targhyn","names":{"kk":"Тарғын","ru":"Таргын","en":"Targhyn"},"country":"KZ","lat":49.494938,"lon":82.836599,"pop":0,"dumk_id":11219,"search_terms":["тарғын","таргын","targhyn"]},{"id":90005596,"name":"Trekhgornoe","names":{"kk":"Трехгорное","ru":"Трехгорное","en":"Trekhgornoe"},"country":"KZ","lat":50.661484,"lon":82.168486,"pop":0,"dumk_id":11235,"search_terms":["трехгорное","trekhgornoe"]}]