[{"id":1792947,"name":"Tianjin","local":"Тяньцзинь","country":"CN","lat":39.142,"lon":117.177,"pop":11090314,"tz":"Asia/Shanghai"},{"id":1850147,"name":"Tokyo","local":"Токио","country":"JP","lat":35.69,"lon":139.692,"pop":9733276,"tz":"Asia/Tokyo"},{"id":1668341,"name":"Taipei","local":"Тайбэй","country":"TW","lat":25.053,"lon":121.526,"pop":7871900,"tz":"Asia/Taipei"},{"id":112931,"name":"Tehran","local":"Тегеран","country":"IR","lat":35.694,"lon":51.422,"pop":7153309,"tz":"Asia/Tehran"},{"id":1793511,"name":"Taiyuan","local":"Тайюань","country":"CN","lat":37.869,"lon":112.56,"pop":4303673,"tz":"Asia/Shanghai"},{"id":1793346,"name":"Tangshan","local":"Таншань","country":"CN","lat":39.644,"lon":118.183,"pop":3372102,"tz":"Asia/Shanghai"},{"id":1668399,"name":"Taichung","local":"Тайчжун","country":"TW","lat":24.147,"lon":120.684,"pop":2850285,"tz":"Asia/Taipei"},{"id":6167865,"name":"Toronto","local":"Торонто","country":"CA","lat":43.706,"lon":-79.399,"pop":2794356,"tz":"America/Toronto"},{"id":1835329,"name":"Daegu","local":"Тэгу","country":"KR","lat":35.87,"lon":128.591,"pop":2365523,"tz":"Asia/Seoul"},{"id":1512569,"name":"Tashkent","local":"Ташкент","country":"UZ","lat":41.265,"lon":69.216,"pop":1978028,"tz":"Asia/Tashkent"},{"id":3981609,"name":"Tijuana","local":"Тихуана","country":"MX","lat":32.503,"lon":-117.004,"pop":1922523,"tz":"America/Tijuana"},{"id":1625084,"name":"Tangerang","local":"Тангеранг","country":"ID","lat":-6.178,"lon":106.63,"pop":1912679,"tz":"Asia/Jakarta"},{"id":1668355,"name":"Tainan","local":"Тайнань","country":"TW","lat":22.991,"lon":120.213,"pop":1856642,"tz":"Asia/Taipei"},{"id":1254661,"name":"Thane","local":"Тхана","country":"IN","lat":19.197,"lon":72.964,"pop":1841488,"tz":"Asia/Kolkata"},{"id":1793724,"name":"Tai'an","local":"Тайань","country":"CN","lat":36.185,"lon":117.12,"pop":1735425,"tz":"Asia/Shanghai"},{"id":1793505,"name":"Taizhou","local":"Тайчжоу","country":"CN","lat":32.491,"lon":119.908,"pop":1607108,"tz":"Asia/Shanghai"},{"id":8400694,"name":"Taizhou","local":"Тайчжоу","country":"CN","lat":28.663,"lon":121.433,"pop":1485502,"tz":"Asia/Shanghai"},{"id":1835235,"name":"Daejeon","local":"Тэджон","country":"KR","lat":36.349,"lon":127.385,"pop":1470336,"tz":"Asia/Seoul"},{"id":1254361,"name":"Tirunelveli","local":"Тирунелвели","country":"IN","lat":8.727,"lon":77.684,"pop":1435844,"tz":"Asia/Kolkata"},{"id":113646,"name":"Tabriz","local":"Тебриз","country":"IR","lat":38.08,"lon":46.292,"pop":1424641,"tz":"Asia/Tehran"},{"id":1684308,"name":"Taguig","local":"Тагиг","country":"PH","lat":14.524,"lon":121.079,"pop":1308085,"tz":"Asia/Manila"},{"id":2210247,"name":"Tripoli","local":"Триполи","country":"LY","lat":32.887,"lon":13.187,"pop":1302947,"tz":"Africa/Tripoli"},{"id":2244322,"name":"Touba","local":"Туба","country":"SN","lat":14.862,"lon":-15.875,"pop":1120824,"tz":"Africa/Dakar"},{"id":611717,"name":"Tbilisi","local":"Тбилиси","country":"GE","lat":41.691,"lon":44.834,"pop":1049498,"tz":"Asia/Tbilisi"},{"id":2530335,"name":"Tangier","local":"Танжер","country":"MA","lat":35.767,"lon":-5.8,"pop":1035141,"tz":"Africa/Casablanca"},{"id":1254745,"name":"Teni","local":"Тхени","country":"IN","lat":10.011,"lon":77.478,"pop":1034724,"tz":"Asia/Kolkata"},{"id":1254388,"name":"Tiruchirappalli","local":"Тируччираппалли","country":"IN","lat":10.816,"lon":78.697,"pop":1022518,"tz":"Asia/Kolkata"},{"id":1254348,"name":"Tiruppur","local":"Тируппур","country":"IN","lat":11.115,"lon":77.355,"pop":963173,"tz":"Asia/Kolkata"},{"id":70225,"name":"Taiz","local":"Таиз","country":"YE","lat":13.58,"lon":44.021,"pop":940600,"tz":"Asia/Aden"},{"id":3691175,"name":"Trujillo","local":"Трухильо","country":"PE","lat":-8.116,"lon":-79.03,"pop":919899,"tz":"America/Lima"},{"id":3386496,"name":"Teresina","local":"Терезина","country":"BR","lat":-5.089,"lon":-42.802,"pop":871126,"tz":"America/Fortaleza"},{"id":3600949,"name":"Tegucigalpa","local":"Тегусигальпа","country":"HN","lat":14.082,"lon":-87.207,"pop":850848,"tz":"America/Tegucigalpa"},{"id":1566166,"name":"Thanh Hoa","local":"Таньһоа","country":"VN","lat":19.8,"lon":105.767,"pop":850000,"tz":"Asia/Bangkok"},{"id":3165524,"name":"Turin","local":"Турин","country":"IT","lat":45.07,"lon":7.687,"pop":847287,"tz":"Europe/Rome"},{"id":1254163,"name":"Thiruvananthapuram","local":"Тируванантапурам","country":"IN","lat":8.486,"lon":76.949,"pop":788271,"tz":"Asia/Kolkata"},{"id":1488754,"name":"Tyumen","local":"Тюмень","country":"RU","lat":57.152,"lon":65.527,"pop":768358,"tz":"Asia/Yekaterinburg"},{"id":1624647,"name":"Tasikmalaya","local":"Тасикмалая","country":"ID","lat":-7.327,"lon":108.221,"pop":741760,"tz":"Asia/Jakarta"},{"id":3981254,"name":"Torreon","local":"Торреон","country":"MX","lat":25.544,"lon":-103.419,"pop":735340,"tz":"America/Monterrey"},{"id":482283,"name":"Tolyatti","local":"Тольятти","country":"RU","lat":53.53,"lon":49.346,"pop":702879,"tz":"Europe/Samara"},{"id":2464470,"name":"Tunis","local":"Тунис","country":"TN","lat":36.819,"lon":10.166,"pop":693210,"tz":"Africa/Tunis"},{"id":101628,"name":"Tabuk","local":"Табук","country":"SA","lat":28.4,"lon":36.572,"pop":667000,"tz":"Asia/Riyadh"},{"id":3515431,"name":"Tlalnepantla","local":"Тлалнепантла","country":"MX","lat":19.54,"lon":-99.195,"pop":653410,"tz":"America/Mexico_City"},{"id":3981461,"name":"Tlaquepaque","local":"Тлакепаке","country":"MX","lat":20.641,"lon":-103.293,"pop":650123,"tz":"America/Mexico_City"},{"id":3515001,"name":"Tuxtla","local":"Тустла-Гутьеррес","country":"MX","lat":16.754,"lon":-93.116,"pop":604147,"tz":"America/Merida"},{"id":347497,"name":"Tanta","local":"Танта","country":"EG","lat":30.788,"lon":31.002,"pop":576648,"tz":"Africa/Cairo"},{"id":1489425,"name":"Tomsk","local":"Томск","country":"RU","lat":56.5,"lon":84.982,"pop":574002,"tz":"Asia/Tomsk"},{"id":5318313,"name":"Tucson","local":"Тусон","country":"US","lat":32.222,"lon":-110.926,"pop":542629,"tz":"America/Phoenix"},{"id":1793424,"name":"Tanggu","local":"Танго","country":"CN","lat":39.021,"lon":117.647,"pop":535298,"tz":"Asia/Shanghai"},{"id":2972315,"name":"Toulouse","local":"Тулуза","country":"FR","lat":43.604,"lon":1.444,"pop":511684,"tz":"Europe/Paris"},{"id":2034414,"name":"Tonghua","local":"Тунхуа","country":"CN","lat":41.72,"lon":125.926,"pop":510000,"tz":"Asia/Shanghai"},{"id":1818446,"name":"Tuen Mun","local":"Туен Мун","country":"HK","lat":22.392,"lon":113.972,"pop":507900,"tz":"Asia/Hong_Kong"},{"id":3515302,"name":"Toluca","local":"Толука","country":"MX","lat":19.288,"lon":-99.653,"pop":489333,"tz":"America/Mexico_City"},{"id":480562,"name":"Tula","local":"Тула","country":"RU","lat":54.196,"lon":37.618,"pop":482873,"tz":"Europe/Moscow"},{"id":1667905,"name":"Taoyuan","local":"Таоюань","country":"TW","lat":24.99,"lon":121.319,"pop":475798,"tz":"Asia/Taipei"},{"id":2294877,"name":"Tamale","local":"Тамале","country":"GH","lat":9.401,"lon":-0.839,"pop":464316,"tz":"Africa/Accra"},{"id":1792359,"name":"Huangshan","local":"Туньси","country":"CN","lat":29.711,"lon":118.312,"pop":460786,"tz":"Asia/Shanghai"},{"id":163345,"name":"Tartus","local":"Тартус","country":"SY","lat":34.889,"lon":35.887,"pop":458327,"tz":"Asia/Damascus"},{"id":293397,"name":"Tel Aviv","local":"Тель-Авив","country":"IL","lat":32.081,"lon":34.781,"pop":432892,"tz":"Asia/Jerusalem"},{"id":1849814,"name":"Toyota","local":"Тоёта","country":"JP","lat":35.083,"lon":137.15,"pop":426162,"tz":"Asia/Tokyo"},{"id":480060,"name":"Tver","local":"Тверь","country":"RU","lat":56.858,"lon":35.901,"pop":420065,"tz":"Europe/Moscow"},{"id":1566319,"name":"Thai Nguyen","local":"Тай-Нгуен","country":"VN","lat":21.594,"lon":105.848,"pop":420000,"tz":"Asia/Bangkok"},{"id":1851100,"name":"Takamatsu","local":"Такамацу","country":"JP","lat":34.333,"lon":134.05,"pop":418994,"tz":"Asia/Tokyo"},{"id":3183875,"name":"Tirana","local":"Тирана","country":"AL","lat":41.327,"lon":19.819,"pop":418495,"tz":"Europe/Tirane"},{"id":1849876,"name":"Toyama","local":"Тояма","country":"JP","lat":36.7,"lon":137.217,"pop":415844,"tz":"Asia/Tokyo"},{"id":2528910,"name":"Tetouan","local":"Тетуан","country":"MA","lat":35.578,"lon":-5.368,"pop":415810,"tz":"Africa/Casablanca"},{"id":4174757,"name":"Tampa","local":"Тампа","country":"US","lat":27.948,"lon":-82.458,"pop":414547,"tz":"America/New_York"},{"id":4553433,"name":"Tulsa","local":"Талса","country":"US","lat":36.154,"lon":-95.993,"pop":413066,"tz":"America/Chicago"},{"id":8629640,"name":"Thoothukudi","local":"Тутикорин","country":"IN","lat":8.767,"lon":78.134,"pop":410760,"tz":"Asia/Kolkata"},{"id":3981369,"name":"Tonala","local":"Тонала","country":"MX","lat":20.623,"lon":-103.242,"pop":408759,"tz":"America/Mexico_City"},{"id":6696918,"name":"Taoyuan City","local":"Таоюань","country":"TW","lat":24.994,"lon":121.297,"pop":402014,"tz":"Asia/Taipei"},{"id":588409,"name":"Tallinn","local":"Таллин","country":"EE","lat":59.437,"lon":24.754,"pop":394024,"tz":"Europe/Tallinn"},{"id":149606,"name":"Tanga","local":"Танга","country":"TZ","lat":-5.069,"lon":39.099,"pop":393429,"tz":"Africa/Dar_es_Salaam"},{"id":1849846,"name":"Toyohashi","local":"Тойохаши","country":"JP","lat":34.767,"lon":137.383,"pop":377453,"tz":"Asia/Tokyo"},{"id":1565022,"name":"Thu Dau Mot","local":"Тхузаумот","country":"VN","lat":10.98,"lon":106.652,"pop":373105,"tz":"Asia/Ho_Chi_Minh"},{"id":1851002,"name":"Takasaki","local":"Такасаки","country":"JP","lat":36.333,"lon":139.017,"pop":372973,"tz":"Asia/Tokyo"},{"id":1734199,"name":"Tawau","local":"Тавау","country":"MY","lat":4.245,"lon":117.891,"pop":372615,"tz":"Asia/Kuching"},{"id":1516905,"name":"Taraz","local":"Тараз","country":"KZ","lat":42.898,"lon":71.373,"pop":358153,"tz":"Asia/Almaty"},{"id":1026014,"name":"Tete","local":"Тете","country":"MZ","lat":-16.156,"lon":33.587,"pop":357000,"tz":"Africa/Maputo"},{"id":3516266,"name":"Tapachula","local":"Тапачуле","country":"MX","lat":14.905,"lon":-92.259,"pop":353706,"tz":"America/Merida"},{"id":299817,"name":"Tarsus","local":"Тарсус","country":"TR","lat":36.918,"lon":34.893,"pop":350732,"tz":"Europe/Istanbul"},{"id":1053384,"name":"Toamasina","local":"Туамасина","country":"MG","lat":-18.149,"lon":49.402,"pop":345107,"tz":"Indian/Antananarivo"},{"id":3625829,"name":"Turmero","local":"Турмеро","country":"VE","lat":10.229,"lon":-67.474,"pop":344700,"tz":"America/Caracas"},{"id":1850181,"name":"Tokorozawa","local":"Токородзава","country":"JP","lat":35.799,"lon":139.469,"pop":344194,"tz":"Asia/Tokyo"},{"id":2034439,"name":"Tieling","local":"Телин","country":"CN","lat":42.293,"lon":123.841,"pop":333907,"tz":"Asia/Shanghai"},{"id":3981941,"name":"Tepic","local":"Тепик","country":"MX","lat":21.507,"lon":-104.893,"pop":332863,"tz":"America/Mazatlan"},{"id":3446682,"name":"Taubate","local":"Таубате","country":"BR","lat":-23.026,"lon":-45.555,"pop":317915,"tz":"America/Sao_Paulo"},{"id":1254187,"name":"Thrissur","local":"Тричура","country":"IN","lat":10.517,"lon":76.217,"pop":315957,"tz":"Asia/Kolkata"},{"id":3516355,"name":"Tampico","local":"Тампико","country":"MX","lat":22.285,"lon":-97.878,"pop":309003,"tz":"America/Monterrey"},{"id":149658,"name":"Tabora","local":"Табора","country":"TZ","lat":-5.016,"lon":32.827,"pop":308741,"tz":"Africa/Dar_es_Salaam"},{"id":1254360,"name":"Tirupati","local":"Тирупати","country":"IN","lat":13.636,"lon":79.42,"pop":295323,"tz":"Asia/Kolkata"},{"id":484646,"name":"Tambov","local":"Тамбов","country":"RU","lat":52.736,"lon":41.441,"pop":293661,"tz":"Europe/Moscow"},{"id":1254649,"name":"Thanjavur","local":"Тханджавур","country":"IN","lat":10.785,"lon":79.139,"pop":291067,"tz":"Asia/Kolkata"},{"id":3928128,"name":"Tacna","local":"Такна","country":"PE","lat":-18.015,"lon":-70.254,"pop":286240,"tz":"America/Lima"},{"id":1624494,"name":"Tegal","local":"Тегал","country":"ID","lat":-6.869,"lon":109.14,"pop":282781,"tz":"Asia/Jakarta"},{"id":484907,"name":"Taganrog","local":"Таганрог","country":"RU","lat":47.236,"lon":38.905,"pop":279056,"tz":"Europe/Moscow"},{"id":1818673,"name":"Tai Po","local":"Тај По","country":"HK","lat":22.45,"lon":114.169,"pop":274100,"tz":"Asia/Hong_Kong"},{"id":1529114,"name":"Turpan","local":"Турфан","country":"CN","lat":42.948,"lon":89.179,"pop":273385,"tz":"Asia/Urumqi"},{"id":1850158,"name":"Tokushima","local":"Токусима","country":"JP","lat":34.067,"lon":134.567,"pop":267345,"tz":"Asia/Tokyo"},{"id":5174035,"name":"Toledo","local":"Толедо","country":"US","lat":41.664,"lon":-83.555,"pop":265638,"tz":"America/New_York"},{"id":2034400,"name":"Tongliao","local":"Тунляо","country":"CN","lat":43.612,"lon":122.265,"pop":261110,"tz":"Asia/Shanghai"},{"id":634963,"name":"Tampere","local":"Тампере","country":"FI","lat":61.499,"lon":23.787,"pop":260646,"tz":"Europe/Helsinki"},{"id":1684712,"name":"Tacloban","local":"Таклобан","country":"PH","lat":11.243,"lon":125.005,"pop":259353,"tz":"Asia/Manila"},{"id":179330,"name":"Thika","local":"Тик","country":"KE","lat":-1.033,"lon":37.069,"pop":251407,"tz":"Africa/Nairobi"},{"id":665087,"name":"Timisoara","local":"Тимишоара","country":"RO","lat":45.754,"lon":21.226,"pop":250849,"tz":"Europe/Bucharest"},{"id":1624725,"name":"Tarakan","local":"Таракан","country":"ID","lat":3.313,"lon":117.592,"pop":249960,"tz":"Asia/Makassar"},{"id":3516109,"name":"Tehuacan","local":"Теуакан","country":"MX","lat":18.464,"lon":-97.397,"pop":248716,"tz":"America/Mexico_City"},{"id":738648,"name":"Trabzon","local":"Трабзон","country":"TR","lat":41.005,"lon":39.727,"pop":244083,"tz":"Europe/Istanbul"},{"id":1864624,"name":"Chigasaki","local":"Тигасаки","country":"JP","lat":35.336,"lon":139.404,"pop":242798,"tz":"Asia/Tokyo"},{"id":688758,"name":"Vyhurivshchyna-Troieshchyna","local":"Троещина","country":"UA","lat":50.511,"lon":30.603,"pop":240000,"tz":"Europe/Kyiv"},{"id":3870011,"name":"Temuco","local":"Темуко","country":"CL","lat":-38.736,"lon":-72.597,"pop":238129,"tz":"America/Santiago"},{"id":1219649,"name":"Turkmenabat","local":"Туркменабад","country":"TM","lat":39.073,"lon":63.579,"pop":234817,"tz":"Asia/Ashgabat"},{"id":1684269,"name":"Magugpo Poblacion","local":"Тагум","country":"PH","lat":7.447,"lon":125.805,"pop":233254,"tz":"Asia/Manila"},{"id":266826,"name":"Tripoli","local":"Триполи","country":"LB","lat":34.434,"lon":35.844,"pop":229398,"tz":"Asia/Beirut"},{"id":1624863,"name":"Tanjung Pinang","local":"Танджунгпинанг","country":"ID","lat":0.917,"lon":104.458,"pop":227663,"tz":"Asia/Jakarta"},{"id":1517945,"name":"Turkestan","local":"Туркестан","country":"KZ","lat":43.295,"lon":68.257,"pop":227098,"tz":"Asia/Almaty"},{"id":1851012,"name":"Takarazuka","local":"Такарадзука","country":"JP","lat":34.799,"lon":135.357,"pop":226432,"tz":"Asia/Tokyo"},{"id":691650,"name":"Ternopil","local":"Тернополь","country":"UA","lat":49.554,"lon":25.591,"pop":225238,"tz":"Europe/Kyiv"},{"id":1795196,"name":"Tongchuanshi","local":"Тунчуань","country":"CN","lat":35.075,"lon":109.085,"pop":223603,"tz":"Asia/Shanghai"},{"id":5812944,"name":"Tacoma","local":"Такома","country":"US","lat":47.253,"lon":-122.444,"pop":222906,"tz":"America/Los_Angeles"},{"id":2746301,"name":"Tilburg","local":"Тилбург","country":"NL","lat":51.556,"lon":5.091,"pop":221947,"tz":"Europe/Amsterdam"},{"id":3666645,"name":"Tulua","local":"Тулуа","country":"CO","lat":4.085,"lon":-76.195,"pop":221684,"tz":"America/Bogota"},{"id":3108286,"name":"Terrassa","local":"Террасса","country":"ES","lat":41.567,"lon":2.017,"pop":218535,"tz":"Europe/Madrid"},{"id":1734586,"name":"Taiping","local":"Тайпин","country":"MY","lat":4.85,"lon":100.733,"pop":217647,"tz":"Asia/Kuala_Lumpur"},{"id":3133880,"name":"Trondheim","local":"Тронхейм","country":"NO","lat":63.43,"lon":10.395,"pop":216518,"tz":"Europe/Oslo"},{"id":1567069,"name":"Tan An","local":"Тан","country":"VN","lat":10.536,"lon":106.414,"pop":215250,"tz":"Asia/Ho_Chi_Minh"},{"id":665004,"name":"Targu Mures","local":"Тыргу-Муреш","country":"RO","lat":46.542,"lon":24.557,"pop":212752,"tz":"Europe/Bucharest"},{"id":1681602,"name":"Toledo","local":"Толедо","country":"PH","lat":10.377,"lon":123.639,"pop":206692,"tz":"Asia/Manila"},{"id":633679,"name":"Turku","local":"Турку","country":"FI","lat":60.451,"lon":22.269,"pop":206655,"tz":"Europe/Helsinki"},{"id":1624041,"name":"Ternate","local":"Тернате","country":"ID","lat":0.791,"lon":127.384,"pop":204920,"tz":"Asia/Jayapura"},{"id":3165185,"name":"Trieste","local":"Триест","country":"IT","lat":45.65,"lon":13.777,"pop":204338,"tz":"Europe/Rome"},{"id":4174715,"name":"Tallahassee","local":"Таллахасси","country":"US","lat":30.438,"lon":-84.281,"pop":201731,"tz":"America/New_York"},{"id":2146142,"name":"Townsville","local":"Таунсвилл","country":"AU","lat":-19.266,"lon":146.806,"pop":201313,"tz":"Australia/Brisbane"},{"id":3165926,"name":"Taranto","local":"Таранто","country":"IT","lat":40.464,"lon":17.247,"pop":198585,"tz":"Europe/Rome"},{"id":3870294,"name":"Talca","local":"Талька","country":"CL","lat":-35.423,"lon":-71.65,"pop":197479,"tz":"America/Santiago"},{"id":3083271,"name":"Torun","local":"Торунь","country":"PL","lat":53.014,"lon":18.598,"pop":196935,"tz":"Europe/Warsaw"},{"id":2477461,"name":"Tebessa","local":"Тебесса","country":"DZ","lat":35.404,"lon":8.124,"pop":194461,"tz":"Africa/Algiers"},{"id":1849892,"name":"Tottori-shi","local":"Тоттори","country":"JP","lat":35.5,"lon":134.233,"pop":188465,"tz":"Asia/Tokyo"},{"id":1849845,"name":"Toyokawa","local":"Тоёкава","country":"JP","lat":34.817,"lon":137.4,"pop":184661,"tz":"Asia/Tokyo"},{"id":1215957,"name":"Tirmiz","local":"Термез","country":"UZ","lat":37.224,"lon":67.278,"pop":182800,"tz":"Asia/Samarkand"},{"id":2476897,"name":"Tiaret","local":"Тиарет","country":"DZ","lat":35.371,"lon":1.317,"pop":178915,"tz":"Africa/Algiers"},{"id":1055429,"name":"Toliara","local":"Тулиара","country":"MG","lat":-23.35,"lon":43.667,"pop":178725,"tz":"Indian/Antananarivo"},{"id":584821,"name":"Tovuz","local":"Тауз","country":"AZ","lat":40.992,"lon":45.628,"pop":177200,"tz":"Asia/Baku"},{"id":3446606,"name":"Teresopolis","local":"Терезополис","country":"BR","lat":-22.417,"lon":-42.978,"pop":176692,"tz":"America/Sao_Paulo"},{"id":5317058,"name":"Tempe","local":"Темпе","country":"US","lat":33.415,"lon":-111.909,"pop":175826,"tz":"America/Phoenix"},{"id":2127733,"name":"Tomakomai","local":"Томакомай","country":"JP","lat":42.637,"lon":141.603,"pop":174806,"tz":"Asia/Tokyo"},{"id":3386361,"name":"Timon","local":"Тимон","country":"BR","lat":-5.094,"lon":-42.837,"pop":174465,"tz":"America/Fortaleza"},{"id":2475687,"name":"Tlemcen","local":"Тлемсен","country":"DZ","lat":34.878,"lon":-1.315,"pop":173531,"tz":"Africa/Algiers"},{"id":3666608,"name":"Tunja","local":"Тунха","country":"CO","lat":5.545,"lon":-73.358,"pop":172548,"tz":"America/Bogota"},{"id":1518262,"name":"Temirtau","local":"Темиртау","country":"KZ","lat":50.052,"lon":72.955,"pop":170600,"tz":"Asia/Almaty"},{"id":1851032,"name":"Takaoka","local":"Такаока","country":"JP","lat":36.75,"lon":137.017,"pop":170077,"tz":"Asia/Tokyo"},{"id":2972328,"name":"Toulon","local":"Тулон","country":"FR","lat":43.124,"lon":5.928,"pop":168701,"tz":"Europe/Paris"},{"id":1254241,"name":"Tonk","local":"Тонк","country":"IN","lat":26.166,"lon":75.788,"pop":165294,"tz":"Asia/Kolkata"},{"id":1792520,"name":"Tongzhou","local":"Тунчжоу","country":"CN","lat":39.904,"lon":116.662,"pop":163326,"tz":"Asia/Shanghai"},{"id":2529317,"name":"Taza","local":"Таза","country":"MA","lat":34.21,"lon":-4.01,"pop":162110,"tz":"Africa/Casablanca"},{"id":1293960,"name":"Taunggyi","local":"Таунджи","country":"MM","lat":20.789,"lon":97.038,"pop":160115,"tz":"Asia/Yangon"},{"id":2439376,"name":"Tahoua","local":"Тахуа","country":"NE","lat":14.889,"lon":5.269,"pop":159468,"tz":"Africa/Niamey"},{"id":3903320,"name":"Tarija","local":"Тариха","country":"BO","lat":-21.535,"lon":-64.73,"pop":159269,"tz":"America/La_Paz"},{"id":1850311,"name":"Tochigi","local":"Тотиги","country":"JP","lat":36.383,"lon":139.733,"pop":159056,"tz":"Asia/Tokyo"},{"id":617239,"name":"Tiraspol","local":"Тирасполь","country":"MD","lat":46.843,"lon":29.628,"pop":157000,"tz":"Europe/Chisinau"},{"id":1563281,"name":"Tuy Hoa","local":"Туихоа","country":"VN","lat":13.095,"lon":109.321,"pop":155921,"tz":"Asia/Ho_Chi_Minh"},{"id":2294700,"name":"Tema","local":"Тема","country":"GH","lat":5.67,"lon":-0.017,"pop":155782,"tz":"Africa/Accra"},{"id":3345439,"name":"Telford","local":"Телфорд","country":"GB","lat":52.677,"lon":-2.449,"pop":155570,"tz":"Europe/London"},{"id":2208032,"name":"Tauranga","local":"Тауранга","country":"NZ","lat":-37.686,"lon":176.167,"pop":155200,"tz":"Pacific/Auckland"},{"id":3870282,"name":"Talcahuano","local":"Талькауано","country":"CL","lat":-36.725,"lon":-73.117,"pop":150499,"tz":"America/Santiago"},{"id":1163198,"name":"Tordher","local":"Тордхер","country":"PK","lat":33.99,"lon":72.286,"pop":150000,"tz":"Asia/Karachi"},{"id":2244991,"name":"Tambacounda","local":"Тамбакунда","country":"SN","lat":13.771,"lon":-13.667,"pop":149071,"tz":"Africa/Dakar"},{"id":6822129,"name":"Tama","local":"Тама","country":"JP","lat":35.644,"lon":139.468,"pop":148285,"tz":"Asia/Tokyo"},{"id":1793700,"name":"Taishan","local":"Тайшань","country":"CN","lat":22.251,"lon":112.78,"pop":145440,"tz":"Asia/Shanghai"},{"id":1254327,"name":"Tiruvannamalai","local":"Тируваннамалай","country":"IN","lat":12.227,"lon":79.075,"pop":145278,"tz":"Asia/Kolkata"},{"id":6169141,"name":"Trois-Rivieres","local":"Труа-Ривьер","country":"CA","lat":46.345,"lon":-72.548,"pop":144472,"tz":"America/Toronto"},{"id":2294665,"name":"Teshi Old Town","local":"Тещи","country":"GH","lat":5.584,"lon":-0.107,"pop":144013,"tz":"Africa/Accra"},{"id":5403022,"name":"Torrance","local":"Торранс","country":"US","lat":33.836,"lon":-118.341,"pop":143592,"tz":"America/Los_Angeles"},{"id":2475475,"name":"Touggourt","local":"Туггурт","country":"DZ","lat":33.111,"lon":6.07,"pop":143270,"tz":"Africa/Algiers"},{"id":3188582,"name":"Tuzla","local":"Тузла","country":"BA","lat":44.538,"lon":18.667,"pop":142486,"tz":"Europe/Sarajevo"},{"id":3446038,"name":"Trindade","local":"Триндади","country":"BR","lat":-16.649,"lon":-49.489,"pop":142431,"tz":"America/Sao_Paulo"},{"id":2146268,"name":"Toowoomba","local":"Тувумба","country":"AU","lat":-27.561,"lon":151.954,"pop":142163,"tz":"Australia/Brisbane"},{"id":2972191,"name":"Tours","local":"Тур","country":"FR","lat":47.395,"lon":0.704,"pop":141621,"tz":"Europe/Paris"},{"id":3108288,"name":"Tarragona","local":"Таррагона","country":"ES","lat":41.119,"lon":1.245,"pop":141542,"tz":"Europe/Madrid"},{"id":81302,"name":"Tobruk","local":"Тобрук","country":"LY","lat":32.09,"lon":23.954,"pop":141499,"tz":"Africa/Tripoli"},{"id":1907301,"name":"Shimotoda","local":"Тода","country":"JP","lat":35.815,"lon":139.685,"pop":140899,"tz":"Asia/Tokyo"},{"id":1293625,"name":"Dawei","local":"Тавой","country":"MM","lat":14.082,"lon":98.192,"pop":136783,"tz":"Asia/Yangon"},{"id":1566559,"name":"Tay Ninh","local":"Тэйнинь","country":"VN","lat":11.31,"lon":106.098,"pop":135254,"tz":"Asia/Ho_Chi_Minh"},{"id":267008,"name":"Tyre","local":"Тир","country":"LB","lat":33.273,"lon":35.194,"pop":135204,"tz":"Asia/Beirut"},{"id":347634,"name":"Tahta","local":"Тахта","country":"EG","lat":26.769,"lon":31.502,"pop":134314,"tz":"Africa/Cairo"},{"id":5441492,"name":"Thornton","local":"Торнтон","country":"US","lat":39.868,"lon":-104.972,"pop":133451,"tz":"America/Denver"},{"id":2635608,"name":"Tottenham","local":"Тоттенем","country":"GB","lat":51.604,"lon":-0.068,"pop":130000,"tz":"Europe/London"},{"id":3082914,"name":"Tychy","local":"Тыхы","country":"PL","lat":50.137,"lon":18.966,"pop":130000,"tz":"Europe/Warsaw"},{"id":738743,"name":"Tokat","local":"Токат","country":"TR","lat":40.314,"lon":36.554,"pop":129702,"tz":"Europe/Istanbul"},{"id":5402405,"name":"Thousand Oaks","local":"Таузенд-Оукс","country":"US","lat":34.171,"lon":-118.838,"pop":129339,"tz":"America/Los_Angeles"},{"id":4280539,"name":"Topeka","local":"Топика","country":"US","lat":39.048,"lon":-95.678,"pop":125963,"tz":"America/Chicago"},{"id":483551,"name":"Tyoply Stan","local":"Тёплый Стан","country":"RU","lat":55.62,"lon":37.493,"pop":125000,"tz":"Europe/Moscow"},{"id":757065,"name":"Targowek","local":"Таргувек","country":"PL","lat":52.292,"lon":21.048,"pop":124279,"tz":"Europe/Warsaw"},{"id":2510542,"name":"Telde","local":"Тельде","country":"ES","lat":27.992,"lon":-15.419,"pop":123265,"tz":"Atlantic/Canary"},{"id":3446692,"name":"Tatui","local":"Татуи","country":"BR","lat":-23.356,"lon":-47.857,"pop":122967,"tz":"America/Sao_Paulo"},{"id":738927,"name":"Tekirdag","local":"Текирдаг","country":"TR","lat":40.978,"lon":27.511,"pop":122287,"tz":"Europe/Istanbul"},{"id":3165243,"name":"Trento","local":"Тренто","country":"IT","lat":46.068,"lon":11.121,"pop":120709,"tz":"Europe/Rome"},{"id":3446370,"name":"Toledo","local":"Толедо","country":"BR","lat":-24.714,"lon":-53.743,"pop":119313,"tz":"America/Sao_Paulo"},{"id":3107784,"name":"Torrejon de Ardoz","local":"Торрехон-де-Ардос","country":"ES","lat":40.455,"lon":-3.47,"pop":118162,"tz":"Europe/Madrid"},{"id":481453,"name":"Troparevo","local":"Тропарёво","country":"RU","lat":55.656,"lon":37.485,"pop":118000,"tz":"Europe/Moscow"},{"id":757026,"name":"Tarnow","local":"Тарнув","country":"PL","lat":50.014,"lon":20.987,"pop":117799,"tz":"Europe/Warsaw"},{"id":1518542,"name":"Taldykorgan","local":"Талдыкорган","country":"KZ","lat":45.016,"lon":78.374,"pop":116558,"tz":"Asia/Almaty"},{"id":484912,"name":"Taganskiy","local":"Таганский","country":"RU","lat":55.733,"lon":37.667,"pop":116000,"tz":"Europe/Moscow"},{"id":3427833,"name":"Tandil","local":"Тандиль","country":"AR","lat":-37.329,"lon":-59.137,"pop":115877,"tz":"America/Argentina/Buenos_Aires"},{"id":1489530,"name":"Tobolsk","local":"Тобольск","country":"RU","lat":58.198,"lon":68.255,"pop":113800,"tz":"Asia/Yekaterinburg"},{"id":2034497,"name":"Taonan","local":"Таонань","country":"CN","lat":45.333,"lon":122.785,"pop":112819,"tz":"Asia/Shanghai"},{"id":6163012,"name":"Terrebonne","local":"Тербон","country":"CA","lat":45.7,"lon":-73.647,"pop":111575,"tz":"America/Toronto"},{"id":4094455,"name":"Tuscaloosa","local":"Таскалуса","country":"US","lat":33.21,"lon":-87.569,"pop":111338,"tz":"America/Chicago"},{"id":3165771,"name":"Terni","local":"Терни","country":"IT","lat":42.563,"lon":12.643,"pop":111189,"tz":"Europe/Rome"},{"id":738618,"name":"Turhal","local":"Турхал","country":"TR","lat":40.388,"lon":36.081,"pop":110884,"tz":"Europe/Istanbul"},{"id":618577,"name":"Bender","local":"Тигина","country":"MD","lat":46.832,"lon":29.477,"pop":110175,"tz":"Europe/Chisinau"},{"id":3445993,"name":"Tubarao","local":"Тубаран","country":"BR","lat":-28.467,"lon":-49.007,"pop":110088,"tz":"America/Sao_Paulo"},{"id":5401395,"name":"Temecula","local":"Темекула","country":"US","lat":33.494,"lon":-117.148,"pop":110003,"tz":"America/Los_Angeles"},{"id":1683877,"name":"Talisay","local":"Талисей","country":"PH","lat":10.738,"lon":122.967,"pop":109204,"tz":"Asia/Manila"},{"id":6166142,"name":"Thunder Bay","local":"Тандер-Бей","country":"CA","lat":48.382,"lon":-89.25,"pop":108843,"tz":"America/Toronto"},{"id":1226260,"name":"Trincomalee","local":"Тринкомали","country":"LK","lat":8.578,"lon":81.229,"pop":108420,"tz":"Asia/Colombo"},{"id":1851193,"name":"Tajimi","local":"Тадзими","country":"JP","lat":35.317,"lon":137.133,"pop":107818,"tz":"Asia/Tokyo"},{"id":949224,"name":"Thohoyandou","local":"Тхохояндоу","country":"ZA","lat":-22.946,"lon":30.485,"pop":107144,"tz":"Africa/Johannesburg"},{"id":1290596,"name":"Taungoo","local":"Таунгу","country":"MM","lat":18.943,"lon":96.434,"pop":106945,"tz":"Asia/Yangon"},{"id":1793036,"name":"Chengtangcun","local":"Тэнчжоу","country":"CN","lat":35.084,"lon":117.191,"pop":105456,"tz":"Asia/Shanghai"},{"id":2110729,"name":"Toride","local":"Ториде","country":"JP","lat":35.9,"lon":140.083,"pop":104524,"tz":"Asia/Tokyo"},{"id":2475744,"name":"Tizi Ouzou","local":"Тизи-Узу","country":"DZ","lat":36.712,"lon":4.046,"pop":104312,"tz":"Africa/Algiers"},{"id":3588258,"name":"Totonicapan","local":"Тотоникапан","country":"GT","lat":14.912,"lon":-91.361,"pop":103952,"tz":"America/Guatemala"},{"id":4738214,"name":"Tyler","local":"Тайлер","country":"US","lat":32.351,"lon":-95.301,"pop":103700,"tz":"America/Chicago"},{"id":3446621,"name":"Teofilo Otoni","local":"Теофилу-Отони","country":"BR","lat":-17.858,"lon":-41.505,"pop":101170,"tz":"America/Sao_Paulo"},{"id":6822097,"name":"Chikusei","local":"Тикусей","country":"JP","lat":36.316,"lon":139.982,"pop":100753,"tz":"Asia/Tokyo"},{"id":2821164,"name":"Trier","local":"Трир","country":"DE","lat":49.756,"lon":6.639,"pop":100129,"tz":"Europe/Berlin"},{"id":483826,"name":"Tekstil'shchiki","local":"Текстильщики","country":"RU","lat":55.7,"lon":37.743,"pop":100000,"tz":"Europe/Moscow"},{"id":3625929,"name":"Tucupita","local":"Тукупита","country":"VE","lat":9.063,"lon":-62.052,"pop":99778,"tz":"America/Caracas"},{"id":2972284,"name":"Tourcoing","local":"Туркуэн","country":"FR","lat":50.724,"lon":3.161,"pop":99160,"tz":"Europe/Paris"},{"id":3691582,"name":"Talara","local":"Талара","country":"PE","lat":-4.577,"lon":-81.272,"pop":99074,"tz":"America/Lima"},{"id":1252416,"name":"Thimphu","local":"Тхимпху","country":"BT","lat":27.466,"lon":89.642,"pop":98676,"tz":"Asia/Thimphu"},{"id":2130452,"name":"Chitose","local":"Титосе","country":"JP","lat":42.819,"lon":141.652,"pop":97950,"tz":"Asia/Tokyo"},{"id":3516035,"name":"Temixco","local":"Темиско","country":"MX","lat":18.853,"lon":-99.225,"pop":97788,"tz":"America/Mexico_City"},{"id":1254780,"name":"Tellicherry","local":"Талассери","country":"IN","lat":11.748,"lon":75.493,"pop":97201,"tz":"Asia/Kolkata"},{"id":3691148,"name":"Tumbes","local":"Тумбес","country":"PE","lat":-3.556,"lon":-80.443,"pop":96946,"tz":"America/Lima"},{"id":1254385,"name":"Tiruchengode","local":"Тирученгоде","country":"IN","lat":11.38,"lon":77.894,"pop":95335,"tz":"Asia/Kolkata"},{"id":1668467,"name":"Daxi","local":"Та-Си-чен","country":"TW","lat":24.884,"lon":121.29,"pop":94222,"tz":"Asia/Taipei"},{"id":601594,"name":"Tuerkmenbasy","local":"Туркменбашы","country":"TM","lat":40.022,"lon":52.955,"pop":91745,"tz":"Asia/Ashgabat"},{"id":588335,"name":"Tartu","local":"Тарту","country":"EE","lat":58.381,"lon":26.725,"pop":91407,"tz":"Europe/Tallinn"},{"id":3385935,"name":"Tucurui","local":"Тукурви","country":"BR","lat":-3.766,"lon":-49.679,"pop":91306,"tz":"America/Belem"},{"id":13580129,"name":"Tatarka","local":"Татарка","country":"UA","lat":50.469,"lon":30.486,"pop":90000,"tz":"Europe/Kyiv"},{"id":5105496,"name":"Trenton","local":"Трентон","country":"US","lat":40.217,"lon":-74.743,"pop":89620,"tz":"America/New_York"},{"id":2145936,"name":"Tuggeranong Administrative District","local":"Таггеранонг","country":"AU","lat":-35.416,"lon":149.07,"pop":89461,"tz":"Australia/Sydney"},{"id":2510693,"name":"Talavera de la Reina","local":"Талавера де ла Рейна","country":"ES","lat":39.963,"lon":-4.831,"pop":88856,"tz":"Europe/Madrid"},{"id":4504476,"name":"Toms River","local":"Томс Ривер","country":"US","lat":39.954,"lon":-74.198,"pop":88791,"tz":"America/New_York"},{"id":1850892,"name":"Takayama","local":"Такаяма","country":"JP","lat":36.133,"lon":137.25,"pop":88473,"tz":"Asia/Tokyo"},{"id":1684553,"name":"Tagaytay","local":"Тагайтай","country":"PH","lat":14.095,"lon":120.934,"pop":87811,"tz":"Asia/Manila"},{"id":2529649,"name":"Taroudant","local":"Тарудант","country":"MA","lat":30.47,"lon":-8.877,"pop":87520,"tz":"Africa/Casablanca"},{"id":5403191,"name":"Tracy","local":"Трейси","country":"US","lat":37.74,"lon":-121.426,"pop":87075,"tz":"America/Los_Angeles"},{"id":3666640,"name":"Tumaco","local":"Тумако","country":"CO","lat":1.791,"lon":-78.793,"pop":86713,"tz":"America/Bogota"},{"id":2510409,"name":"Toledo","local":"Толедо","country":"ES","lat":39.858,"lon":-4.023,"pop":86526,"tz":"Europe/Madrid"},{"id":3650472,"name":"Tulcan","local":"Тулькан","country":"EC","lat":0.812,"lon":-77.717,"pop":86498,"tz":"America/Guayaquil"},{"id":1684497,"name":"Tagbilaran City","local":"Тагбиларан","country":"PH","lat":9.656,"lon":123.852,"pop":86411,"tz":"Asia/Manila"},{"id":3165201,"name":"Treviso","local":"Тревизо","country":"IT","lat":45.667,"lon":12.242,"pop":85760,"tz":"Europe/Rome"},{"id":3982213,"name":"Tecoman","local":"Текомане","country":"MX","lat":18.916,"lon":-103.877,"pop":85689,"tz":"America/Mexico_City"},{"id":3165456,"name":"Torre del Greco","local":"Торре-дель-Греко","country":"IT","lat":40.789,"lon":14.368,"pop":85332,"tz":"Europe/Rome"},{"id":3815415,"name":"Tlaxcala","local":"Тласкала","country":"MX","lat":19.318,"lon":-98.238,"pop":84670,"tz":"America/Mexico_City"},{"id":6822211,"name":"Chita","local":"Тита","country":"JP","lat":35.003,"lon":136.864,"pop":84364,"tz":"Asia/Tokyo"},{"id":3902377,"name":"Trinidad","local":"Тринидад","country":"BO","lat":-14.832,"lon":-64.903,"pop":84259,"tz":"America/La_Paz"},{"id":2449067,"name":"Timbuktu","local":"Томбукту","country":"ML","lat":16.773,"lon":-3.007,"pop":84208,"tz":"Africa/Bamako"},{"id":2820860,"name":"Tuebingen","local":"Тюбинген","country":"DE","lat":48.523,"lon":9.052,"pop":83416,"tz":"Europe/Berlin"},{"id":5012639,"name":"Troy","local":"Троя","country":"US","lat":42.606,"lon":-83.15,"pop":83280,"tz":"America/Detroit"},{"id":2510253,"name":"Torrevieja","local":"Торревьеха","country":"ES","lat":37.979,"lon":-0.682,"pop":82599,"tz":"Europe/Madrid"},{"id":1489246,"name":"Troitsk","local":"Троицк","country":"RU","lat":54.092,"lon":61.568,"pop":82338,"tz":"Asia/Yekaterinburg"},{"id":3446065,"name":"Tres Rios","local":"Трес-Риус","country":"BR","lat":-22.117,"lon":-43.209,"pop":82300,"tz":"America/Sao_Paulo"},{"id":2636276,"name":"Tamworth","local":"Тамворт","country":"GB","lat":52.634,"lon":-1.696,"pop":81964,"tz":"Europe/London"},{"id":2478216,"name":"Tamanghasset","local":"Таманрассете","country":"DZ","lat":22.785,"lon":5.523,"pop":81752,"tz":"Africa/Algiers"},{"id":3446445,"name":"Timoteo","local":"Тимофей","country":"BR","lat":-19.581,"lon":-42.65,"pop":81579,"tz":"America/Sao_Paulo"},{"id":2527089,"name":"Tiznit","local":"Тизнит","country":"MA","lat":29.697,"lon":-9.732,"pop":81569,"tz":"Africa/Casablanca"},{"id":1850559,"name":"Tatebayashi","local":"Татебаяси","country":"JP","lat":36.25,"lon":139.533,"pop":81274,"tz":"Asia/Tokyo"},{"id":5404119,"name":"Tustin","local":"Тастин","country":"US","lat":33.746,"lon":-117.826,"pop":80583,"tz":"America/Los_Angeles"},{"id":2961284,"name":"Tallaght","local":"Талла","country":"IE","lat":53.286,"lon":-6.373,"pop":80339,"tz":"Europe/Dublin"},{"id":2530241,"name":"Tan-Tan","local":"Тан-Тан","country":"MA","lat":28.438,"lon":-11.103,"pop":79942,"tz":"Africa/Casablanca"},{"id":2034340,"name":"Tumen","local":"Тюменский","country":"CN","lat":42.966,"lon":129.842,"pop":78719,"tz":"Asia/Shanghai"},{"id":3446098,"name":"Tres Lagoas","local":"Трес-Лагоас","country":"BR","lat":-20.788,"lon":-51.703,"pop":78712,"tz":"America/Campo_Grande"},{"id":4175538,"name":"Town 'n' Country","local":"Таун-н-Кантри","country":"US","lat":28.011,"lon":-82.577,"pop":78442,"tz":"America/New_York"},{"id":1849831,"name":"Toyooka","local":"Тоёока","country":"JP","lat":35.54,"lon":134.82,"pop":78348,"tz":"Asia/Tokyo"},{"id":7026994,"name":"Thawi Watthana","local":"Тави Ваттана","country":"TH","lat":13.783,"lon":100.378,"pop":76351,"tz":"Asia/Bangkok"},{"id":1623180,"name":"Tuban","local":"Тубан","country":"ID","lat":-6.898,"lon":112.065,"pop":76242,"tz":"Asia/Jakarta"},{"id":1163054,"name":"Turbat","local":"Турбат","country":"PK","lat":26.001,"lon":63.048,"pop":75694,"tz":"Asia/Karachi"},{"id":1254710,"name":"Tezpur","local":"Тезпур","country":"IN","lat":26.633,"lon":92.8,"pop":75540,"tz":"Asia/Kolkata"},{"id":3446138,"name":"Tres Coracoes","local":"Трес-Корасойнс","country":"BR","lat":-21.697,"lon":-45.253,"pop":75485,"tz":"America/Sao_Paulo"},{"id":4568451,"name":"Trujillo Alto","local":"Трухиљо Алто","country":"PR","lat":18.355,"lon":-66.007,"pop":75243,"tz":"America/Puerto_Rico"},{"id":3446652,"name":"Telemaco Borba","local":"Телемаку-Борба","country":"BR","lat":-24.324,"lon":-50.616,"pop":75042,"tz":"America/Sao_Paulo"},{"id":13561228,"name":"Tekstylnyk","local":"Текстильник","country":"UA","lat":47.946,"lon":37.698,"pop":75000,"tz":"Europe/Kyiv"},{"id":1163224,"name":"Topi","local":"Топи","country":"PK","lat":34.07,"lon":72.621,"pop":74867,"tz":"Asia/Karachi"},{"id":2821029,"name":"Troisdorf","local":"Тройсдорф","country":"DE","lat":50.809,"lon":7.15,"pop":74749,"tz":"Europe/Berlin"},{"id":1849904,"name":"Tosu","local":"Тосу","country":"JP","lat":33.367,"lon":130.517,"pop":74196,"tz":"Asia/Tokyo"},{"id":665010,"name":"Targu Jiu","local":"Тыргу-Жиу","country":"RO","lat":45.05,"lon":23.283,"pop":73545,"tz":"Europe/Bucharest"},{"id":299582,"name":"Tatvan","local":"Татван","country":"TR","lat":38.492,"lon":42.283,"pop":73222,"tz":"Europe/Istanbul"},{"id":347612,"name":"Tala","local":"Тале","country":"EG","lat":30.68,"lon":30.944,"pop":72536,"tz":"Africa/Cairo"},{"id":5404024,"name":"Turlock","local":"Терлок","country":"US","lat":37.495,"lon":-120.847,"pop":72292,"tz":"America/Los_Angeles"},{"id":4735966,"name":"Temple","local":"Темпл","country":"US","lat":31.098,"lon":-97.343,"pop":72277,"tz":"America/Chicago"},{"id":1864549,"name":"Chiryu","local":"Тирю","country":"JP","lat":35.0,"lon":137.033,"pop":72193,"tz":"Asia/Tokyo"},{"id":1527199,"name":"Tokmok","local":"Токмак","country":"KG","lat":42.842,"lon":75.301,"pop":71443,"tz":"Asia/Bishkek"},{"id":1185092,"name":"Thakurgaon","local":"Тхакургаон","country":"BD","lat":26.031,"lon":88.47,"pop":71096,"tz":"Asia/Dhaka"},{"id":1850396,"name":"Tenri","local":"Тэнри","country":"JP","lat":34.583,"lon":135.833,"pop":71052,"tz":"Asia/Tokyo"},{"id":1850708,"name":"Tanabe","local":"Танабэ","country":"JP","lat":33.733,"lon":135.367,"pop":70972,"tz":"Asia/Tokyo"},{"id":2785341,"name":"Tournai","local":"Турне","country":"BE","lat":50.607,"lon":3.389,"pop":69554,"tz":"Europe/Brussels"},{"id":480089,"name":"Tuymazy","local":"Туймазы","country":"RU","lat":54.606,"lon":53.712,"pop":68829,"tz":"Asia/Yekaterinburg"},{"id":1850742,"name":"Tamano","local":"Тамано","country":"JP","lat":34.517,"lon":133.946,"pop":67786,"tz":"Asia/Tokyo"},{"id":2522876,"name":"Trapani","local":"Трапани","country":"IT","lat":38.018,"lon":12.536,"pop":67531,"tz":"Europe/Rome"},{"id":1218239,"name":"Tejen","local":"Теджен","country":"TM","lat":37.383,"lon":60.505,"pop":67488,"tz":"Asia/Ashgabat"},{"id":756867,"name":"Tomaszow Mazowiecki","local":"Томашув-Мазовецкий","country":"PL","lat":51.531,"lon":20.009,"pop":67197,"tz":"Europe/Warsaw"},{"id":665024,"name":"Targoviste","local":"Търговище","country":"RO","lat":44.925,"lon":25.457,"pop":66965,"tz":"Europe/Bucharest"},{"id":2464701,"name":"Tataouine","local":"Татавин","country":"TN","lat":32.93,"lon":10.452,"pop":66924,"tz":"Africa/Tunis"},{"id":1150007,"name":"Trang","local":"Транг","country":"TH","lat":7.556,"lon":99.611,"pop":66713,"tz":"Asia/Bangkok"},{"id":2110774,"name":"Togane","local":"Тогане","country":"JP","lat":35.55,"lon":140.367,"pop":66332,"tz":"Asia/Tokyo"},{"id":3044082,"name":"Tatabanya","local":"Татабанья","country":"HU","lat":47.592,"lon":18.381,"pop":65849,"tz":"Europe/Budapest"},{"id":664518,"name":"Tulcea","local":"Тулча","country":"RO","lat":45.179,"lon":28.805,"pop":65624,"tz":"Europe/Bucharest"},{"id":2510281,"name":"Torremolinos","local":"Торремолинос","country":"ES","lat":36.62,"lon":-4.5,"pop":65448,"tz":"Europe/Madrid"},{"id":2110793,"name":"Tendo","local":"Тендо","country":"JP","lat":38.354,"lon":140.37,"pop":65393,"tz":"Asia/Tokyo"},{"id":2635650,"name":"Torquay","local":"Торки","country":"GB","lat":50.462,"lon":-3.525,"pop":65388,"tz":"Europe/London"},{"id":1136575,"name":"Khulm","local":"Ташкурган","country":"AF","lat":36.697,"lon":67.698,"pop":64933,"tz":"Asia/Kabul"},{"id":3982266,"name":"Tecate","local":"Текате","country":"MX","lat":32.566,"lon":-116.632,"pop":64764,"tz":"America/Tijuana"},{"id":4174738,"name":"Tamarac","local":"Тамарак","country":"US","lat":26.213,"lon":-80.25,"pop":64681,"tz":"America/New_York"},{"id":2636177,"name":"Taunton","local":"Тонтон","country":"GB","lat":51.015,"lon":-3.103,"pop":64621,"tz":"Europe/London"},{"id":1684016,"name":"Talavera","local":"Талавера","country":"PH","lat":15.588,"lon":120.919,"pop":64610,"tz":"Asia/Manila"},{"id":483029,"name":"Tikhoretsk","local":"Тихорецк","country":"RU","lat":45.853,"lon":40.119,"pop":64387,"tz":"Europe/Moscow"},{"id":1850745,"name":"Tamana","local":"Тамана","country":"JP","lat":32.947,"lon":130.574,"pop":64292,"tz":"Asia/Tokyo"},{"id":1123004,"name":"Taloqan","local":"Таликан","country":"AF","lat":36.736,"lon":69.535,"pop":64256,"tz":"Asia/Kabul"},{"id":480716,"name":"Tuapse","local":"Туапсе","country":"RU","lat":44.101,"lon":39.083,"pop":64234,"tz":"Europe/Moscow"},{"id":3445942,"name":"Tupa","local":"Тупа","country":"BR","lat":-21.935,"lon":-50.514,"pop":63928,"tz":"America/Sao_Paulo"},{"id":785082,"name":"Tetovo","local":"Тетово","country":"MK","lat":42.01,"lon":20.971,"pop":63176,"tz":"Europe/Skopje"},{"id":3057124,"name":"Trnava","local":"Трнава","country":"SK","lat":48.378,"lon":17.586,"pop":62806,"tz":"Europe/Bratislava"},{"id":3345283,"name":"Tonypandy","local":"Тонипанди","country":"GB","lat":51.622,"lon":-3.455,"pop":62545,"tz":"Europe/London"},{"id":5403783,"name":"Tulare","local":"Тулар","country":"US","lat":36.208,"lon":-119.347,"pop":62315,"tz":"America/Los_Angeles"},{"id":483019,"name":"Tikhvin","local":"Тихвин","country":"RU","lat":59.639,"lon":33.53,"pop":62075,"tz":"Europe/Moscow"},{"id":2354675,"name":"Tenkodogo","local":"Тенкодого","country":"BF","lat":11.784,"lon":-0.372,"pop":61936,"tz":"Africa/Ouagadougou"},{"id":2823538,"name":"Tempelhof","local":"Темпельхоф","country":"DE","lat":52.467,"lon":13.4,"pop":61769,"tz":"Europe/Berlin"},{"id":252664,"name":"Trikala","local":"Трикала","country":"GR","lat":39.555,"lon":21.768,"pop":61653,"tz":"Europe/Athens"},{"id":5011908,"name":"Taylor","local":"Тейлор","country":"US","lat":42.241,"lon":-83.27,"pop":61568,"tz":"America/Detroit"},{"id":1864637,"name":"Chichibu","local":"Титибу","country":"JP","lat":35.99,"lon":139.076,"pop":61159,"tz":"Asia/Tokyo"},{"id":3083440,"name":"Tarnowskie Gory","local":"Тарновске-Гуры","country":"PL","lat":50.445,"lon":18.861,"pop":60938,"tz":"Europe/Warsaw"},{"id":4265737,"name":"Terre Haute","local":"Терре-Хот","country":"US","lat":39.467,"lon":-87.414,"pop":60825,"tz":"America/Indiana/Indianapolis"},{"id":3834601,"name":"Tartagal","local":"Тартагал","country":"AR","lat":-22.517,"lon":-63.806,"pop":60819,"tz":"America/Argentina/Salta"},{"id":2971549,"name":"Troyes","local":"Труа","country":"FR","lat":48.301,"lon":4.085,"pop":60785,"tz":"Europe/Paris"},{"id":6822207,"name":"Towada","local":"Товада","country":"JP","lat":40.62,"lon":141.211,"pop":60697,"tz":"Asia/Tokyo"},{"id":5782476,"name":"Taylorsville","local":"Тейлорсвилл","country":"US","lat":40.668,"lon":-111.939,"pop":60514,"tz":"America/Denver"},{"id":3534915,"name":"Trinidad","local":"Тринидад","country":"CU","lat":21.802,"lon":-79.985,"pop":60206,"tz":"America/Havana"},{"id":1851259,"name":"Tahara","local":"Тахара","country":"JP","lat":34.668,"lon":137.267,"pop":60206,"tz":"Asia/Tokyo"},{"id":3083426,"name":"Tczew","local":"Тчев","country":"PL","lat":54.092,"lon":18.778,"pop":60133,"tz":"Europe/Warsaw"},{"id":6822112,"name":"Chikuma","local":"Тикума","country":"JP","lat":36.527,"lon":138.089,"pop":59381,"tz":"Asia/Tokyo"},{"id":1490256,"name":"Talnakh","local":"Талнах","country":"RU","lat":69.487,"lon":88.397,"pop":59051,"tz":"Asia/Krasnoyarsk"},{"id":1254589,"name":"Thiruvarur","local":"Тируварур","country":"IN","lat":10.773,"lon":79.637,"pop":58777,"tz":"Asia/Kolkata"},{"id":1850185,"name":"Tokoname","local":"Токонамэ","country":"JP","lat":34.883,"lon":136.85,"pop":58710,"tz":"Asia/Tokyo"},{"id":1850207,"name":"Toki","local":"Тока","country":"JP","lat":35.35,"lon":137.183,"pop":58567,"tz":"Asia/Tokyo"},{"id":3057140,"name":"Trencin","local":"Тренчин","country":"SK","lat":48.895,"lon":18.044,"pop":58278,"tz":"Europe/Bratislava"},{"id":4913723,"name":"Tinley Park","local":"Тинли Парк","country":"US","lat":41.573,"lon":-87.784,"pop":57143,"tz":"America/Chicago"},{"id":4952629,"name":"Taunton","local":"Тонтон","country":"US","lat":41.9,"lon":-71.09,"pop":56789,"tz":"America/New_York"},{"id":1864557,"name":"Chino","local":"Тино","country":"JP","lat":35.994,"lon":138.154,"pop":56400,"tz":"Asia/Tokyo"},{"id":1254331,"name":"Tiruvallur","local":"Тируваллур","country":"IN","lat":13.144,"lon":79.909,"pop":56074,"tz":"Asia/Kolkata"},{"id":3134331,"name":"Tonsberg","local":"Тёнсберг","country":"NO","lat":59.268,"lon":10.408,"pop":55387,"tz":"Europe/Oslo"},{"id":3107775,"name":"Torrelavega","local":"Торрелавега","country":"ES","lat":43.349,"lon":-4.048,"pop":55297,"tz":"Europe/Madrid"},{"id":4174744,"name":"Tamiami","local":"Тамайами","country":"US","lat":25.759,"lon":-80.398,"pop":55271,"tz":"America/New_York"},{"id":3446077,"name":"Tres Pontas","local":"Трес-Понтас","country":"BR","lat":-21.367,"lon":-45.513,"pop":55255,"tz":"America/Sao_Paulo"},{"id":4371582,"name":"Towson","local":"Таусон","country":"US","lat":39.401,"lon":-76.602,"pop":55197,"tz":"America/New_York"},{"id":3165803,"name":"Teramo","local":"Терамо","country":"IT","lat":42.661,"lon":13.699,"pop":54338,"tz":"Europe/Rome"},{"id":3165322,"name":"Trani","local":"Трани","country":"IT","lat":41.277,"lon":16.41,"pop":53981,"tz":"Europe/Rome"},{"id":482965,"name":"Timashyovsk","local":"Тимашёвск","country":"RU","lat":45.617,"lon":38.945,"pop":53940,"tz":"Europe/Moscow"},{"id":1850217,"name":"Tokamachi","local":"Токамати","country":"JP","lat":37.133,"lon":138.767,"pop":53333,"tz":"Asia/Tokyo"},{"id":3869657,"name":"Tome","local":"Томе","country":"CL","lat":-36.618,"lon":-72.956,"pop":53219,"tz":"America/Santiago"},{"id":347236,"name":"Tukh","local":"Тух","country":"EG","lat":30.355,"lon":31.201,"pop":52593,"tz":"Africa/Cairo"},{"id":2210221,"name":"Tarhuna","local":"Тархуны","country":"LY","lat":32.435,"lon":13.633,"pop":52420,"tz":"Africa/Tripoli"},{"id":3446753,"name":"Taquaritinga","local":"Такуаритинга","country":"BR","lat":-21.406,"lon":-48.505,"pop":52260,"tz":"America/Sao_Paulo"},{"id":1117652,"name":"Ban Talat Yai","local":"Талат-Яи","country":"TH","lat":7.885,"lon":98.4,"pop":52192,"tz":"Asia/Bangkok"},{"id":2973385,"name":"Tarbes","local":"Тарб","country":"FR","lat":43.234,"lon":0.071,"pop":52106,"tz":"Europe/Paris"},{"id":1821935,"name":"Ta Khmau","local":"Такхмау","country":"KH","lat":11.483,"lon":104.95,"pop":52066,"tz":"Asia/Phnom_Penh"},{"id":3440034,"name":"Tacuarembo","local":"Такуарембо","country":"UY","lat":-31.719,"lon":-55.979,"pop":51854,"tz":"America/Montevideo"},{"id":3870306,"name":"Talagante","local":"Талаганте","country":"CL","lat":-33.664,"lon":-70.927,"pop":51764,"tz":"America/Santiago"},{"id":1851273,"name":"Tagawa","local":"Тагава","country":"JP","lat":33.633,"lon":130.8,"pop":51608,"tz":"Asia/Tokyo"},{"id":3446500,"name":"Tijucas","local":"Тижукас","country":"BR","lat":-27.241,"lon":-48.634,"pop":51592,"tz":"America/Sao_Paulo"},{"id":1295301,"name":"Tachilek","local":"Тачайлейк","country":"MM","lat":20.448,"lon":99.881,"pop":51553,"tz":"Asia/Yangon"},{"id":4175179,"name":"The Villages","local":"Те-Виллиджис","country":"US","lat":28.934,"lon":-81.96,"pop":51442,"tz":"America/New_York"},{"id":1512524,"name":"Tuytepa","local":"Тойтепа","country":"UZ","lat":41.032,"lon":69.363,"pop":51400,"tz":"Asia/Tashkent"},{"id":3927758,"name":"Tarma","local":"Тарма","country":"PE","lat":-11.419,"lon":-75.69,"pop":51350,"tz":"America/Lima"},{"id":2014927,"name":"Tulun","local":"Тулун","country":"RU","lat":54.568,"lon":100.577,"pop":51330,"tz":"Asia/Irkutsk"},{"id":5756758,"name":"Tigard","local":"Тайгард","country":"US","lat":45.431,"lon":-122.771,"pop":51253,"tz":"America/Los_Angeles"},{"id":4175117,"name":"The Hammocks","local":"Те-Хаммокс","country":"US","lat":25.671,"lon":-80.445,"pop":51003,"tz":"America/New_York"},{"id":3064288,"name":"Teplice","local":"Теплице","country":"CZ","lat":50.64,"lon":13.825,"pop":50912,"tz":"Europe/Prague"},{"id":3700563,"name":"Tocumen","local":"Токумен","country":"PA","lat":9.089,"lon":-79.383,"pop":50844,"tz":"America/Panama"},{"id":2475612,"name":"Tolga","local":"Толга","country":"DZ","lat":34.722,"lon":5.378,"pop":50575,"tz":"Africa/Algiers"},{"id":757033,"name":"Tarnobrzeg","local":"Тарнобжеге","country":"PL","lat":50.573,"lon":21.679,"pop":50459,"tz":"Europe/Warsaw"},{"id":3516225,"name":"Taxco de Alarcon","local":"Таско-де-Аларкон","country":"MX","lat":18.555,"lon":-99.606,"pop":50399,"tz":"America/Mexico_City"},{"id":298935,"name":"Torbali","local":"Торбалы","country":"TR","lat":38.182,"lon":27.335,"pop":50303,"tz":"Europe/Istanbul"},{"id":1850523,"name":"Tateyama","local":"Татеяма","country":"JP","lat":34.983,"lon":139.867,"pop":50064,"tz":"Asia/Tokyo"},{"id":3616035,"name":"Tipitapa","local":"Типитапа","country":"NI","lat":12.197,"lon":-86.097,"pop":50000,"tz":"America/Managua"},{"id":113659,"name":"Tabas","local":"Табас","country":"IR","lat":33.596,"lon":56.924,"pop":49993,"tz":"Asia/Tehran"},{"id":2294768,"name":"Tarkwa","local":"Тарква","country":"GH","lat":5.304,"lon":-1.99,"pop":49937,"tz":"Africa/Accra"},{"id":5141502,"name":"Troy","local":"Троя","country":"US","lat":42.728,"lon":-73.692,"pop":49906,"tz":"America/New_York"},{"id":784873,"name":"Trstenik","local":"Трстеник","country":"RS","lat":43.617,"lon":21.003,"pop":49043,"tz":"Europe/Belgrade"},{"id":1835515,"name":"T'aebaek","local":"Тхэбэк","country":"KR","lat":37.176,"lon":128.989,"pop":48962,"tz":"Asia/Seoul"},{"id":3445983,"name":"Tucano","local":"Тукану","country":"BR","lat":-10.958,"lon":-38.791,"pop":48736,"tz":"America/Bahia"},{"id":1851155,"name":"Takahama","local":"Такахама","country":"JP","lat":34.917,"lon":136.983,"pop":48736,"tz":"Asia/Tokyo"},{"id":2667303,"name":"Trollhaettan","local":"Тролльхеттан","country":"SE","lat":58.284,"lon":12.289,"pop":48573,"tz":"Europe/Stockholm"},{"id":481985,"name":"Torzhok","local":"Торжок","country":"RU","lat":57.044,"lon":34.962,"pop":48546,"tz":"Europe/Moscow"},{"id":226110,"name":"Tororo","local":"Тороро","country":"UG","lat":0.693,"lon":34.181,"pop":48500,"tz":"Africa/Kampala"},{"id":1850834,"name":"Takeo","local":"Такео","country":"JP","lat":33.19,"lon":130.021,"pop":47914,"tz":"Asia/Tokyo"},{"id":1850091,"name":"Tomioka","local":"Томиока","country":"JP","lat":36.254,"lon":138.898,"pop":47911,"tz":"Asia/Tokyo"},{"id":4736134,"name":"Texas City","local":"Тексас Сити","country":"US","lat":29.384,"lon":-94.903,"pop":47618,"tz":"America/Chicago"},{"id":5610810,"name":"Twin Falls","local":"Туин-Фолс","country":"US","lat":42.563,"lon":-114.461,"pop":47468,"tz":"America/Boise"},{"id":6822116,"name":"Takashima","local":"Такасима","country":"JP","lat":35.413,"lon":136.016,"pop":46976,"tz":"Asia/Tokyo"},{"id":3515384,"name":"Tlapa de Comonfort","local":"Тлапа-де-Комонфорт","country":"MX","lat":17.545,"lon":-98.576,"pop":46975,"tz":"America/Mexico_City"},{"id":3515504,"name":"Tizimin","local":"Тисимин","country":"MX","lat":21.143,"lon":-88.152,"pop":46971,"tz":"America/Merida"},{"id":3345790,"name":"Tombua","local":"Томбуа","country":"AO","lat":-15.804,"lon":11.845,"pop":46573,"tz":"Africa/Luanda"},{"id":2476301,"name":"Tindouf","local":"Тиндуф","country":"DZ","lat":27.671,"lon":-8.147,"pop":45610,"tz":"Africa/Algiers"},{"id":4175437,"name":"Titusville","local":"Титусвилль","country":"US","lat":28.612,"lon":-80.808,"pop":45393,"tz":"America/New_York"},{"id":1254080,"name":"Tumsar","local":"Тумсар","country":"IN","lat":21.383,"lon":79.733,"pop":44869,"tz":"Asia/Kolkata"},{"id":293322,"name":"Tiberias","local":"Тверия","country":"IL","lat":32.792,"lon":35.531,"pop":44779,"tz":"Asia/Jerusalem"},{"id":2972811,"name":"Thionville","local":"Тьонвиль","country":"FR","lat":49.36,"lon":6.16,"pop":44311,"tz":"Europe/Paris"},{"id":1163582,"name":"Thatta","local":"Татта","country":"PK","lat":24.747,"lon":67.924,"pop":44302,"tz":"Asia/Karachi"},{"id":281577,"name":"Tulkarm","local":"Тулькарм","country":"PS","lat":32.312,"lon":35.027,"pop":44169,"tz":"Asia/Hebron"},{"id":2785141,"name":"Turnhout","local":"Турнхоут","country":"BE","lat":51.323,"lon":4.945,"pop":44000,"tz":"Europe/Brussels"},{"id":2147497,"name":"Tamworth","local":"Тамуорт","country":"AU","lat":-31.09,"lon":150.929,"pop":43874,"tz":"Australia/Sydney"},{"id":480122,"name":"Tutayev","local":"Тутаев","country":"RU","lat":57.873,"lon":39.53,"pop":43828,"tz":"Europe/Moscow"},{"id":2658377,"name":"Thun","local":"Тун","country":"CH","lat":46.751,"lon":7.622,"pop":43723,"tz":"Europe/Zurich"},{"id":3165475,"name":"Torre Annunziata","local":"Торре-Аннунциата","country":"IT","lat":40.753,"lon":14.453,"pop":43521,"tz":"Europe/Rome"},{"id":664460,"name":"Turda","local":"Турда","country":"RO","lat":46.567,"lon":23.783,"pop":43319,"tz":"Europe/Bucharest"},{"id":633591,"name":"Tuusula","local":"Туусула","country":"FI","lat":60.404,"lon":25.026,"pop":42624,"tz":"Europe/Helsinki"},{"id":2973495,"name":"Talence","local":"Таланс","country":"FR","lat":44.808,"lon":-0.589,"pop":42579,"tz":"Europe/Paris"},{"id":90150,"name":"Tikrit","local":"Тикрит","country":"IQ","lat":34.616,"lon":43.679,"pop":42477,"tz":"Asia/Baghdad"},{"id":1518518,"name":"Talghar","local":"Талгар","country":"KZ","lat":43.302,"lon":77.238,"pop":42194,"tz":"Asia/Almaty"},{"id":3133895,"name":"Tromso","local":"Тромсё","country":"NO","lat":69.649,"lon":18.955,"pop":41915,"tz":"Europe/Oslo"},{"id":7577022,"name":"Tres Cantos","local":"Трес-Кантос","country":"ES","lat":40.601,"lon":-3.708,"pop":41896,"tz":"Europe/Madrid"},{"id":6166739,"name":"Timmins","local":"Тимминс","country":"CA","lat":48.467,"lon":-81.333,"pop":41788,"tz":"America/Toronto"},{"id":3446295,"name":"Torres","local":"Торрес","country":"BR","lat":-29.335,"lon":-49.727,"pop":41751,"tz":"America/Sao_Paulo"},{"id":3427687,"name":"Tortuguitas","local":"Тортугітас","country":"AR","lat":-34.475,"lon":-58.754,"pop":41390,"tz":"America/Argentina/Buenos_Aires"},{"id":665355,"name":"Tecuci","local":"Текуч","country":"RO","lat":45.85,"lon":27.434,"pop":41154,"tz":"Europe/Bucharest"},{"id":3386264,"name":"Toritama","local":"Торитама","country":"BR","lat":-8.007,"lon":-36.057,"pop":41137,"tz":"America/Recife"},{"id":2530155,"name":"Taounate","local":"Таунат","country":"MA","lat":34.537,"lon":-4.64,"pop":41075,"tz":"Africa/Casablanca"},{"id":2635427,"name":"Trowbridge","local":"Троубридже","country":"GB","lat":51.319,"lon":-2.209,"pop":40952,"tz":"Europe/London"},{"id":2667094,"name":"Tumba","local":"Тумба","country":"SE","lat":59.199,"lon":17.833,"pop":40832,"tz":"Europe/Stockholm"},{"id":2746331,"name":"Tiel","local":"Тил","country":"NL","lat":51.887,"lon":5.429,"pop":40702,"tz":"Europe/Amsterdam"},{"id":1527299,"name":"Talas","local":"Талас","country":"KG","lat":42.523,"lon":72.242,"pop":40308,"tz":"Asia/Bishkek"},{"id":481964,"name":"Tosno","local":"Тосно","country":"RU","lat":59.54,"lon":30.878,"pop":40198,"tz":"Europe/Moscow"},{"id":1255211,"name":"Taki","local":"Такой","country":"IN","lat":22.589,"lon":88.933,"pop":40113,"tz":"Asia/Kolkata"},{"id":1685146,"name":"Taal","local":"Таал","country":"PH","lat":13.88,"lon":120.923,"pop":39745,"tz":"Asia/Manila"},{"id":1489962,"name":"Tavda","local":"Тавда","country":"RU","lat":58.042,"lon":65.272,"pop":39480,"tz":"Asia/Yekaterinburg"},{"id":2438855,"name":"Tera","local":"Тера","country":"NE","lat":14.008,"lon":0.753,"pop":39410,"tz":"Africa/Niamey"},{"id":1668347,"name":"Taibao","local":"Тайбао","country":"TW","lat":23.459,"lon":120.332,"pop":38696,"tz":"Asia/Taipei"},{"id":2635703,"name":"Tonbridge","local":"Тонбридж","country":"GB","lat":51.195,"lon":0.274,"pop":38657,"tz":"Europe/London"},{"id":3064000,"name":"Trinec","local":"Тршинец","country":"CZ","lat":49.678,"lon":18.671,"pop":38415,"tz":"Europe/Prague"},{"id":1489870,"name":"Tayshet","local":"Тайшет","country":"RU","lat":55.933,"lon":97.99,"pop":37766,"tz":"Asia/Irkutsk"},{"id":3446539,"name":"Tiete","local":"Тиете","country":"BR","lat":-23.102,"lon":-47.715,"pop":37663,"tz":"America/Sao_Paulo"},{"id":481608,"name":"Troitsk","local":"Троицк","country":"RU","lat":55.485,"lon":37.307,"pop":37591,"tz":"Europe/Moscow"},{"id":112656,"name":"Tonekabon","local":"Тонекабон","country":"IR","lat":36.816,"lon":50.874,"pop":37501,"tz":"Asia/Tehran"},{"id":2464648,"name":"Tozeur","local":"Тозер","country":"TN","lat":33.92,"lon":8.134,"pop":37370,"tz":"Africa/Tunis"},{"id":2014718,"name":"Tynda","local":"Тында","country":"RU","lat":55.149,"lon":124.737,"pop":37335,"tz":"Asia/Yakutsk"},{"id":4736096,"name":"Texarkana","local":"Тексаркана","country":"US","lat":33.425,"lon":-94.048,"pop":37280,"tz":"America/Chicago"},{"id":1282601,"name":"Tursunzoda","local":"Турсунзаде","country":"TJ","lat":38.513,"lon":68.232,"pop":37000,"tz":"Asia/Dushanbe"},{"id":299900,"name":"Talas","local":"Талас","country":"TR","lat":38.691,"lon":35.554,"pop":36890,"tz":"Europe/Istanbul"},{"id":2823708,"name":"Tegel","local":"Тегель","country":"DE","lat":52.576,"lon":13.294,"pop":36764,"tz":"Europe/Berlin"},{"id":483661,"name":"Temryuk","local":"Темрюк","country":"RU","lat":45.269,"lon":37.398,"pop":36546,"tz":"Europe/Moscow"},{"id":5401469,"name":"Temple City","local":"Темпл Сити","country":"US","lat":34.107,"lon":-118.058,"pop":36365,"tz":"America/Los_Angeles"},{"id":3064379,"name":"Tabor","local":"Табор","country":"CZ","lat":49.414,"lon":14.658,"pop":36264,"tz":"Europe/Prague"},{"id":3108126,"name":"Teruel","local":"Теруэль","country":"ES","lat":40.346,"lon":-1.106,"pop":36240,"tz":"Europe/Madrid"},{"id":2510392,"name":"Tomelloso","local":"Томельосо","country":"ES","lat":39.158,"lon":-3.022,"pop":36091,"tz":"Europe/Madrid"},{"id":4844459,"name":"Trumbull","local":"Трамбал","country":"US","lat":41.243,"lon":-73.201,"pop":36018,"tz":"America/New_York"},{"id":483137,"name":"Teykovo","local":"Тейково","country":"RU","lat":56.859,"lon":40.54,"pop":36015,"tz":"Europe/Moscow"},{"id":4448903,"name":"Tupelo","local":"Тупело","country":"US","lat":34.258,"lon":-88.705,"pop":35680,"tz":"America/Chicago"},{"id":2510271,"name":"Torre-Pacheco","local":"Торре-Пачеко","country":"ES","lat":37.743,"lon":-0.954,"pop":35614,"tz":"Europe/Madrid"},{"id":2971874,"name":"Tremblay-en-France","local":"Трамбле-ан-Франс","country":"FR","lat":48.95,"lon":2.568,"pop":35591,"tz":"Europe/Paris"},{"id":3816721,"name":"Tonala","local":"Тонала","country":"MX","lat":16.09,"lon":-93.755,"pop":35322,"tz":"America/Mexico_City"},{"id":2611828,"name":"Taastrup","local":"Тааструп","country":"DK","lat":55.65,"lon":12.302,"pop":35238,"tz":"Europe/Copenhagen"},{"id":6822170,"name":"Tamura","local":"Тамура","country":"JP","lat":37.431,"lon":140.603,"pop":35169,"tz":"Asia/Tokyo"},{"id":298846,"name":"Tunceli","local":"Тунджели","country":"TR","lat":39.099,"lon":39.544,"pop":35161,"tz":"Europe/Istanbul"},{"id":3107677,"name":"Tortosa","local":"Тортоса","country":"ES","lat":40.812,"lon":0.522,"pop":35143,"tz":"Europe/Madrid"},{"id":4844309,"name":"Torrington","local":"Торингтон","country":"US","lat":41.801,"lon":-73.121,"pop":34906,"tz":"America/New_York"},{"id":2820693,"name":"Tuttlingen","local":"Тутлинген","country":"DE","lat":47.985,"lon":8.818,"pop":34847,"tz":"Europe/Berlin"},{"id":726174,"name":"Targovishte","local":"Тырговиште","country":"BG","lat":43.251,"lon":26.572,"pop":34793,"tz":"Europe/Sofia"},{"id":949282,"name":"Theunissen","local":"Тениссен","country":"ZA","lat":-28.411,"lon":26.701,"pop":34718,"tz":"Africa/Johannesburg"},{"id":3107418,"name":"Tudela","local":"Тудела","country":"ES","lat":42.062,"lon":-1.605,"pop":34717,"tz":"Europe/Madrid"},{"id":1682478,"name":"Teresa","local":"Тереза","country":"PH","lat":14.561,"lon":121.219,"pop":34716,"tz":"Asia/Manila"},{"id":3064104,"name":"Trebic","local":"Тршебич","country":"CZ","lat":49.215,"lon":15.882,"pop":34530,"tz":"Europe/Prague"},{"id":830844,"name":"Trekhgornyy","local":"Трёхгорный","country":"RU","lat":54.817,"lon":58.448,"pop":34500,"tz":"Asia/Yekaterinburg"},{"id":1163414,"name":"Thul","local":"Тхул","country":"PK","lat":28.24,"lon":68.775,"pop":34472,"tz":"Asia/Karachi"},{"id":3188893,"name":"Trebinje","local":"Требинье","country":"BA","lat":42.712,"lon":18.344,"pop":33178,"tz":"Europe/Sarajevo"},{"id":5783695,"name":"Tooele","local":"Туеле","country":"US","lat":40.531,"lon":-112.298,"pop":33157,"tz":"America/Denver"},{"id":3447059,"name":"Taiobeiras","local":"Тайобейрас","country":"BR","lat":-15.808,"lon":-42.233,"pop":33050,"tz":"America/Sao_Paulo"},{"id":3515665,"name":"Ticul","local":"Тикуль","country":"MX","lat":20.399,"lon":-89.535,"pop":32796,"tz":"America/Merida"},{"id":2785470,"name":"Tienen","local":"Тинен","country":"BE","lat":50.807,"lon":4.938,"pop":31743,"tz":"Europe/Brussels"},{"id":2972742,"name":"Thonon-les-Bains","local":"Тонон-ле-Бен","country":"FR","lat":46.37,"lon":6.48,"pop":31684,"tz":"Europe/Paris"},{"id":1163958,"name":"Tando Jam","local":"Тандо-Джам","country":"PK","lat":25.428,"lon":68.529,"pop":31612,"tz":"Asia/Karachi"},{"id":1851137,"name":"Takahashi","local":"Такахаси","country":"JP","lat":34.783,"lon":133.617,"pop":31556,"tz":"Asia/Tokyo"},{"id":3063907,"name":"Trutnov","local":"Трутнов","country":"CZ","lat":50.561,"lon":15.913,"pop":31398,"tz":"Europe/Prague"},{"id":163806,"name":"Tafas","local":"Тафас","country":"SY","lat":32.737,"lon":36.067,"pop":31249,"tz":"Asia/Damascus"},{"id":3188924,"name":"Travnik","local":"Травник","country":"BA","lat":44.226,"lon":17.666,"pop":31127,"tz":"Europe/Sarajevo"},{"id":3427761,"name":"Tigre","local":"Тигре","country":"AR","lat":-34.426,"lon":-58.58,"pop":31106,"tz":"America/Argentina/Buenos_Aires"},{"id":3165773,"name":"Termoli","local":"Термоли","country":"IT","lat":42.0,"lon":14.994,"pop":31044,"tz":"Europe/Rome"},{"id":3165762,"name":"Terracina","local":"Террачина","country":"IT","lat":41.292,"lon":13.244,"pop":30980,"tz":"Europe/Rome"},{"id":349653,"name":"San al Hajar al Qibliyah","local":"Танис","country":"EG","lat":30.975,"lon":31.872,"pop":30969,"tz":"Africa/Cairo"},{"id":709354,"name":"Toretsk","local":"Торецк","country":"UA","lat":48.395,"lon":37.848,"pop":30914,"tz":"Europe/Kyiv"},{"id":2438678,"name":"Tillaberi","local":"Тиллабери","country":"NE","lat":14.207,"lon":1.454,"pop":30822,"tz":"Africa/Niamey"},{"id":3600704,"name":"Tocoa","local":"Токоа","country":"HN","lat":15.683,"lon":-86.0,"pop":30785,"tz":"America/Tegucigalpa"},{"id":1489394,"name":"Topki","local":"Топки","country":"RU","lat":55.277,"lon":85.614,"pop":30572,"tz":"Asia/Novokuznetsk"},{"id":1850860,"name":"Takehara","local":"Такехара","country":"JP","lat":34.338,"lon":132.917,"pop":30506,"tz":"Asia/Tokyo"},{"id":4133367,"name":"Texarkana","local":"Тексаркана","country":"US","lat":33.442,"lon":-94.038,"pop":30353,"tz":"America/Chicago"},{"id":1512549,"name":"To'rqao'rg'on","local":"Тўрақўрғон","country":"UZ","lat":41.0,"lon":71.512,"pop":30300,"tz":"Asia/Tashkent"},{"id":2821899,"name":"Toenisvorst","local":"Тёнисфорст","country":"DE","lat":51.321,"lon":6.494,"pop":30296,"tz":"Europe/Berlin"},{"id":2785389,"name":"Tongeren","local":"Тонгерен","country":"BE","lat":50.781,"lon":5.465,"pop":29816,"tz":"Europe/Brussels"},{"id":3515796,"name":"Tequisquiapan","local":"Текискијапан","country":"MX","lat":20.523,"lon":-99.892,"pop":29799,"tz":"America/Mexico_City"},{"id":2972893,"name":"Thiais","local":"Тье","country":"FR","lat":48.765,"lon":2.396,"pop":29724,"tz":"Europe/Paris"},{"id":691469,"name":"Tokmak","local":"Токмак","country":"UA","lat":47.256,"lon":35.708,"pop":29573,"tz":"Europe/Kyiv"},{"id":3082998,"name":"Turek","local":"Турек","country":"PL","lat":52.015,"lon":18.501,"pop":29533,"tz":"Europe/Warsaw"},{"id":2823799,"name":"Taunusstein","local":"Таунусштайн","country":"DE","lat":50.15,"lon":8.152,"pop":29501,"tz":"Europe/Berlin"},{"id":2181133,"name":"Timaru","local":"Тимару","country":"NZ","lat":-44.397,"lon":171.254,"pop":29400,"tz":"Pacific/Auckland"},{"id":1164076,"name":"Thal","local":"Таль","country":"PK","lat":35.478,"lon":72.244,"pop":29331,"tz":"Asia/Karachi"},{"id":4952762,"name":"Tewksbury","local":"Тьюксбери","country":"US","lat":42.611,"lon":-71.234,"pop":29326,"tz":"America/New_York"},{"id":2667402,"name":"Trelleborg","local":"Треллеборг","country":"SE","lat":55.375,"lon":13.157,"pop":29316,"tz":"Europe/Stockholm"},{"id":2510224,"name":"Totana","local":"Тотана","country":"ES","lat":37.769,"lon":-1.502,"pop":29211,"tz":"Europe/Madrid"},{"id":3981885,"name":"Tequila","local":"Текила","country":"MX","lat":20.882,"lon":-103.836,"pop":29203,"tz":"America/Mexico_City"},{"id":2972237,"name":"Tournefeuille","local":"Турнефёй","country":"FR","lat":43.589,"lon":1.319,"pop":29124,"tz":"Europe/Paris"},{"id":3667478,"name":"Tame","local":"Там","country":"CO","lat":6.461,"lon":-71.736,"pop":29099,"tz":"America/Bogota"},{"id":3621184,"name":"Turrialba","local":"Турриальба","country":"CR","lat":9.904,"lon":-83.684,"pop":28955,"tz":"America/Costa_Rica"},{"id":664437,"name":"Turnu Magurele","local":"Турну-Мэгуреле","country":"RO","lat":43.747,"lon":24.868,"pop":28783,"tz":"Europe/Bucharest"},{"id":3515064,"name":"Tula de Allende","local":"Тула-де-Альенде","country":"MX","lat":20.052,"lon":-99.344,"pop":28577,"tz":"America/Mexico_City"},{"id":738803,"name":"Terme","local":"Терме","country":"TR","lat":41.209,"lon":36.974,"pop":28397,"tz":"Europe/Istanbul"},{"id":2972049,"name":"Trappes","local":"Трап","country":"FR","lat":48.774,"lon":2.018,"pop":28367,"tz":"Europe/Paris"},{"id":482260,"name":"Tomilino","local":"Томилино","country":"RU","lat":55.656,"lon":37.947,"pop":28310,"tz":"Europe/Moscow"},{"id":691179,"name":"Truskavets","local":"Трускавец","country":"UA","lat":49.281,"lon":23.504,"pop":28287,"tz":"Europe/Kyiv"},{"id":3515042,"name":"Tultitlan de Mariano Escobedo","local":"Тультитлан","country":"MX","lat":19.647,"lon":-99.168,"pop":28017,"tz":"America/Mexico_City"},{"id":691605,"name":"Terny","local":"Терны","country":"UA","lat":48.145,"lon":33.558,"pop":28000,"tz":"Europe/Kyiv"},{"id":2746420,"name":"Terneuzen","local":"Тернезен","country":"NL","lat":51.336,"lon":3.828,"pop":27930,"tz":"Europe/Amsterdam"},{"id":293308,"name":"Tirat Karmel","local":"Тират Кармель","country":"IL","lat":32.76,"lon":34.972,"pop":27822,"tz":"Asia/Jerusalem"},{"id":2110893,"name":"Takahagi","local":"Такахаги","country":"JP","lat":36.717,"lon":140.717,"pop":27699,"tz":"Asia/Tokyo"},{"id":1254808,"name":"Tehri","local":"Техри","country":"IN","lat":30.391,"lon":78.48,"pop":27611,"tz":"Asia/Kolkata"},{"id":4227213,"name":"Tucker","local":"Такер","country":"US","lat":33.855,"lon":-84.217,"pop":27581,"tz":"America/New_York"},{"id":1850600,"name":"Tarui","local":"Таруи","country":"JP","lat":35.367,"lon":136.533,"pop":27439,"tz":"Asia/Tokyo"},{"id":3666939,"name":"Santiago de Tolu","local":"Тол","country":"CO","lat":9.524,"lon":-75.581,"pop":27390,"tz":"America/Bogota"},{"id":2973258,"name":"Taverny","local":"Таверни","country":"FR","lat":49.025,"lon":2.217,"pop":27271,"tz":"Europe/Paris"},{"id":5757506,"name":"Tualatin","local":"Туалатин","country":"US","lat":45.384,"lon":-122.764,"pop":27154,"tz":"America/Los_Angeles"},{"id":4494942,"name":"Thomasville","local":"Томасвилл","country":"US","lat":35.883,"lon":-80.082,"pop":27061,"tz":"America/New_York"},{"id":1490140,"name":"Tara","local":"Тара","country":"RU","lat":56.896,"lon":74.369,"pop":26986,"tz":"Asia/Omsk"},{"id":691628,"name":"Ternivka","local":"Терновка","country":"UA","lat":48.527,"lon":36.071,"pop":26961,"tz":"Europe/Kyiv"},{"id":2146108,"name":"Traralgon","local":"Траралгон","country":"AU","lat":-38.195,"lon":146.542,"pop":26907,"tz":"Australia/Melbourne"},{"id":1518296,"name":"Tekeli","local":"Текели","country":"KZ","lat":44.868,"lon":78.728,"pop":26678,"tz":"Asia/Almaty"},{"id":2181742,"name":"Taupo","local":"Таупо","country":"NZ","lat":-38.683,"lon":176.083,"pop":26600,"tz":"Pacific/Auckland"},{"id":252601,"name":"Tripoli","local":"Триполи","country":"GR","lat":37.51,"lon":22.379,"pop":26561,"tz":"Europe/Athens"},{"id":2354176,"name":"Tougan","local":"Туган","country":"BF","lat":13.072,"lon":-3.069,"pop":26347,"tz":"Africa/Ouagadougou"},{"id":3667158,"name":"Tierralta","local":"Тьерральта","country":"CO","lat":8.174,"lon":-76.059,"pop":26242,"tz":"America/Bogota"},{"id":2110735,"name":"Tono","local":"Тона","country":"JP","lat":39.317,"lon":141.533,"pop":26110,"tz":"Asia/Tokyo"},{"id":2785778,"name":"Temse","local":"Темсе","country":"BE","lat":51.128,"lon":4.214,"pop":26054,"tz":"Europe/Brussels"},{"id":5404198,"name":"Twentynine Palms","local":"Туэнтинайн-Палмс","country":"US","lat":34.136,"lon":-116.054,"pop":26025,"tz":"America/Los_Angeles"},{"id":293426,"name":"Tamra","local":"Тамра","country":"IL","lat":32.853,"lon":35.199,"pop":25917,"tz":"Asia/Jerusalem"},{"id":3165788,"name":"Terlizzi","local":"Терлицци","country":"IT","lat":41.129,"lon":16.545,"pop":25811,"tz":"Europe/Rome"},{"id":3516076,"name":"Tecax","local":"Текаш","country":"MX","lat":20.205,"lon":-89.285,"pop":25751,"tz":"America/Merida"},{"id":4174969,"name":"Temple Terrace","local":"Темпл Терас","country":"US","lat":28.035,"lon":-82.389,"pop":25731,"tz":"America/New_York"},{"id":5174358,"name":"Troy","local":"Троя","country":"US","lat":40.039,"lon":-84.203,"pop":25659,"tz":"America/New_York"},{"id":3439781,"name":"Treinta y Tres","local":"Трейнта-и-Трес","country":"UY","lat":-33.231,"lon":-54.386,"pop":25653,"tz":"America/Montevideo"},{"id":3445941,"name":"Tupaciguara","local":"Тупасигуара","country":"BR","lat":-18.592,"lon":-48.705,"pop":25470,"tz":"America/Sao_Paulo"},{"id":250198,"name":"At Tafilah","local":"Тафила","country":"JO","lat":30.838,"lon":35.604,"pop":25429,"tz":"Asia/Amman"},{"id":3869716,"name":"Tocopilla","local":"Токопилья","country":"CL","lat":-22.092,"lon":-70.198,"pop":25400,"tz":"America/Santiago"},{"id":3446783,"name":"Taquari","local":"Такуари","country":"BR","lat":-29.8,"lon":-51.864,"pop":25198,"tz":"America/Sao_Paulo"},{"id":1490003,"name":"Tatarsk","local":"Татарск","country":"RU","lat":55.221,"lon":75.982,"pop":25150,"tz":"Asia/Novosibirsk"},{"id":3165207,"name":"Treviglio","local":"Тревильо","country":"IT","lat":45.521,"lon":9.591,"pop":24937,"tz":"Europe/Rome"},{"id":1254909,"name":"Tarana","local":"Тарана","country":"IN","lat":23.334,"lon":76.043,"pop":24908,"tz":"Asia/Kolkata"},{"id":2636032,"name":"Thetford","local":"Тетфорд","country":"GB","lat":52.417,"lon":0.75,"pop":24833,"tz":"Europe/London"},{"id":4174855,"name":"Tarpon Springs","local":"Тарпон-Спрингс","country":"US","lat":28.146,"lon":-82.757,"pop":24605,"tz":"America/New_York"},{"id":483883,"name":"Tbilisskaya","local":"Тбилисская","country":"RU","lat":45.365,"lon":40.197,"pop":24446,"tz":"Europe/Moscow"},{"id":2262581,"name":"Torres Vedras","local":"Торреш","country":"PT","lat":39.091,"lon":-9.259,"pop":24443,"tz":"Europe/Lisbon"},{"id":933959,"name":"Triolet","local":"Триолет","country":"MU","lat":-20.058,"lon":57.55,"pop":24361,"tz":"Indian/Mauritius"},{"id":1489907,"name":"Tayga","local":"Тайга","country":"RU","lat":56.065,"lon":85.622,"pop":24328,"tz":"Asia/Novokuznetsk"},{"id":1150490,"name":"Tak","local":"Так","country":"TH","lat":16.87,"lon":99.129,"pop":24149,"tz":"Asia/Bangkok"},{"id":4526576,"name":"Trotwood","local":"Тротвуд","country":"US","lat":39.797,"lon":-84.311,"pop":24096,"tz":"America/New_York"},{"id":3057174,"name":"Topolcany","local":"Топольчани","country":"SK","lat":48.564,"lon":18.167,"pop":24086,"tz":"Europe/Bratislava"},{"id":738662,"name":"Tosya","local":"Тося","country":"TR","lat":41.015,"lon":34.04,"pop":24013,"tz":"Europe/Istanbul"},{"id":481605,"name":"Troitskaya","local":"Троицкая","country":"RU","lat":43.307,"lon":44.984,"pop":23745,"tz":"Europe/Moscow"},{"id":1282714,"name":"Tansen","local":"Тансен","country":"NP","lat":27.867,"lon":83.546,"pop":23693,"tz":"Asia/Kathmandu"},{"id":1527260,"name":"Tash-Kumyr","local":"Таш-Кумыр","country":"KG","lat":41.346,"lon":72.217,"pop":23594,"tz":"Asia/Bishkek"},{"id":2510725,"name":"Tacoronte","local":"Такоронте","country":"ES","lat":28.477,"lon":-16.41,"pop":23562,"tz":"Atlantic/Canary"},{"id":1254282,"name":"Todaraisingh","local":"Тодарасингх","country":"IN","lat":26.024,"lon":75.482,"pop":23559,"tz":"Asia/Kolkata"},{"id":3626595,"name":"Tabay","local":"Табай","country":"VE","lat":8.632,"lon":-71.078,"pop":23539,"tz":"America/Caracas"},{"id":90353,"name":"Tallkayf","local":"Талль-Кайф","country":"IQ","lat":36.491,"lon":43.121,"pop":23524,"tz":"Asia/Baghdad"},{"id":1117656,"name":"Ban Talat Nua","local":"Талат-Нуа","country":"TH","lat":7.885,"lon":98.386,"pop":23381,"tz":"Asia/Bangkok"},{"id":2110891,"name":"Takahata","local":"Такахата","country":"JP","lat":38.002,"lon":140.191,"pop":23367,"tz":"Asia/Tokyo"},{"id":4343327,"name":"Terrytown","local":"Теритаун","country":"US","lat":29.91,"lon":-90.033,"pop":23319,"tz":"America/Chicago"},{"id":6162416,"name":"Tecumseh","local":"Текамсе","country":"CA","lat":42.316,"lon":-82.884,"pop":23229,"tz":"America/Toronto"},{"id":3044083,"name":"Tata","local":"Тата","country":"HU","lat":47.653,"lon":18.318,"pop":23217,"tz":"Europe/Budapest"},{"id":1254904,"name":"Tharangambadi","local":"Транкебар","country":"IN","lat":11.028,"lon":79.854,"pop":23191,"tz":"Asia/Kolkata"},{"id":785113,"name":"Tearce","local":"Теарце","country":"MK","lat":42.076,"lon":21.052,"pop":23096,"tz":"Europe/Skopje"},{"id":2635412,"name":"Truro","local":"Труро","country":"GB","lat":50.265,"lon":-5.054,"pop":23041,"tz":"Europe/London"},{"id":1254283,"name":"Todabhim","local":"Тодабхим","country":"IN","lat":26.917,"lon":76.817,"pop":22977,"tz":"Asia/Kolkata"},{"id":2961123,"name":"Tralee","local":"Трали","country":"IE","lat":52.27,"lon":-9.703,"pop":22941,"tz":"Europe/Dublin"},{"id":723358,"name":"Trebisov","local":"Требишов","country":"SK","lat":48.629,"lon":21.72,"pop":22851,"tz":"Europe/Bratislava"},{"id":3515510,"name":"Tixtla de Guerrero","local":"Тихтла-де-Герреро","country":"MX","lat":17.567,"lon":-99.398,"pop":22826,"tz":"America/Mexico_City"},{"id":2485636,"name":"Oued el Abtal","local":"Торки-ле-Дюк","country":"DZ","lat":35.456,"lon":0.688,"pop":22819,"tz":"Africa/Algiers"},{"id":1490042,"name":"Tashtagol","local":"Таштагол","country":"RU","lat":52.768,"lon":87.888,"pop":22779,"tz":"Asia/Novokuznetsk"},{"id":714581,"name":"Torokszentmiklos","local":"Тороксентмиклош","country":"HU","lat":47.183,"lon":20.417,"pop":22770,"tz":"Europe/Budapest"},{"id":4175091,"name":"The Crossings","local":"Те-Кроссингс","country":"US","lat":25.671,"lon":-80.401,"pop":22758,"tz":"America/New_York"},{"id":2364041,"name":"Tabligbo","local":"Таблигбо","country":"TG","lat":6.583,"lon":1.5,"pop":22304,"tz":"Africa/Lome"},{"id":3902202,"name":"Tupiza","local":"Туписа","country":"BO","lat":-21.443,"lon":-65.719,"pop":22233,"tz":"America/La_Paz"},{"id":3446625,"name":"Teodoro Sampaio","local":"Теодору-Сампаю","country":"BR","lat":-22.532,"lon":-52.167,"pop":22173,"tz":"America/Sao_Paulo"},{"id":4138666,"name":"Foggy Bottom","local":"Туманне Дно","country":"US","lat":38.901,"lon":-77.062,"pop":22146,"tz":"America/New_York"},{"id":2476403,"name":"Timimoun","local":"Тимимун","country":"DZ","lat":29.264,"lon":0.236,"pop":22086,"tz":"Africa/Algiers"},{"id":3165624,"name":"Tivoli","local":"Тиволи","country":"IT","lat":41.96,"lon":12.802,"pop":22018,"tz":"Europe/Rome"},{"id":1489508,"name":"Toguchin","local":"Тогучин","country":"RU","lat":55.238,"lon":84.403,"pop":21886,"tz":"Asia/Novosibirsk"},{"id":1605279,"name":"Trat","local":"Трат","country":"TH","lat":12.244,"lon":102.515,"pop":21590,"tz":"Asia/Bangkok"},{"id":3439748,"name":"Trinidad","local":"Тринидад","country":"UY","lat":-33.517,"lon":-56.9,"pop":21429,"tz":"America/Montevideo"},{"id":593926,"name":"Telsiai","local":"Тельшяй","country":"LT","lat":55.981,"lon":22.247,"pop":21294,"tz":"Europe/Vilnius"},{"id":2821517,"name":"Traunreut","local":"Траунройт","country":"DE","lat":47.963,"lon":12.592,"pop":21244,"tz":"Europe/Berlin"},{"id":593959,"name":"Taurage","local":"Таураге","country":"LT","lat":55.252,"lon":22.29,"pop":21203,"tz":"Europe/Vilnius"},{"id":483495,"name":"Terek","local":"Терек","country":"RU","lat":43.483,"lon":44.138,"pop":21180,"tz":"Europe/Moscow"},{"id":726320,"name":"Troyan","local":"Троян","country":"BG","lat":42.894,"lon":24.716,"pop":21162,"tz":"Europe/Sofia"},{"id":3165698,"name":"Thiene","local":"Тьене","country":"IT","lat":45.709,"lon":11.48,"pop":21145,"tz":"Europe/Rome"},{"id":4094212,"name":"Trussville","local":"Трасвил","country":"US","lat":33.62,"lon":-86.609,"pop":21023,"tz":"America/Chicago"},{"id":13580112,"name":"Teremky","local":"Теремки","country":"UA","lat":50.371,"lon":30.459,"pop":21000,"tz":"Europe/Kyiv"},{"id":634093,"name":"Tornio","local":"Торнио","country":"FI","lat":65.848,"lon":24.147,"pop":20932,"tz":"Europe/Helsinki"},{"id":2785622,"name":"Tervuren","local":"Тервюрен","country":"BE","lat":50.824,"lon":4.514,"pop":20623,"tz":"Europe/Brussels"},{"id":1538648,"name":"Toktogul","local":"Токтогул","country":"KG","lat":41.874,"lon":72.942,"pop":20577,"tz":"Asia/Bishkek"},{"id":8858106,"name":"Terrazas del Valle","local":"Теразас дел Ваље","country":"MX","lat":32.487,"lon":-116.827,"pop":20421,"tz":"America/Tijuana"},{"id":2746133,"name":"Tubbergen","local":"Тубберген","country":"NL","lat":52.407,"lon":6.785,"pop":20334,"tz":"Europe/Amsterdam"},{"id":756868,"name":"Tomaszow Lubelski","local":"Томашув-Любельски","country":"PL","lat":50.448,"lon":23.416,"pop":20261,"tz":"Europe/Warsaw"},{"id":8310136,"name":"Tel Sheva'","local":"Тель-Шева","country":"IL","lat":31.249,"lon":34.86,"pop":20204,"tz":"Asia/Jerusalem"},{"id":2244786,"name":"Thiadiaye","local":"Тиадиайе","country":"SN","lat":14.42,"lon":-16.703,"pop":20168,"tz":"Africa/Dakar"},{"id":479933,"name":"Tyrnyauz","local":"Тырныауз","country":"RU","lat":43.383,"lon":42.918,"pop":20104,"tz":"Europe/Moscow"},{"id":665000,"name":"Targu Secuiesc","local":"Тыргу-Секуйеск","country":"RO","lat":46.0,"lon":26.133,"pop":20067,"tz":"Europe/Bucharest"},{"id":365742,"name":"Torit","local":"Торит","country":"SS","lat":4.412,"lon":32.57,"pop":20048,"tz":"Africa/Juba"},{"id":5814043,"name":"Tukwila","local":"Таквила","country":"US","lat":47.474,"lon":-122.261,"pop":20018,"tz":"America/Los_Angeles"},{"id":1255212,"name":"Takhatpur","local":"Такхатпур","country":"IN","lat":22.129,"lon":81.87,"pop":19968,"tz":"Asia/Kolkata"},{"id":611694,"name":"Telavi","local":"Телави","country":"GE","lat":41.92,"lon":45.47,"pop":19875,"tz":"Asia/Tbilisi"},{"id":3134628,"name":"Time","local":"Тиме","country":"NO","lat":58.733,"lon":5.7,"pop":19781,"tz":"Europe/Oslo"},{"id":2636071,"name":"Tewkesbury","local":"Тьюксбери","country":"GB","lat":51.992,"lon":-2.16,"pop":19778,"tz":"Europe/London"},{"id":2464871,"name":"Tabarka","local":"Табарка","country":"TN","lat":36.954,"lon":8.758,"pop":19770,"tz":"Africa/Tunis"},{"id":7874631,"name":"Tamuning","local":"Тамунинг","country":"GU","lat":13.488,"lon":144.781,"pop":19685,"tz":"Pacific/Guam"},{"id":4790534,"name":"Tysons","local":"Тајсонс Корнер","country":"US","lat":38.919,"lon":-77.231,"pop":19627,"tz":"America/New_York"},{"id":2635762,"name":"Tiverton","local":"Тивъртън","country":"GB","lat":50.902,"lon":-3.492,"pop":19544,"tz":"Europe/London"},{"id":691255,"name":"Trostianets","local":"Тростянец","country":"UA","lat":50.485,"lon":34.966,"pop":19544,"tz":"Europe/Kyiv"},{"id":220782,"name":"Tadjoura","local":"Таджура","country":"DJ","lat":11.788,"lon":42.882,"pop":19533,"tz":"Africa/Djibouti"},{"id":2823567,"name":"Teltow","local":"Тельтов","country":"DE","lat":52.403,"lon":13.26,"pop":19530,"tz":"Europe/Berlin"},{"id":6162949,"name":"Terrace","local":"Терас","country":"CA","lat":54.516,"lon":-128.603,"pop":19443,"tz":"America/Vancouver"},{"id":113632,"name":"Taft","local":"Тафт","country":"IR","lat":31.744,"lon":54.203,"pop":19394,"tz":"Asia/Tehran"},{"id":2823590,"name":"Telgte","local":"Тельгте","country":"DE","lat":51.98,"lon":7.783,"pop":19389,"tz":"Europe/Berlin"},{"id":2785476,"name":"Tielt","local":"Тийлт","country":"BE","lat":50.999,"lon":3.327,"pop":19299,"tz":"Europe/Brussels"},{"id":739015,"name":"Tasova","local":"Ташова","country":"TR","lat":40.76,"lon":36.322,"pop":19253,"tz":"Europe/Istanbul"},{"id":5814095,"name":"Tumwater","local":"Тумуотер","country":"US","lat":47.007,"lon":-122.909,"pop":19190,"tz":"America/Los_Angeles"},{"id":2262644,"name":"Tomar","local":"Томар","country":"PT","lat":39.602,"lon":-8.409,"pop":19168,"tz":"Europe/Lisbon"},{"id":4663494,"name":"Tullahoma","local":"Талахома","country":"US","lat":35.362,"lon":-86.209,"pop":19128,"tz":"America/Chicago"},{"id":1490277,"name":"Talitsa","local":"Талица","country":"RU","lat":56.88,"lon":60.021,"pop":19100,"tz":"Asia/Yekaterinburg"},{"id":2785364,"name":"Torhout","local":"Торхоут","country":"BE","lat":51.066,"lon":3.101,"pop":18933,"tz":"Europe/Brussels"},{"id":1490266,"name":"Tal'menka","local":"Тальменка","country":"RU","lat":53.821,"lon":83.571,"pop":18900,"tz":"Asia/Barnaul"},{"id":5174550,"name":"Twinsburg","local":"Туинсберг","country":"US","lat":41.313,"lon":-81.44,"pop":18872,"tz":"America/New_York"},{"id":4094163,"name":"Troy","local":"Трой","country":"US","lat":31.809,"lon":-85.97,"pop":18853,"tz":"America/Chicago"},{"id":3083111,"name":"Trzebinia","local":"Тшебиня","country":"PL","lat":50.159,"lon":19.47,"pop":18828,"tz":"Europe/Warsaw"},{"id":6165719,"name":"Thorold","local":"Торолд","country":"CA","lat":43.117,"lon":-79.2,"pop":18801,"tz":"America/Toronto"},{"id":2821807,"name":"Torgau","local":"Торгау","country":"DE","lat":51.56,"lon":12.996,"pop":18746,"tz":"Europe/Berlin"},{"id":4226348,"name":"Thomasville","local":"Томасвил","country":"US","lat":30.837,"lon":-83.979,"pop":18742,"tz":"America/New_York"},{"id":6166580,"name":"Tillsonburg","local":"Тилсонбург","country":"CA","lat":42.86,"lon":-80.726,"pop":18615,"tz":"America/Toronto"},{"id":1490281,"name":"Talitsa","local":"Талица","country":"RU","lat":57.011,"lon":63.733,"pop":18602,"tz":"Asia/Yekaterinburg"},{"id":7573818,"name":"Tutume","local":"Тутуме","country":"BW","lat":-20.494,"lon":27.035,"pop":18582,"tz":"Africa/Gaborone"},{"id":1490085,"name":"Tarko-Sale","local":"Тарко-Сале","country":"RU","lat":64.916,"lon":77.775,"pop":18568,"tz":"Asia/Yekaterinburg"},{"id":1488933,"name":"Turinsk","local":"Туринск","country":"RU","lat":58.046,"lon":63.696,"pop":18555,"tz":"Asia/Yekaterinburg"},{"id":2146218,"name":"Torquay","local":"Торки","country":"AU","lat":-38.331,"lon":144.326,"pop":18534,"tz":"Australia/Melbourne"},{"id":2015051,"name":"Trudovoye","local":"Трудовое","country":"RU","lat":43.303,"lon":132.079,"pop":18484,"tz":"Asia/Vladivostok"},{"id":2821515,"name":"Traunstein","local":"Траунштайн","country":"DE","lat":47.868,"lon":12.643,"pop":18422,"tz":"Europe/Berlin"},{"id":1517501,"name":"Turar Ryskulov","local":"Турара Рыскулова","country":"KZ","lat":42.533,"lon":70.35,"pop":18421,"tz":"Asia/Almaty"},{"id":5012521,"name":"Trenton","local":"Трентон","country":"US","lat":42.139,"lon":-83.178,"pop":18380,"tz":"America/Detroit"},{"id":2972270,"name":"Tourlaville","local":"Турлавиль","country":"FR","lat":49.638,"lon":-1.566,"pop":18273,"tz":"Europe/Paris"},{"id":584871,"name":"Terter","local":"Тертер","country":"AZ","lat":40.342,"lon":46.932,"pop":18185,"tz":"Asia/Baku"},{"id":2510599,"name":"Tarifa","local":"Тарифа","country":"ES","lat":36.014,"lon":-5.607,"pop":18169,"tz":"Europe/Madrid"},{"id":2823368,"name":"Tettnang","local":"Тетнанг","country":"DE","lat":47.669,"lon":9.591,"pop":18135,"tz":"Europe/Berlin"},{"id":2785169,"name":"Tubize","local":"Тюбиз","country":"BE","lat":50.691,"lon":4.201,"pop":18000,"tz":"Europe/Brussels"},{"id":2823812,"name":"Taufkirchen","local":"Тауфкирхен","country":"DE","lat":48.049,"lon":11.617,"pop":17791,"tz":"Europe/Berlin"},{"id":5105433,"name":"Tinton Falls","local":"Тинтон Фалс","country":"US","lat":40.304,"lon":-74.1,"pop":17772,"tz":"America/New_York"},{"id":1850345,"name":"Toba","local":"Тоба","country":"JP","lat":34.483,"lon":136.842,"pop":17741,"tz":"Asia/Tokyo"},{"id":4370890,"name":"Takoma Park","local":"Такома-Парк","country":"US","lat":38.978,"lon":-77.007,"pop":17713,"tz":"America/New_York"},{"id":5173930,"name":"Tiffin","local":"Тифин","country":"US","lat":41.114,"lon":-83.178,"pop":17687,"tz":"America/New_York"},{"id":2972350,"name":"Toul","local":"Туль","country":"FR","lat":48.681,"lon":5.891,"pop":17680,"tz":"Europe/Paris"},{"id":2823533,"name":"Templin","local":"Темплин","country":"DE","lat":53.119,"lon":13.502,"pop":17634,"tz":"Europe/Berlin"},{"id":3446495,"name":"Tijucas do Sul","local":"Тижукас-ду-Сул","country":"BR","lat":-25.928,"lon":-49.18,"pop":17621,"tz":"America/Sao_Paulo"},{"id":1514829,"name":"Istiqlol","local":"Табошар","country":"TJ","lat":40.57,"lon":69.642,"pop":17600,"tz":"Asia/Dushanbe"},{"id":5173623,"name":"Tallmadge","local":"Талмиџ","country":"US","lat":41.101,"lon":-81.442,"pop":17512,"tz":"America/New_York"},{"id":2636132,"name":"Teignmouth","local":"Тинмут","country":"GB","lat":50.546,"lon":-3.497,"pop":17463,"tz":"Europe/London"},{"id":946973,"name":"Tzaneen","local":"Тзанеен","country":"ZA","lat":-23.833,"lon":30.164,"pop":17457,"tz":"Africa/Johannesburg"},{"id":365763,"name":"Tonj","local":"Тондж","country":"SS","lat":7.274,"lon":28.677,"pop":17338,"tz":"Africa/Juba"},{"id":1255213,"name":"Takhatgarh","local":"Такхатгарх","country":"IN","lat":25.322,"lon":73.005,"pop":17285,"tz":"Asia/Kolkata"},{"id":738907,"name":"Tekkekoey","local":"Теккекей","country":"TR","lat":41.212,"lon":36.46,"pop":17226,"tz":"Europe/Istanbul"},{"id":3869381,"name":"Traiguen","local":"Трайген","country":"CL","lat":-38.25,"lon":-72.67,"pop":17164,"tz":"America/Santiago"},{"id":738753,"name":"Tirebolu","local":"Тиреболу","country":"TR","lat":41.007,"lon":38.814,"pop":17124,"tz":"Europe/Istanbul"},{"id":1254732,"name":"Teonthar","local":"Теонтхар","country":"IN","lat":24.982,"lon":81.642,"pop":17039,"tz":"Asia/Kolkata"},{"id":4736028,"name":"Terrell","local":"Террелл","country":"US","lat":32.736,"lon":-96.275,"pop":16981,"tz":"America/Chicago"},{"id":2971482,"name":"Tulle","local":"Тюль","country":"FR","lat":45.266,"lon":1.772,"pop":16969,"tz":"Europe/Paris"},{"id":3386445,"name":"Tibau do Sul","local":"Тибау-ду-Сул","country":"BR","lat":-6.187,"lon":-35.092,"pop":16929,"tz":"America/Fortaleza"},{"id":2973317,"name":"Tassin-la-Demi-Lune","local":"Тассен-ла-Демі-Люн","country":"FR","lat":45.755,"lon":4.788,"pop":16920,"tz":"Europe/Paris"},{"id":3083185,"name":"Trzcianka","local":"Тшчанка","country":"PL","lat":53.041,"lon":16.456,"pop":16914,"tz":"Europe/Warsaw"},{"id":2510245,"name":"Torrox","local":"Торрокс","country":"ES","lat":36.758,"lon":-3.952,"pop":16890,"tz":"Europe/Madrid"},{"id":480685,"name":"Tuchkovo","local":"Тучково","country":"RU","lat":55.601,"lon":36.468,"pop":16826,"tz":"Europe/Moscow"},{"id":1106835,"name":"Thaba-Tseka","local":"Таба-Цека","country":"LS","lat":-29.522,"lon":28.608,"pop":16765,"tz":"Africa/Maseru"},{"id":4226552,"name":"Tifton","local":"Тифтон","country":"US","lat":31.45,"lon":-83.508,"pop":16725,"tz":"America/New_York"},{"id":4735702,"name":"Taylor","local":"Тейлор","country":"US","lat":30.571,"lon":-97.409,"pop":16702,"tz":"America/Chicago"},{"id":1218195,"name":"Tuerkmengala","local":"Туркменгала","country":"TM","lat":37.425,"lon":62.338,"pop":16696,"tz":"Asia/Ashgabat"},{"id":5757477,"name":"Troutdale","local":"Траутдейл","country":"US","lat":45.539,"lon":-122.387,"pop":16631,"tz":"America/Los_Angeles"},{"id":4552707,"name":"Tahlequah","local":"Талеква","country":"US","lat":35.915,"lon":-94.97,"pop":16598,"tz":"America/Chicago"},{"id":2785612,"name":"Tessenderlo","local":"Тесендерло","country":"BE","lat":51.065,"lon":5.089,"pop":16574,"tz":"Europe/Brussels"},{"id":1518431,"name":"Tasbuget","local":"Тасбогет","country":"KZ","lat":44.77,"lon":65.555,"pop":16455,"tz":"Asia/Qyzylorda"},{"id":2611497,"name":"Tonder","local":"Тённер","country":"DK","lat":54.933,"lon":8.867,"pop":16401,"tz":"Europe/Copenhagen"},{"id":2147381,"name":"Taree","local":"Тари","country":"AU","lat":-31.911,"lon":152.454,"pop":16359,"tz":"Australia/Sydney"},{"id":5403676,"name":"Truckee","local":"Траки","country":"US","lat":39.328,"lon":-120.183,"pop":16299,"tz":"America/Los_Angeles"},{"id":454768,"name":"Tukums","local":"Тукумс","country":"LV","lat":56.968,"lon":23.156,"pop":16182,"tz":"Europe/Riga"},{"id":481350,"name":"Trubchevsk","local":"Трубчевск","country":"RU","lat":52.58,"lon":33.766,"pop":16100,"tz":"Europe/Moscow"},{"id":1213442,"name":"Tongging","local":"Тонгинг","country":"ID","lat":2.898,"lon":98.523,"pop":16000,"tz":"Asia/Jakarta"},{"id":2667109,"name":"Tullinge","local":"Тулинге","country":"SE","lat":59.2,"lon":17.9,"pop":16000,"tz":"Europe/Stockholm"},{"id":4092788,"name":"Talladega","local":"Талладига","country":"US","lat":33.436,"lon":-86.106,"pop":15709,"tz":"America/Chicago"},{"id":3108317,"name":"Tarancon","local":"Таранкон","country":"ES","lat":40.009,"lon":-3.007,"pop":15651,"tz":"Europe/Madrid"},{"id":2611720,"name":"Tilst","local":"Тильст","country":"DK","lat":56.194,"lon":10.113,"pop":15617,"tz":"Europe/Copenhagen"},{"id":2973146,"name":"Tergnier","local":"Тернье","country":"FR","lat":49.656,"lon":3.301,"pop":15475,"tz":"Europe/Paris"},{"id":4174861,"name":"Tavares","local":"Таверис","country":"US","lat":28.804,"lon":-81.726,"pop":15430,"tz":"America/New_York"},{"id":2763810,"name":"Telfs","local":"Тельфс","country":"AT","lat":47.307,"lon":11.068,"pop":15229,"tz":"Europe/Vienna"},{"id":5012495,"name":"Traverse City","local":"Траверс Сити","country":"US","lat":44.763,"lon":-85.621,"pop":15218,"tz":"America/Detroit"},{"id":2476028,"name":"Tipasa","local":"Типаза","country":"DZ","lat":36.59,"lon":2.449,"pop":15180,"tz":"Africa/Algiers"},{"id":2262744,"name":"Tavira","local":"Тавира","country":"PT","lat":37.127,"lon":-7.649,"pop":15133,"tz":"Europe/Lisbon"},{"id":4175296,"name":"Three Lakes","local":"Три-Лейкс","country":"US","lat":25.642,"lon":-80.398,"pop":15047,"tz":"America/New_York"},{"id":2820973,"name":"Trossingen","local":"Троссинген","country":"DE","lat":48.077,"lon":8.644,"pop":15040,"tz":"Europe/Berlin"},{"id":691016,"name":"Tulchyn","local":"Тульчин","country":"UA","lat":48.674,"lon":28.868,"pop":15011,"tz":"Europe/Kyiv"},{"id":2611396,"name":"Torshavn","local":"Торсхавн","country":"FO","lat":62.01,"lon":-6.772,"pop":13200,"tz":"Atlantic/Faroe"}]