[{"id":90000019,"name":"Khantaghy","names":{"kk":"Хантағы","ru":"Хантагы","en":"Khantaghy"},"country":"KZ","lat":43.522256,"lon":68.570059,"pop":0,"dumk_id":11284,"search_terms":["khantaghy","хантағы","хантагы"]},{"id":90000537,"name":"Khryashchevka","names":{"kk":"Хрящевка","ru":"Хрящевка","en":"Khryashchevka"},"country":"KZ","lat":51.653729,"lon":68.31076,"pop":0,"dumk_id":6149,"search_terms":["khryashchevka","хрящевка"]},{"id":90001115,"name":"Khazretovka","names":{"kk":"Хазретовка","ru":"Хазретовка","en":"Khazretovka"},"country":"KZ","lat":50.797784,"lon":57.480168,"pop":0,"dumk_id":6728,"search_terms":["khazretovka","хазретовка"]},{"id":90001318,"name":"Khusayyn Bizhanova","names":{"kk":"Хұсайын Бижанова","ru":"Хусайын Бижанова","en":"Khusayyn Bizhanova"},"country":"KZ","lat":43.541634,"lon":78.367094,"pop":0,"dumk_id":6931,"search_terms":["khusayyn bizhanova","хұсайын бижанова","хусайын бижанова"]},{"id":90001671,"name":"Khamit Erghaliev","names":{"kk":"Хамит Ерғалиев","ru":"Хамит Ергалиев","en":"Khamit Erghaliev"},"country":"KZ","lat":47.353694,"lon":51.206235,"pop":0,"dumk_id":7286,"search_terms":["хамит ерғалиев","khamit erghaliev","хамит ергалиев"]},{"id":90001722,"name":"Khiuaz","names":{"kk":"Хиуаз","ru":"Хиуаз","en":"Khiuaz"},"country":"KZ","lat":46.609702,"lon":49.06387,"pop":0,"dumk_id":7337,"search_terms":["khiuaz","хиуаз"]},{"id":90001841,"name":"Khan ordasy","names":{"kk":"Хан ордасы","ru":"Хан ордасы","en":"Khan ordasy"},"country":"KZ","lat":48.771362,"lon":47.428918,"pop":0,"dumk_id":7456,"search_terms":["khan ordasy","хан ордасы"]},{"id":90002009,"name":"Khayrush","names":{"kk":"Хайруш","ru":"Хайруш","en":"Khayrush"},"country":"KZ","lat":50.412278,"lon":49.099856,"pop":0,"dumk_id":7625,"search_terms":["хайруш","khayrush"]},{"id":90002026,"name":"Khankol","names":{"kk":"Ханкөл","ru":"Ханкол","en":"Khankol"},"country":"KZ","lat":50.041842,"lon":53.510791,"pop":0,"dumk_id":7642,"search_terms":["ханкол","ханкөл","khankol"]},{"id":90002403,"name":"Khantau","names":{"kk":"Хантау","ru":"Хантау","en":"Khantau"},"country":"KZ","lat":44.228665,"lon":73.799475,"pop":0,"dumk_id":8021,"search_terms":["khantau","хантау"]},{"id":90003133,"name":"Kharkov","names":{"kk":"Харьков","ru":"Харьков","en":"Kharkov"},"country":"KZ","lat":52.285759,"lon":64.371647,"pop":0,"dumk_id":8754,"search_terms":["харьков","kharkov"]},{"id":90003350,"name":"Kharkovskoe","names":{"kk":"Харьковское","ru":"Харьковское","en":"Kharkovskoe"},"country":"KZ","lat":53.804202,"lon":64.545783,"pop":0,"dumk_id":8980,"search_terms":["kharkovskoe","харьковское"]},{"id":90003595,"name":"Khan","names":{"kk":"Хан","ru":"Хан","en":"Khan"},"country":"KZ","lat":46.113895,"lon":61.477302,"pop":0,"dumk_id":9225,"search_terms":["хан","khan"]},{"id":90003828,"name":"Kharkovka","names":{"kk":"Харьковка","ru":"Харьковка","en":"Kharkovka"},"country":"KZ","lat":52.798299,"lon":75.962268,"pop":0,"dumk_id":9464,"search_terms":["харьковка","kharkovka"]},{"id":90004077,"name":"Khmelnitskoe","names":{"kk":"Хмельницкое","ru":"Хмельницкое","en":"Khmelnitskoe"},"country":"KZ","lat":52.432567,"lon":77.766292,"pop":0,"dumk_id":9713,"search_terms":["khmelnitskoe","хмельницкое"]},{"id":90004355,"name":"Khleborob","names":{"kk":"Хлебороб","ru":"Хлебороб","en":"Khleborob"},"country":"KZ","lat":54.962819,"lon":70.465683,"pop":0,"dumk_id":9991,"search_terms":["хлебороб","khleborob"]},{"id":90004674,"name":"Khalyqtar dostyghy","names":{"kk":"Халықтар достығы","ru":"Халыктар достыгы","en":"Khalyqtar dostyghy"},"country":"KZ","lat":41.008122,"lon":68.266051,"pop":0,"dumk_id":10310,"search_terms":["khalyqtar dostyghy","халықтар достығы","халыктар достыгы"]},{"id":90004905,"name":"Khaydar","names":{"kk":"Хайдар","ru":"Хайдар","en":"Khaydar"},"country":"KZ","lat":40.673171,"lon":68.324827,"pop":0,"dumk_id":10541,"search_terms":["khaydar","хайдар"]},{"id":90005057,"name":"Khanqorghan","names":{"kk":"Ханқорған","ru":"Ханкорган","en":"Khanqorghan"},"country":"KZ","lat":42.577471,"lon":69.713506,"pop":0,"dumk_id":10694,"search_terms":["khanqorghan","ханқорған","ханкорган"]},{"id":90005232,"name":"Khanaryq","names":{"kk":"Ханарық","ru":"Ханарык","en":"Khanaryq"},"country":"KZ","lat":42.297164,"lon":70.151929,"pop":0,"dumk_id":10869,"search_terms":["khanaryq","ханарық","ханарык"]}]