[{"id":1566083,"name":"Ho Chi Minh City","local":"Хошимин","country":"VN","lat":10.823,"lon":106.63,"pop":14002598,"tz":"Asia/Ho_Chi_Minh"},{"id":1808926,"name":"Hangzhou","local":"Ханчжоу","country":"CN","lat":30.294,"lon":120.161,"pop":9236032,"tz":"Asia/Shanghai"},{"id":1581130,"name":"Hanoi","local":"Ханой","country":"VN","lat":21.024,"lon":105.841,"pop":8053663,"tz":"Asia/Bangkok"},{"id":1269843,"name":"Hyderabad","local":"Хайдарабад","country":"IN","lat":17.384,"lon":78.456,"pop":6993262,"tz":"Asia/Kolkata"},{"id":2037013,"name":"Harbin","local":"Харбин","country":"CN","lat":45.75,"lon":126.65,"pop":5242897,"tz":"Asia/Shanghai"},{"id":1808722,"name":"Hefei","local":"Хэфэй","country":"CN","lat":31.864,"lon":117.281,"pop":5050000,"tz":"Asia/Shanghai"},{"id":1806776,"name":"Huizhou","local":"Хуэйчжоу","country":"CN","lat":23.111,"lon":114.415,"pop":2900113,"tz":"Asia/Shanghai"},{"id":1809078,"name":"Haikou","local":"Хайкоу","country":"CN","lat":20.034,"lon":110.347,"pop":2873358,"tz":"Asia/Shanghai"},{"id":1581298,"name":"Haiphong","local":"Хайфон","country":"VN","lat":20.865,"lon":106.683,"pop":2625200,"tz":"Asia/Bangkok"},{"id":1797873,"name":"Huai'an","local":"Хуайань","country":"CN","lat":33.589,"lon":119.019,"pop":2494013,"tz":"Asia/Shanghai"},{"id":2036892,"name":"Hohhot","local":"Хух-Хото","country":"CN","lat":40.811,"lon":111.652,"pop":2350000,"tz":"Asia/Shanghai"},{"id":4699066,"name":"Houston","local":"Хьюстон","country":"US","lat":29.763,"lon":-95.363,"pop":2314157,"tz":"America/Chicago"},{"id":170063,"name":"Aleppo","local":"Халеб","country":"SY","lat":36.201,"lon":37.161,"pop":2098210,"tz":"Asia/Damascus"},{"id":379252,"name":"Khartoum","local":"Хартум","country":"SD","lat":15.552,"lon":32.532,"pop":1974647,"tz":"Africa/Khartoum"},{"id":1176734,"name":"Hyderabad","local":"Хайдарабад","country":"PK","lat":25.397,"lon":68.377,"pop":1921275,"tz":"Asia/Karachi"},{"id":890299,"name":"Harare","local":"Хараре","country":"ZW","lat":-17.828,"lon":31.053,"pop":1542813,"tz":"Africa/Harare"},{"id":706483,"name":"Kharkiv","local":"Харьков","country":"UA","lat":49.982,"lon":36.255,"pop":1433886,"tz":"Europe/Kyiv"},{"id":1580240,"name":"Hue","local":"Хюэ","country":"VN","lat":16.462,"lon":107.595,"pop":1380000,"tz":"Asia/Bangkok"},{"id":1808963,"name":"Handan","local":"Ханьдань","country":"CN","lat":36.61,"lon":114.488,"pop":1358318,"tz":"Asia/Shanghai"},{"id":1808198,"name":"Heze","local":"Хэцзэ","country":"CN","lat":35.239,"lon":115.474,"pop":1346717,"tz":"Asia/Shanghai"},{"id":1862415,"name":"Hiroshima","local":"Хиросима","country":"JP","lat":34.4,"lon":132.45,"pop":1200754,"tz":"Asia/Tokyo"},{"id":1807700,"name":"Huaibei","local":"Хуайбэй","country":"CN","lat":33.974,"lon":116.792,"pop":1113321,"tz":"Asia/Shanghai"},{"id":1808370,"name":"Hengyang","local":"Хэнъян","country":"CN","lat":26.889,"lon":112.619,"pop":1075516,"tz":"Asia/Shanghai"},{"id":1808857,"name":"Hanzhong","local":"Ханьчжун","country":"CN","lat":33.075,"lon":107.022,"pop":1006557,"tz":"Asia/Shanghai"},{"id":7576887,"name":"Hezhou","local":"Хэчжоу","country":"CN","lat":24.404,"lon":111.567,"pop":1005490,"tz":"Asia/Shanghai"},{"id":1801640,"name":"Luzhou","local":"Хэфэй","country":"CN","lat":28.89,"lon":105.426,"pop":998900,"tz":"Asia/Shanghai"},{"id":1269920,"name":"Hubballi","local":"Хубли-Дхарвад","country":"IN","lat":15.348,"lon":75.134,"pop":943788,"tz":"Asia/Kolkata"},{"id":1863289,"name":"Hamamatsu","local":"Хамамацу","country":"JP","lat":34.7,"lon":137.733,"pop":791707,"tz":"Asia/Tokyo"},{"id":169577,"name":"Homs","local":"Хомс","country":"SY","lat":34.724,"lon":36.726,"pop":775404,"tz":"Asia/Damascus"},{"id":2036986,"name":"Hegang","local":"Хэган","country":"CN","lat":47.347,"lon":130.29,"pop":743307,"tz":"Asia/Shanghai"},{"id":1807234,"name":"Huangshi","local":"Хуанши","country":"CN","lat":30.247,"lon":115.048,"pop":688090,"tz":"Asia/Shanghai"},{"id":658225,"name":"Helsinki","local":"Хельсинки","country":"FI","lat":60.17,"lon":24.935,"pop":658864,"tz":"Europe/Helsinki"},{"id":1808770,"name":"Hebi","local":"Хэби","country":"CN","lat":35.732,"lon":114.286,"pop":634721,"tz":"Asia/Shanghai"},{"id":2022890,"name":"Khabarovsk","local":"Хабаровск","country":"RU","lat":48.462,"lon":135.097,"pop":618150,"tz":"Asia/Vladivostok"},{"id":1863440,"name":"Hachioji","local":"Хатиодзи","country":"JP","lat":35.656,"lon":139.324,"pop":579355,"tz":"Asia/Tokyo"},{"id":2056752,"name":"Khabarovsk Vtoroy","local":"Хабаровск Второй","country":"RU","lat":48.438,"lon":135.13,"pop":578303,"tz":"Asia/Vladivostok"},{"id":1807689,"name":"Huaihua","local":"Хуайхуа","country":"CN","lat":27.563,"lon":110.004,"pop":552622,"tz":"Asia/Shanghai"},{"id":1862627,"name":"Himeji","local":"Химэдзи","country":"JP","lat":34.817,"lon":134.7,"pop":530495,"tz":"Asia/Tokyo"},{"id":132144,"name":"Hamadan","local":"Хамадан","country":"IR","lat":34.799,"lon":48.515,"pop":528256,"tz":"Asia/Tehran"},{"id":1808392,"name":"Hengshui","local":"Хэншуй","country":"CN","lat":37.739,"lon":115.683,"pop":522147,"tz":"Asia/Shanghai"},{"id":57289,"name":"Hargeysa","local":"Харгейсе","country":"SO","lat":9.56,"lon":44.065,"pop":477876,"tz":"Africa/Mogadishu"},{"id":1786112,"name":"Heyuan","local":"Хэюань","country":"CN","lat":23.733,"lon":114.683,"pop":463907,"tz":"Asia/Shanghai"},{"id":170017,"name":"Hamah","local":"Хама","country":"SY","lat":35.132,"lon":36.758,"pop":460602,"tz":"Asia/Damascus"},{"id":1281019,"name":"Gujangbagh","local":"Хотан","country":"CN","lat":37.109,"lon":79.934,"pop":408894,"tz":"Asia/Urumqi"},{"id":105072,"name":"Khamis Mushait","local":"Хамис-Мушаит","country":"SA","lat":18.3,"lon":42.733,"pop":387553,"tz":"Asia/Riyadh"},{"id":8537264,"name":"Huanggang","local":"Хуанган","country":"CN","lat":30.451,"lon":114.87,"pop":366769,"tz":"Asia/Shanghai"},{"id":12548253,"name":"Hulunbuir","local":"Хөлөнбуйр","country":"CN","lat":49.211,"lon":119.756,"pop":349400,"tz":"Asia/Shanghai"},{"id":127319,"name":"Khorramshahr","local":"Хорремшехр","country":"IR","lat":30.441,"lon":48.184,"pop":330606,"tz":"Asia/Tehran"},{"id":127349,"name":"Khorramabad","local":"Хуррамобод","country":"IR","lat":33.488,"lon":48.356,"pop":329825,"tz":"Asia/Tehran"},{"id":8354626,"name":"Hamburg-Nord","local":"Хамбург-Норд","country":"DE","lat":53.589,"lon":9.984,"pop":315514,"tz":"Europe/Berlin"},{"id":1270022,"name":"Hisar","local":"Хисар","country":"IN","lat":29.154,"lon":75.723,"pop":307024,"tz":"Asia/Kolkata"},{"id":2911288,"name":"Hamburg-Mitte","local":"Хамбург-Мите","country":"DE","lat":53.55,"lon":10.017,"pop":301231,"tz":"Europe/Berlin"},{"id":5505411,"name":"Henderson","local":"Хендерсон","country":"US","lat":36.04,"lon":-114.982,"pop":285667,"tz":"America/Los_Angeles"},{"id":294801,"name":"Haifa","local":"Хайфа","country":"IL","lat":32.813,"lon":34.999,"pop":285316,"tz":"Asia/Jerusalem"},{"id":706448,"name":"Kherson","local":"Херсон","country":"UA","lat":46.637,"lon":32.615,"pop":283649,"tz":"Europe/Kyiv"},{"id":2130188,"name":"Hakodate","local":"Хакодате","country":"JP","lat":41.776,"lon":140.737,"pop":275730,"tz":"Asia/Tokyo"},{"id":706369,"name":"Khmelnytskyi","local":"Хмельницкий","country":"UA","lat":49.418,"lon":26.979,"pop":274582,"tz":"Europe/Kyiv"},{"id":3121424,"name":"Gijon","local":"Хихон","country":"ES","lat":43.536,"lon":-5.662,"pop":271780,"tz":"Europe/Madrid"},{"id":1580410,"name":"Ha Long","local":"Халонг","country":"VN","lat":20.95,"lon":107.073,"pop":270054,"tz":"Asia/Bangkok"},{"id":1862462,"name":"Hiratsuka","local":"Хирацука","country":"JP","lat":35.328,"lon":139.337,"pop":258422,"tz":"Asia/Tokyo"},{"id":2163355,"name":"Hobart","local":"Хобарт","country":"AU","lat":-42.879,"lon":147.329,"pop":252639,"tz":"Australia/Hobart"},{"id":2940132,"name":"Chemnitz","local":"Хемниц","country":"DE","lat":50.836,"lon":12.929,"pop":247220,"tz":"Europe/Berlin"},{"id":1529484,"name":"Hami","local":"Хами","country":"CN","lat":42.834,"lon":93.506,"pop":246373,"tz":"Asia/Urumqi"},{"id":3937513,"name":"Juliaca","local":"Хульяка","country":"PE","lat":-15.5,"lon":-70.133,"pop":245675,"tz":"America/Lima"},{"id":1581326,"name":"Hai Duong","local":"Хайзыонг","country":"VN","lat":20.941,"lon":106.333,"pop":241373,"tz":"Asia/Bangkok"},{"id":550280,"name":"Khimki","local":"Химки","country":"RU","lat":55.9,"lon":37.428,"pop":239967,"tz":"Europe/Moscow"},{"id":2130203,"name":"Hachinohe","local":"Хаћинохе","country":"JP","lat":40.5,"lon":141.5,"pop":239046,"tz":"Asia/Tokyo"},{"id":4158476,"name":"Hialeah","local":"Хайалиа","country":"US","lat":25.858,"lon":-80.278,"pop":237069,"tz":"America/New_York"},{"id":355795,"name":"Halwan","local":"Хелуан","country":"EG","lat":29.841,"lon":31.301,"pop":230000,"tz":"Africa/Cairo"},{"id":1807508,"name":"Huanggang","local":"Хуанган","country":"CN","lat":23.677,"lon":117.0,"pop":225956,"tz":"Asia/Shanghai"},{"id":2036973,"name":"Heihe","local":"Хэйхэ","country":"CN","lat":50.244,"lon":127.49,"pop":223832,"tz":"Asia/Shanghai"},{"id":1877615,"name":"Haeju","local":"Хэджу","country":"KP","lat":38.041,"lon":125.715,"pop":222396,"tz":"Asia/Pyongyang"},{"id":1266976,"name":"Kharagpur","local":"Харагпур","country":"IN","lat":22.34,"lon":87.325,"pop":219665,"tz":"Asia/Kolkata"},{"id":4068590,"name":"Huntsville","local":"Хантсвилл","country":"US","lat":34.73,"lon":-86.586,"pop":215006,"tz":"America/Chicago"},{"id":2516326,"name":"Jerez de la Frontera","local":"Херес-де-ла-Фронтера","country":"ES","lat":36.686,"lon":-6.136,"pop":212879,"tz":"Europe/Madrid"},{"id":2037078,"name":"Hailar","local":"Хайлар","country":"CN","lat":49.2,"lon":119.7,"pop":211066,"tz":"Asia/Shanghai"},{"id":1808931,"name":"Hangu","local":"Ханга","country":"CN","lat":39.249,"lon":117.789,"pop":208369,"tz":"Asia/Shanghai"},{"id":361291,"name":"Hurghada","local":"Хургада","country":"EG","lat":27.257,"lon":33.813,"pop":207132,"tz":"Africa/Cairo"},{"id":1269935,"name":"Hosapete","local":"Хоспет","country":"IN","lat":15.27,"lon":76.387,"pop":206167,"tz":"Asia/Kolkata"},{"id":2219905,"name":"Al Khums","local":"Хомс","country":"LY","lat":32.649,"lon":14.262,"pop":201943,"tz":"Africa/Tripoli"},{"id":5358705,"name":"Huntington Beach","local":"Хантингтон-Бич","country":"US","lat":33.66,"lon":-117.999,"pop":201899,"tz":"America/Los_Angeles"},{"id":2912621,"name":"Hagen","local":"Хаген","country":"DE","lat":51.361,"lon":7.472,"pop":198972,"tz":"Europe/Berlin"},{"id":294751,"name":"Holon","local":"Холон","country":"IL","lat":32.01,"lon":34.779,"pop":196282,"tz":"Asia/Jerusalem"},{"id":1283339,"name":"Hetauda","local":"Хетауда","country":"NP","lat":27.428,"lon":85.032,"pop":195951,"tz":"Asia/Kathmandu"},{"id":1806696,"name":"Humen","local":"Хумэнь","country":"CN","lat":22.819,"lon":113.673,"pop":191891,"tz":"Asia/Shanghai"},{"id":1610780,"name":"Hat Yai","local":"Хатъяй","country":"TH","lat":7.008,"lon":100.477,"pop":191696,"tz":"Asia/Bangkok"},{"id":1162004,"name":"Khairpur Mir's","local":"Хайрпура","country":"PK","lat":27.529,"lon":68.759,"pop":191044,"tz":"Asia/Karachi"},{"id":1514879,"name":"Khujand","local":"Худжанд","country":"TJ","lat":40.283,"lon":69.622,"pop":191000,"tz":"Asia/Dushanbe"},{"id":1862599,"name":"Hino","local":"Хино","country":"JP","lat":35.673,"lon":139.4,"pop":190435,"tz":"Asia/Tokyo"},{"id":3121437,"name":"Getafe","local":"Хетафе","country":"ES","lat":40.306,"lon":-3.733,"pop":187525,"tz":"Europe/Madrid"},{"id":1270351,"name":"Haridwar","local":"Харидвар","country":"IN","lat":29.948,"lon":78.16,"pop":186079,"tz":"Asia/Kolkata"},{"id":2911240,"name":"Hamm","local":"Хамм","country":"DE","lat":51.68,"lon":7.821,"pop":178967,"tz":"Europe/Berlin"},{"id":1269910,"name":"Hugli","local":"Хугли","country":"IN","lat":22.909,"lon":88.397,"pop":177005,"tz":"Asia/Kolkata"},{"id":2112708,"name":"Hitachi","local":"Хитати","country":"JP","lat":36.6,"lon":140.65,"pop":174508,"tz":"Asia/Tokyo"},{"id":281124,"name":"Khan Yunis","local":"Хан-Юнис","country":"PS","lat":31.34,"lon":34.306,"pop":173183,"tz":"Asia/Gaza"},{"id":2905891,"name":"Herne","local":"Херне","country":"DE","lat":51.539,"lon":7.226,"pop":172108,"tz":"Europe/Berlin"},{"id":2910685,"name":"Harburg","local":"Харбург","country":"DE","lat":53.461,"lon":9.984,"pop":169221,"tz":"Europe/Berlin"},{"id":2130057,"name":"Hirosaki","local":"Хиросаки","country":"JP","lat":40.593,"lon":140.472,"pop":168739,"tz":"Asia/Tokyo"},{"id":1863431,"name":"Hadano","local":"Хадано","country":"JP","lat":35.371,"lon":139.224,"pop":163787,"tz":"Asia/Tokyo"},{"id":2755003,"name":"Haarlem","local":"Харлем","country":"NL","lat":52.381,"lon":4.637,"pop":162543,"tz":"Europe/Amsterdam"},{"id":2747351,"name":"'s-Hertogenbosch","local":"Хертогенбос","country":"NL","lat":51.699,"lon":5.304,"pop":160783,"tz":"Europe/Amsterdam"},{"id":285066,"name":"Hebron","local":"Хеврон","country":"PS","lat":31.529,"lon":35.094,"pop":160470,"tz":"Asia/Hebron"},{"id":3595237,"name":"Jalapa","local":"Халапа","country":"GT","lat":14.635,"lon":-89.991,"pop":159840,"tz":"America/Guatemala"},{"id":549479,"name":"Khoroshevo-Mnevniki","local":"Хорошёво","country":"RU","lat":55.784,"lon":37.471,"pop":159000,"tz":"Europe/Moscow"},{"id":5355933,"name":"Hayward","local":"Хейвард","country":"US","lat":37.669,"lon":-122.081,"pop":158289,"tz":"America/Los_Angeles"},{"id":335035,"name":"Harar","local":"Харэр","country":"ET","lat":9.314,"lon":42.118,"pop":157000,"tz":"Africa/Addis_Ababa"},{"id":6822096,"name":"Hitachi-Naka","local":"Хитатинака","country":"JP","lat":36.397,"lon":140.535,"pop":156581,"tz":"Asia/Tokyo"},{"id":1270239,"name":"Hassan","local":"Хасан","country":"IN","lat":13.007,"lon":76.096,"pop":155006,"tz":"Asia/Kolkata"},{"id":1270164,"name":"Hazaribagh","local":"Хазарибаг","country":"IN","lat":23.992,"lon":85.362,"pop":153595,"tz":"Asia/Kolkata"},{"id":2646458,"name":"Huddersfield","local":"Хаддерсфилд","country":"GB","lat":53.649,"lon":-1.784,"pop":149017,"tz":"Europe/London"},{"id":1270525,"name":"Hajipur","local":"Хаджипур","country":"IN","lat":25.685,"lon":85.21,"pop":147688,"tz":"Asia/Kolkata"},{"id":3595069,"name":"Jutiapa","local":"Хутиапа","country":"GT","lat":14.285,"lon":-89.888,"pop":145880,"tz":"America/Guatemala"},{"id":2037075,"name":"Hailin","local":"Хайлин","country":"CN","lat":44.571,"lon":129.385,"pop":144443,"tz":"Asia/Shanghai"},{"id":2907911,"name":"Heidelberg","local":"Хайдельберг","country":"DE","lat":49.408,"lon":8.691,"pop":143345,"tz":"Europe/Berlin"},{"id":1270498,"name":"Haldwani","local":"Халдвани","country":"IN","lat":29.223,"lon":79.529,"pop":139497,"tz":"Asia/Kolkata"},{"id":4762894,"name":"Hampton","local":"Хэмптон","country":"US","lat":37.03,"lon":-76.345,"pop":137148,"tz":"America/New_York"},{"id":1325211,"name":"Hinthada","local":"Хинтада","country":"MM","lat":17.649,"lon":95.457,"pop":134947,"tz":"Asia/Yangon"},{"id":290247,"name":"Madinat Hamad","local":"Хамад","country":"BH","lat":26.115,"lon":50.507,"pop":133550,"tz":"Asia/Bahrain"},{"id":2646914,"name":"High Wycombe","local":"Хай-Уиком","country":"GB","lat":51.629,"lon":-0.749,"pop":133204,"tz":"Europe/London"},{"id":1808336,"name":"Hepo","local":"Хэпо","country":"CN","lat":23.431,"lon":115.83,"pop":131238,"tz":"Asia/Shanghai"},{"id":2300379,"name":"Ho","local":"Хо","country":"GH","lat":6.601,"lon":0.471,"pop":130701,"tz":"Africa/Accra"},{"id":2544333,"name":"Khenifra","local":"Хенифра","country":"MA","lat":32.935,"lon":-5.662,"pop":128318,"tz":"Africa/Casablanca"},{"id":1267016,"name":"Khanna","local":"Ханна","country":"IN","lat":30.705,"lon":76.222,"pop":128137,"tz":"Asia/Kolkata"},{"id":550478,"name":"Khasavyurt","local":"Хасавюрт","country":"RU","lat":43.249,"lon":46.586,"pop":126829,"tz":"Europe/Moscow"},{"id":1153269,"name":"Hua Hin","local":"Хуахин","country":"TH","lat":12.571,"lon":99.959,"pop":126355,"tz":"Asia/Bangkok"},{"id":233312,"name":"Hoima","local":"Хоима","country":"UG","lat":1.433,"lon":31.352,"pop":122700,"tz":"Africa/Kampala"},{"id":1807112,"name":"Huangzhou","local":"Хуанчжоу","country":"CN","lat":30.45,"lon":114.8,"pop":122563,"tz":"Asia/Shanghai"},{"id":4835797,"name":"Hartford","local":"Хартфорд","country":"US","lat":41.764,"lon":-72.685,"pop":121054,"tz":"America/New_York"},{"id":2907669,"name":"Heilbronn","local":"Хайльбронн","country":"DE","lat":49.14,"lon":9.221,"pop":120733,"tz":"Europe/Berlin"},{"id":1269939,"name":"Narmadapuram","local":"Хошангабад","country":"IN","lat":22.747,"lon":77.727,"pop":117988,"tz":"Asia/Kolkata"},{"id":1863209,"name":"Handa","local":"Ханда","country":"JP","lat":34.883,"lon":136.933,"pop":117884,"tz":"Asia/Tokyo"},{"id":1513604,"name":"Xiva","local":"Хива","country":"UZ","lat":41.386,"lon":60.364,"pop":115000,"tz":"Asia/Samarkand"},{"id":1863018,"name":"Hatsukaichi","local":"Хацукаити","country":"JP","lat":34.35,"lon":132.333,"pop":114173,"tz":"Asia/Tokyo"},{"id":1862636,"name":"Hikone","local":"Хиконэ","country":"JP","lat":35.25,"lon":136.25,"pop":113647,"tz":"Asia/Tokyo"},{"id":2516395,"name":"Jaen","local":"Хаэн","country":"ES","lat":37.769,"lon":-3.79,"pop":113457,"tz":"Europe/Madrid"},{"id":3101619,"name":"Chorzow","local":"Хожув","country":"PL","lat":50.306,"lon":18.974,"pop":113430,"tz":"Europe/Warsaw"},{"id":4471025,"name":"High Point","local":"Хай-Пойнт","country":"US","lat":35.956,"lon":-80.005,"pop":110268,"tz":"America/New_York"},{"id":6825496,"name":"Habikino","local":"Хабикино","country":"JP","lat":34.553,"lon":135.591,"pop":109479,"tz":"Asia/Tokyo"},{"id":2036671,"name":"Hulan","local":"Хулан","country":"CN","lat":45.893,"lon":126.578,"pop":109104,"tz":"Asia/Shanghai"},{"id":3682018,"name":"Giron","local":"Хирон","country":"CO","lat":7.068,"lon":-73.17,"pop":108466,"tz":"America/Bogota"},{"id":2706767,"name":"Helsingborg","local":"Хельсингборг","country":"SE","lat":56.047,"lon":12.694,"pop":104250,"tz":"Europe/Stockholm"},{"id":2904789,"name":"Hildesheim","local":"Хильдесхайм","country":"DE","lat":52.151,"lon":9.951,"pop":103052,"tz":"Europe/Berlin"},{"id":5731371,"name":"Hillsboro","local":"Хиллсборо","country":"US","lat":45.523,"lon":-122.99,"pop":102347,"tz":"America/Los_Angeles"},{"id":1503772,"name":"Khanty-Mansiysk","local":"Ханты-Мансийск","country":"RU","lat":61.002,"lon":69.027,"pop":101466,"tz":"Asia/Yekaterinburg"},{"id":1581052,"name":"Ha Tien","local":"Хатьен","country":"VN","lat":10.383,"lon":104.488,"pop":100560,"tz":"Asia/Ho_Chi_Minh"},{"id":1674504,"name":"Hualien City","local":"Хуалянь","country":"TW","lat":23.977,"lon":121.604,"pop":99458,"tz":"Asia/Taipei"},{"id":274874,"name":"Habbouch","local":"Хаббуше","country":"LB","lat":33.407,"lon":35.482,"pop":98433,"tz":"Asia/Beirut"},{"id":2473744,"name":"Hammamet","local":"Хаммамет","country":"TN","lat":36.4,"lon":10.617,"pop":97579,"tz":"Africa/Tunis"},{"id":294946,"name":"Hadera","local":"Хадера","country":"IL","lat":32.442,"lon":34.904,"pop":97335,"tz":"Asia/Jerusalem"},{"id":5425043,"name":"Highlands Ranch","local":"Хайландс Ранч","country":"US","lat":39.554,"lon":-104.969,"pop":96713,"tz":"America/Denver"},{"id":1136469,"name":"Khost","local":"Хост","country":"AF","lat":33.34,"lon":69.92,"pop":96123,"tz":"Asia/Kabul"},{"id":2112823,"name":"Hanamaki","local":"Ханамаки","country":"JP","lat":39.383,"lon":141.117,"pop":94691,"tz":"Asia/Tokyo"},{"id":2647461,"name":"Harlow","local":"Харлоу","country":"GB","lat":51.777,"lon":0.112,"pop":94365,"tz":"Europe/London"},{"id":13580317,"name":"Kharkivskyi Masyv","local":"Харківський масив","country":"UA","lat":50.408,"lon":30.66,"pop":93700,"tz":"Europe/Kyiv"},{"id":5356576,"name":"Hesperia","local":"Хеспирия","country":"US","lat":34.426,"lon":-117.301,"pop":93295,"tz":"America/Los_Angeles"},{"id":2754652,"name":"Heerlen","local":"Хеерлен","country":"NL","lat":50.884,"lon":5.982,"pop":93084,"tz":"Europe/Amsterdam"},{"id":1325259,"name":"Heho","local":"Хехо","country":"MM","lat":20.723,"lon":96.823,"pop":93041,"tz":"Asia/Yangon"},{"id":2190224,"name":"Hastings","local":"Хейстингс","country":"NZ","lat":-39.638,"lon":176.849,"pop":89200,"tz":"Pacific/Auckland"},{"id":1808744,"name":"Hede","local":"Хеде","country":"CN","lat":33.772,"lon":120.262,"pop":89107,"tz":"Asia/Shanghai"},{"id":2647428,"name":"Harrogate","local":"Харрогейт","country":"GB","lat":53.991,"lon":-1.537,"pop":89060,"tz":"Europe/London"},{"id":2647400,"name":"Hartlepool","local":"Хартлпул","country":"GB","lat":54.686,"lon":-1.21,"pop":88855,"tz":"Europe/London"},{"id":1185209,"name":"Habiganj","local":"Хабигандж","country":"BD","lat":24.38,"lon":91.413,"pop":88760,"tz":"Asia/Dhaka"},{"id":2911007,"name":"Hanau am Main","local":"Ханау","country":"DE","lat":50.134,"lon":8.914,"pop":88648,"tz":"Europe/Berlin"},{"id":5355828,"name":"Hawthorne","local":"Хоторн","country":"US","lat":33.916,"lon":-118.353,"pop":88451,"tz":"America/Los_Angeles"},{"id":3526357,"name":"Heroica Ciudad de Juchitan de Zaragoza","local":"Хучитан-де-Сарагоса","country":"MX","lat":16.434,"lon":-95.022,"pop":88280,"tz":"America/Mexico_City"},{"id":1177042,"name":"Hasilpur","local":"Хасилпур","country":"PK","lat":29.692,"lon":72.546,"pop":88031,"tz":"Asia/Karachi"},{"id":1270417,"name":"Hansi","local":"Ханси","country":"IN","lat":29.102,"lon":75.963,"pop":86770,"tz":"Asia/Kolkata"},{"id":2036933,"name":"Helong","local":"Хэлуне","country":"CN","lat":42.54,"lon":128.997,"pop":85756,"tz":"Asia/Shanghai"},{"id":2647138,"name":"Hemel Hempstead","local":"Хемел-Хемпстед","country":"GB","lat":51.754,"lon":-0.45,"pop":85629,"tz":"Europe/London"},{"id":1270072,"name":"Hingoli","local":"Хинголи","country":"IN","lat":19.715,"lon":77.142,"pop":85103,"tz":"Asia/Kolkata"},{"id":6822136,"name":"Higashiyamato","local":"Хигасиямато","country":"JP","lat":35.763,"lon":139.446,"pop":83901,"tz":"Asia/Tokyo"},{"id":5356277,"name":"Hemet","local":"Хемет","country":"US","lat":33.748,"lon":-116.973,"pop":83861,"tz":"America/Los_Angeles"},{"id":2754064,"name":"Hilversum","local":"Хилверсюм","country":"NL","lat":52.223,"lon":5.176,"pop":83640,"tz":"Europe/Amsterdam"},{"id":4159050,"name":"Homestead","local":"Хомстед","country":"US","lat":25.469,"lon":-80.478,"pop":80737,"tz":"America/New_York"},{"id":1863183,"name":"Hanno","local":"Ханно","country":"JP","lat":35.852,"lon":139.318,"pop":80361,"tz":"Asia/Tokyo"},{"id":2470656,"name":"La Goulette","local":"Хальк-эль-Уэд","country":"TN","lat":36.819,"lon":10.306,"pop":79795,"tz":"Africa/Tunis"},{"id":1862198,"name":"Honjo","local":"Хондзё","country":"JP","lat":36.238,"lon":139.19,"pop":78569,"tz":"Asia/Tokyo"},{"id":318137,"name":"Hakkari","local":"Хаккари","country":"TR","lat":37.574,"lon":43.741,"pop":77699,"tz":"Europe/Istanbul"},{"id":2796491,"name":"Hasselt","local":"Хасселт","country":"BE","lat":50.931,"lon":5.338,"pop":77651,"tz":"Europe/Brussels"},{"id":4921100,"name":"Hammond","local":"Хаммонд","country":"US","lat":41.583,"lon":-87.5,"pop":77614,"tz":"America/Chicago"},{"id":2036653,"name":"Hunchun","local":"Хуньчунь","country":"CN","lat":42.867,"lon":130.357,"pop":77028,"tz":"Asia/Shanghai"},{"id":2470384,"name":"Houmt Souk","local":"Хумт-Сук","country":"TN","lat":33.876,"lon":10.857,"pop":75904,"tz":"Africa/Tunis"},{"id":2646504,"name":"Hove","local":"Хов","country":"GB","lat":50.831,"lon":-0.167,"pop":75174,"tz":"Europe/London"},{"id":2754447,"name":"Helmond","local":"Хелмонд","country":"NL","lat":51.482,"lon":5.661,"pop":74740,"tz":"Europe/Amsterdam"},{"id":3855065,"name":"General Roca","local":"Хенераль","country":"AR","lat":-39.033,"lon":-67.583,"pop":73212,"tz":"America/Argentina/Salta"},{"id":1862912,"name":"Hekinan","local":"Хекинан","country":"JP","lat":34.883,"lon":136.983,"pop":72458,"tz":"Asia/Tokyo"},{"id":1137168,"name":"Khanabad","local":"Ханабад","country":"AF","lat":36.683,"lon":69.113,"pop":71531,"tz":"Asia/Kabul"},{"id":2708365,"name":"Halmstad","local":"Хальмстад","country":"SE","lat":56.674,"lon":12.857,"pop":70480,"tz":"Europe/Stockholm"},{"id":1160571,"name":"Khash","local":"Хаш","country":"IR","lat":28.221,"lon":61.216,"pop":69603,"tz":"Asia/Tehran"},{"id":675918,"name":"Hunedoara","local":"Хунедоара","country":"RO","lat":45.75,"lon":22.9,"pop":69136,"tz":"Europe/Bucharest"},{"id":2753638,"name":"Hoorn","local":"Хорн","country":"NL","lat":52.642,"lon":5.06,"pop":68852,"tz":"Europe/Amsterdam"},{"id":659180,"name":"Haemeenlinna","local":"Хямеэнлинна","country":"FI","lat":60.996,"lon":24.464,"pop":68473,"tz":"Europe/Helsinki"},{"id":6822214,"name":"Hashima","local":"Хасима","country":"JP","lat":35.329,"lon":136.681,"pop":67909,"tz":"Asia/Tokyo"},{"id":601339,"name":"Xo'jayli Shahri","local":"Ходжейли","country":"UZ","lat":42.409,"lon":59.445,"pop":67800,"tz":"Asia/Samarkand"},{"id":4696233,"name":"Harlingen","local":"Харлинген","country":"US","lat":26.191,"lon":-97.696,"pop":65774,"tz":"America/Chicago"},{"id":2905560,"name":"Herten","local":"Хертен","country":"DE","lat":51.596,"lon":7.144,"pop":65306,"tz":"Europe/Berlin"},{"id":2906121,"name":"Herford","local":"Херфорд","country":"DE","lat":52.115,"lon":8.673,"pop":64879,"tz":"Europe/Berlin"},{"id":1862373,"name":"Hita","local":"Хиты","country":"JP","lat":33.321,"lon":130.941,"pop":64874,"tz":"Asia/Tokyo"},{"id":730435,"name":"Haskovo","local":"Хасково","country":"BG","lat":41.934,"lon":25.556,"pop":64564,"tz":"Europe/Sofia"},{"id":374272,"name":"New Halfa","local":"Хальфа-эль-Джадида","country":"SD","lat":15.33,"lon":35.599,"pop":63589,"tz":"Africa/Khartoum"},{"id":294760,"name":"Hod HaSharon","local":"Ход-ха-Шарон","country":"IL","lat":32.159,"lon":34.893,"pop":63175,"tz":"Asia/Jerusalem"},{"id":1000543,"name":"Graaff Reinet","local":"Храфф-Рейнет","country":"ZA","lat":-32.252,"lon":24.531,"pop":62896,"tz":"Africa/Johannesburg"},{"id":4939085,"name":"Haverhill","local":"Хаверхилл","country":"US","lat":42.776,"lon":-71.077,"pop":62765,"tz":"America/New_York"},{"id":2619771,"name":"Horsens","local":"Хорсенс","country":"DK","lat":55.861,"lon":9.85,"pop":61074,"tz":"Europe/Copenhagen"},{"id":1863082,"name":"Hashimoto","local":"Хасимото","country":"JP","lat":34.317,"lon":135.617,"pop":61063,"tz":"Asia/Tokyo"},{"id":2647074,"name":"Hereford","local":"Херефорде","country":"GB","lat":52.057,"lon":-2.715,"pop":60415,"tz":"Europe/London"},{"id":774558,"name":"Chelm","local":"Хелм","country":"PL","lat":51.143,"lon":23.472,"pop":60231,"tz":"Europe/Warsaw"},{"id":1843841,"name":"Hwasun","local":"Хвасун","country":"KR","lat":35.061,"lon":126.987,"pop":59914,"tz":"Asia/Seoul"},{"id":4835654,"name":"Hamden","local":"Хамдэн","country":"US","lat":41.396,"lon":-72.897,"pop":59847,"tz":"America/New_York"},{"id":5358736,"name":"Huntington Park","local":"Хантингтон-Парк","country":"US","lat":33.982,"lon":-118.225,"pop":59430,"tz":"America/Los_Angeles"},{"id":260133,"name":"Chalkida","local":"Халкида","country":"GR","lat":38.464,"lon":23.603,"pop":59125,"tz":"Europe/Athens"},{"id":2130054,"name":"Kitahiroshima","local":"Хиросима","country":"JP","lat":42.976,"lon":141.567,"pop":58918,"tz":"Asia/Tokyo"},{"id":1863173,"name":"Hanyu","local":"Ханьюй","country":"JP","lat":36.167,"lon":139.533,"pop":58686,"tz":"Asia/Tokyo"},{"id":2911271,"name":"Hameln","local":"Хамельн","country":"DE","lat":52.104,"lon":9.356,"pop":58666,"tz":"Europe/Berlin"},{"id":1798082,"name":"Hongqiao","local":"Хунцяо","country":"CN","lat":26.768,"lon":112.108,"pop":58287,"tz":"Asia/Shanghai"},{"id":2754861,"name":"Hardenberg","local":"Харденберге","country":"NL","lat":52.576,"lon":6.619,"pop":57909,"tz":"Europe/Amsterdam"},{"id":96205,"name":"Halabja","local":"Халабджа","country":"IQ","lat":35.178,"lon":45.986,"pop":57333,"tz":"Asia/Baghdad"},{"id":1863310,"name":"Hamada","local":"Хамада","country":"JP","lat":34.883,"lon":132.083,"pop":57142,"tz":"Asia/Tokyo"},{"id":1269936,"name":"Hoskote","local":"Хоскоте","country":"IN","lat":13.071,"lon":77.798,"pop":56980,"tz":"Asia/Kolkata"},{"id":1177107,"name":"Haripur","local":"Харипур","country":"PK","lat":33.998,"lon":72.935,"pop":56977,"tz":"Asia/Karachi"},{"id":2909230,"name":"Hattingen","local":"Хаттинген","country":"DE","lat":51.399,"lon":7.186,"pop":56866,"tz":"Europe/Berlin"},{"id":2904795,"name":"Hilden","local":"Хильден","country":"DE","lat":51.168,"lon":6.931,"pop":56565,"tz":"Europe/Berlin"},{"id":2108502,"name":"Honiara","local":"Хониара","country":"SB","lat":-9.433,"lon":159.95,"pop":56298,"tz":"Pacific/Guadalcanal"},{"id":706466,"name":"Khartsyzk","local":"Харцызск","country":"UA","lat":48.042,"lon":38.147,"pop":56182,"tz":"Europe/Kyiv"},{"id":4628735,"name":"Hendersonville","local":"Хендерсонвил","country":"US","lat":36.305,"lon":-86.62,"pop":56018,"tz":"America/Chicago"},{"id":5355180,"name":"Hanford","local":"Хэнфорд","country":"US","lat":36.327,"lon":-119.646,"pop":55659,"tz":"America/Los_Angeles"},{"id":5120478,"name":"Hempstead","local":"Хемпстед","country":"US","lat":40.706,"lon":-73.619,"pop":55547,"tz":"America/New_York"},{"id":6822161,"name":"Hidaka","local":"Хидака","country":"JP","lat":35.917,"lon":139.362,"pop":55294,"tz":"Asia/Tokyo"},{"id":2647639,"name":"Halesowen","local":"Хейлсовен","country":"GB","lat":52.449,"lon":-2.049,"pop":55265,"tz":"Europe/London"},{"id":3618929,"name":"Jinotega","local":"Хинотега","country":"NI","lat":13.091,"lon":-86.002,"pop":55000,"tz":"America/Managua"},{"id":5356868,"name":"Highland","local":"Хайланд","country":"US","lat":34.128,"lon":-117.209,"pop":54854,"tz":"America/Los_Angeles"},{"id":2646329,"name":"Huyton","local":"Хейтон","country":"GB","lat":53.411,"lon":-2.839,"pop":54738,"tz":"Europe/London"},{"id":2897216,"name":"Huerth","local":"Хюрт","country":"DE","lat":50.871,"lon":6.868,"pop":54678,"tz":"Europe/Berlin"},{"id":5354819,"name":"Hacienda Heights","local":"Хасиенда-Хайтс","country":"US","lat":33.993,"lon":-117.969,"pop":54038,"tz":"America/Los_Angeles"},{"id":260114,"name":"Chania","local":"Ханья","country":"GR","lat":35.511,"lon":24.029,"pop":53910,"tz":"Europe/Athens"},{"id":5099133,"name":"Hoboken","local":"Хобокен","country":"US","lat":40.744,"lon":-74.032,"pop":53635,"tz":"America/New_York"},{"id":2619528,"name":"Hvidovre","local":"Хвидовре","country":"DK","lat":55.643,"lon":12.477,"pop":53527,"tz":"Europe/Copenhagen"},{"id":4472370,"name":"Huntersville","local":"Хантерсвил","country":"US","lat":35.411,"lon":-80.843,"pop":52704,"tz":"America/New_York"},{"id":4763231,"name":"Harrisonburg","local":"Харисонбург","country":"US","lat":38.45,"lon":-78.869,"pop":52538,"tz":"America/New_York"},{"id":3696150,"name":"Jaen","local":"Хаэн","country":"PE","lat":-5.707,"lon":-78.808,"pop":52493,"tz":"America/Lima"},{"id":6354957,"name":"Hervey Bay","local":"Харви-Бей","country":"AU","lat":-25.288,"lon":152.769,"pop":52230,"tz":"Australia/Brisbane"},{"id":2646557,"name":"Horsham","local":"Хоршэм","country":"GB","lat":51.063,"lon":-0.328,"pop":51472,"tz":"Europe/London"},{"id":1896348,"name":"Hikari","local":"Хикари","country":"JP","lat":33.955,"lon":131.95,"pop":51040,"tz":"Asia/Tokyo"},{"id":1269873,"name":"Hunsur","local":"Хунсур","country":"IN","lat":12.304,"lon":76.293,"pop":50865,"tz":"Asia/Kolkata"},{"id":2620425,"name":"Herning","local":"Хернинг","country":"DK","lat":56.136,"lon":8.977,"pop":50565,"tz":"Europe/Copenhagen"},{"id":4558523,"name":"Havertown","local":"Хейвертаун","country":"US","lat":39.981,"lon":-75.309,"pop":50430,"tz":"America/New_York"},{"id":2907851,"name":"Heidenheim an der Brenz","local":"Хайденхайм-ан-дер-Бренц","country":"DE","lat":48.678,"lon":10.152,"pop":50067,"tz":"Europe/Berlin"},{"id":2902768,"name":"Hof","local":"Хоф","country":"DE","lat":50.313,"lon":11.913,"pop":49239,"tz":"Europe/Berlin"},{"id":4809537,"name":"Huntington","local":"Хантингтон","country":"US","lat":38.419,"lon":-82.445,"pop":48638,"tz":"America/New_York"},{"id":2906376,"name":"Hennef (Sieg)","local":"Хеннеф","country":"DE","lat":50.776,"lon":7.283,"pop":48002,"tz":"Europe/Berlin"},{"id":1177278,"name":"Hala","local":"Хала","country":"PK","lat":25.815,"lon":68.422,"pop":47915,"tz":"Asia/Karachi"},{"id":2470588,"name":"Hammam-Lif","local":"Хаммам-Лиф","country":"TN","lat":36.729,"lon":10.342,"pop":47760,"tz":"Africa/Tunis"},{"id":2112758,"name":"Higashine","local":"Хигасине","country":"JP","lat":38.439,"lon":140.401,"pop":47682,"tz":"Asia/Tokyo"},{"id":2619856,"name":"Horsholm","local":"Херсхольм","country":"DK","lat":55.881,"lon":12.501,"pop":47680,"tz":"Europe/Copenhagen"},{"id":2754659,"name":"Heerhugowaard","local":"Херхюговард","country":"NL","lat":52.671,"lon":4.849,"pop":47580,"tz":"Europe/Amsterdam"},{"id":2905455,"name":"Herzogenrath","local":"Херцогенрат","country":"DE","lat":50.869,"lon":6.093,"pop":47381,"tz":"Europe/Berlin"},{"id":4429295,"name":"Hattiesburg","local":"Хатисберг","country":"US","lat":31.327,"lon":-89.29,"pop":46805,"tz":"America/Chicago"},{"id":3077685,"name":"Chomutov","local":"Хомутов","country":"CZ","lat":50.46,"lon":13.418,"pop":46771,"tz":"Europe/Prague"},{"id":6862586,"name":"Hokuto","local":"Хокуто","country":"JP","lat":41.816,"lon":140.635,"pop":46083,"tz":"Asia/Tokyo"},{"id":2112688,"name":"Hokota","local":"Хокота","country":"JP","lat":36.15,"lon":140.517,"pop":45953,"tz":"Asia/Tokyo"},{"id":2647317,"name":"Havant","local":"Хавант","country":"GB","lat":50.857,"lon":-0.986,"pop":45574,"tz":"Europe/London"},{"id":2646867,"name":"Hinckley","local":"Хинкли","country":"GB","lat":52.539,"lon":-1.376,"pop":45249,"tz":"Europe/London"},{"id":5098706,"name":"Hackensack","local":"Хакенсак","country":"US","lat":40.886,"lon":-74.043,"pop":44834,"tz":"America/New_York"},{"id":3680387,"name":"Jamundi","local":"Хамунди","country":"CO","lat":3.261,"lon":-76.535,"pop":44833,"tz":"America/Bogota"},{"id":1863418,"name":"Hagi","local":"Хаги","country":"JP","lat":34.4,"lon":131.417,"pop":44626,"tz":"Asia/Tokyo"},{"id":2494029,"name":"Hassi Messaoud","local":"Хасси-Мессауд","country":"DZ","lat":31.68,"lon":6.073,"pop":44478,"tz":"Africa/Algiers"},{"id":4695912,"name":"Haltom City","local":"Холтом Сити","country":"US","lat":32.8,"lon":-97.269,"pop":44206,"tz":"America/Chicago"},{"id":719965,"name":"Hodmezovasarhely","local":"Ходмезевашархей","country":"HU","lat":46.417,"lon":20.333,"pop":44009,"tz":"Europe/Budapest"},{"id":2898304,"name":"Hoyerswerda","local":"Хойерсверда","country":"DE","lat":51.438,"lon":14.235,"pop":43681,"tz":"Europe/Berlin"},{"id":75337,"name":"Hajjah","local":"Хадж","country":"YE","lat":15.694,"lon":43.606,"pop":43549,"tz":"Asia/Aden"},{"id":656913,"name":"Hyvinge","local":"Хювинкяя","country":"FI","lat":60.633,"lon":24.867,"pop":43515,"tz":"Europe/Helsinki"},{"id":3433787,"name":"General Pacheco","local":"Хенераль-Пачеко","country":"AR","lat":-34.453,"lon":-58.643,"pop":43287,"tz":"America/Argentina/Buenos_Aires"},{"id":5855927,"name":"Hilo","local":"Хило","country":"US","lat":19.73,"lon":-155.091,"pop":43263,"tz":"Pacific/Honolulu"},{"id":2754669,"name":"Heerenveen","local":"Херенвен","country":"NL","lat":52.959,"lon":5.919,"pop":43094,"tz":"Europe/Amsterdam"},{"id":4004024,"name":"Jerez de Garcia Salinas","local":"Херес-де-Гарсия-Салинас","country":"MX","lat":22.65,"lon":-102.99,"pop":43064,"tz":"America/Mexico_City"},{"id":372527,"name":"Khashm al Qirbah","local":"Хашм-эль-Кирба","country":"SD","lat":14.967,"lon":35.917,"pop":42900,"tz":"Africa/Khartoum"},{"id":2470579,"name":"Hammam Sousse","local":"Хаммам Сус","country":"TN","lat":35.861,"lon":10.603,"pop":42691,"tz":"Africa/Tunis"},{"id":2647349,"name":"Hatfield","local":"Хатфилд","country":"GB","lat":51.763,"lon":-0.224,"pop":41677,"tz":"Europe/London"},{"id":4273299,"name":"Hutchinson","local":"Хатчинсон","country":"US","lat":38.061,"lon":-97.93,"pop":41569,"tz":"America/Chicago"},{"id":5120656,"name":"Hicksville","local":"Хиксвилла","country":"US","lat":40.768,"lon":-73.525,"pop":41547,"tz":"America/New_York"},{"id":2907201,"name":"Heinsberg","local":"Хайнсберг","country":"DE","lat":51.064,"lon":6.1,"pop":41505,"tz":"Europe/Berlin"},{"id":8315400,"name":"Holloway","local":"Холлоуэй","country":"GB","lat":51.552,"lon":-0.125,"pop":41329,"tz":"Europe/London"},{"id":4699540,"name":"Huntsville","local":"Хантсвилл","country":"US","lat":30.724,"lon":-95.551,"pop":40938,"tz":"America/Chicago"},{"id":1862230,"name":"Hondomachi-hondo","local":"Хондо","country":"JP","lat":32.46,"lon":130.167,"pop":40787,"tz":"Asia/Tokyo"},{"id":4939783,"name":"Holyoke","local":"Холиок","country":"US","lat":42.204,"lon":-72.616,"pop":40684,"tz":"America/New_York"},{"id":291696,"name":"Khawr Fakkan","local":"Хор-Факкан","country":"AE","lat":25.331,"lon":56.342,"pop":40677,"tz":"Asia/Dubai"},{"id":4581832,"name":"Hilton Head Island","local":"Хилтон-Хед-Айленд","country":"US","lat":32.194,"lon":-80.738,"pop":40512,"tz":"America/New_York"},{"id":1176995,"name":"Havelian","local":"Хавелиан","country":"PK","lat":34.053,"lon":73.16,"pop":40481,"tz":"Asia/Karachi"},{"id":4357141,"name":"Hagerstown","local":"Хейгерстаун","country":"US","lat":39.642,"lon":-77.72,"pop":40432,"tz":"America/New_York"},{"id":4470778,"name":"Hickory","local":"Хикори","country":"US","lat":35.733,"lon":-81.341,"pop":40374,"tz":"America/New_York"},{"id":3153623,"name":"Haugesund","local":"Хаугезунд","country":"NO","lat":59.414,"lon":5.268,"pop":40321,"tz":"Europe/Oslo"},{"id":1174357,"name":"Khairpur","local":"Хайрпура","country":"PK","lat":28.064,"lon":69.704,"pop":40083,"tz":"Asia/Karachi"},{"id":706488,"name":"Khanzhenkove","local":"Ханженкове","country":"UA","lat":48.094,"lon":38.076,"pop":40007,"tz":"Europe/Kyiv"},{"id":3101547,"name":"Chrzanow","local":"Хшанув","country":"PL","lat":50.135,"lon":19.402,"pop":39973,"tz":"Europe/Warsaw"},{"id":2898111,"name":"Hueckelhoven","local":"Хюккельхофен","country":"DE","lat":51.056,"lon":6.227,"pop":39828,"tz":"Europe/Berlin"},{"id":889942,"name":"Hwange","local":"Хванге","country":"ZW","lat":-18.364,"lon":26.499,"pop":39750,"tz":"Africa/Harare"},{"id":2911665,"name":"Halberstadt","local":"Хальберштадт","country":"DE","lat":51.896,"lon":11.056,"pop":39729,"tz":"Europe/Berlin"},{"id":1710389,"name":"Jaen","local":"Хаэн","country":"PH","lat":15.328,"lon":120.919,"pop":39700,"tz":"Asia/Manila"},{"id":4157898,"name":"Hallandale Beach","local":"Халландейл-Бич","country":"US","lat":25.981,"lon":-80.148,"pop":39488,"tz":"America/New_York"},{"id":2754697,"name":"Heemskerk","local":"Хеемскерк","country":"NL","lat":52.511,"lon":4.672,"pop":39191,"tz":"Europe/Amsterdam"},{"id":4699575,"name":"Hurst","local":"Херст","country":"US","lat":32.823,"lon":-97.171,"pop":39016,"tz":"America/Chicago"},{"id":3101672,"name":"Chojnice","local":"Хойнице","country":"PL","lat":53.696,"lon":17.557,"pop":38789,"tz":"Europe/Warsaw"},{"id":2753719,"name":"Hoogeveen","local":"Хоогевеен","country":"NL","lat":52.722,"lon":6.476,"pop":38754,"tz":"Europe/Amsterdam"},{"id":5471578,"name":"Hobbs","local":"Хоббс","country":"US","lat":32.703,"lon":-103.136,"pop":38416,"tz":"America/Denver"},{"id":4895066,"name":"Hanover Park","local":"Хановер Парк","country":"US","lat":41.999,"lon":-88.145,"pop":38333,"tz":"America/Chicago"},{"id":1862352,"name":"Hitoyoshi","local":"Хитоёси","country":"JP","lat":32.217,"lon":130.75,"pop":38006,"tz":"Asia/Tokyo"},{"id":585915,"name":"Khirdalan","local":"Хырдалан","country":"AZ","lat":40.448,"lon":49.755,"pop":37949,"tz":"Asia/Baku"},{"id":2898917,"name":"Horn","local":"Хорн","country":"DE","lat":53.554,"lon":10.09,"pop":37903,"tz":"Europe/Berlin"},{"id":2796153,"name":"Heist-op-den-Berg","local":"Хајст оп ден Берг","country":"BE","lat":51.075,"lon":4.728,"pop":37873,"tz":"Europe/Brussels"},{"id":2911395,"name":"Haltern am See","local":"Хальтерне","country":"DE","lat":51.743,"lon":7.182,"pop":37845,"tz":"Europe/Berlin"},{"id":2902533,"name":"Hofheim am Taunus","local":"Хофхайм-ам-Таунус","country":"DE","lat":50.09,"lon":8.449,"pop":37750,"tz":"Europe/Berlin"},{"id":3696057,"name":"Juanjui","local":"Хуанхуи","country":"PE","lat":-7.177,"lon":-76.728,"pop":37715,"tz":"America/Lima"},{"id":2906595,"name":"Hemer","local":"Хемер","country":"DE","lat":51.387,"lon":7.77,"pop":37502,"tz":"Europe/Berlin"},{"id":584717,"name":"Xacmaz","local":"Хачмас","country":"AZ","lat":41.464,"lon":48.806,"pop":37175,"tz":"Asia/Baku"},{"id":3595248,"name":"Jacaltenango","local":"Хакальтенанго","country":"GT","lat":15.667,"lon":-91.712,"pop":37171,"tz":"America/Guatemala"},{"id":4581833,"name":"Hilton Head","local":"Хилтон-Хед-Айленд","country":"US","lat":32.216,"lon":-80.753,"pop":37099,"tz":"America/New_York"},{"id":1563683,"name":"Hong Linh","local":"Хонглинь","country":"VN","lat":18.529,"lon":105.706,"pop":36940,"tz":"Asia/Bangkok"},{"id":4115412,"name":"Hot Springs","local":"Хот-Спрингс","country":"US","lat":34.504,"lon":-93.055,"pop":35635,"tz":"America/Chicago"},{"id":312114,"name":"Hinis","local":"Хнус","country":"TR","lat":39.358,"lon":41.693,"pop":35472,"tz":"Europe/Istanbul"},{"id":2620320,"name":"Hillerod","local":"Хиллерод","country":"DK","lat":55.928,"lon":12.301,"pop":35357,"tz":"Europe/Copenhagen"},{"id":2646807,"name":"Hoddesdon","local":"Ходдсдон","country":"GB","lat":51.761,"lon":-0.011,"pop":35174,"tz":"Europe/London"},{"id":2620473,"name":"Helsingor","local":"Хельсингёр","country":"DK","lat":56.036,"lon":12.614,"pop":35048,"tz":"Europe/Copenhagen"},{"id":6695467,"name":"Hebbagodi","local":"Хебагоди","country":"IN","lat":12.826,"lon":77.681,"pop":34827,"tz":"Asia/Kolkata"},{"id":4328010,"name":"Houma","local":"Хоума","country":"US","lat":29.596,"lon":-90.72,"pop":34287,"tz":"America/Chicago"},{"id":2647248,"name":"Haywards Heath","local":"Хейуърдс Хийт","country":"GB","lat":50.998,"lon":-0.103,"pop":33845,"tz":"Europe/London"},{"id":4200671,"name":"Hinesville","local":"Хајнсвил","country":"US","lat":31.847,"lon":-81.596,"pop":33398,"tz":"America/New_York"},{"id":3077835,"name":"Cheb","local":"Хеб","country":"CZ","lat":50.08,"lon":12.374,"pop":32808,"tz":"Europe/Prague"},{"id":1580541,"name":"Hoi An","local":"Хойан","country":"VN","lat":15.879,"lon":108.335,"pop":32757,"tz":"Asia/Ho_Chi_Minh"},{"id":2898321,"name":"Hoexter","local":"Хёкстер","country":"DE","lat":51.775,"lon":9.382,"pop":32713,"tz":"Europe/Berlin"},{"id":2124615,"name":"Kholmsk","local":"Холмск","country":"RU","lat":47.046,"lon":142.049,"pop":32681,"tz":"Asia/Sakhalin"},{"id":2905826,"name":"Herrenberg","local":"Херренберг","country":"DE","lat":48.595,"lon":8.866,"pop":32649,"tz":"Europe/Berlin"},{"id":1270021,"name":"Hisua","local":"Хисуа","country":"IN","lat":24.834,"lon":85.417,"pop":32585,"tz":"Asia/Kolkata"},{"id":1270185,"name":"Hatta","local":"Хатта","country":"IN","lat":24.134,"lon":79.601,"pop":32465,"tz":"Asia/Kolkata"},{"id":4295251,"name":"Hopkinsville","local":"Хопкинсвилле","country":"US","lat":36.866,"lon":-87.491,"pop":32205,"tz":"America/Chicago"},{"id":5656882,"name":"Helena","local":"Хелена","country":"US","lat":46.593,"lon":-112.036,"pop":32091,"tz":"America/Denver"},{"id":2620046,"name":"Holstebro","local":"Хольстебро","country":"DK","lat":56.36,"lon":8.616,"pop":32072,"tz":"Europe/Copenhagen"},{"id":1862992,"name":"Hayama","local":"Хаяма","country":"JP","lat":35.277,"lon":139.577,"pop":31665,"tz":"Asia/Tokyo"},{"id":1266975,"name":"Kharagpur","local":"Харагпур","country":"IN","lat":25.124,"lon":86.556,"pop":31385,"tz":"Asia/Kolkata"},{"id":4471641,"name":"Holly Springs","local":"Холи Спрингс","country":"US","lat":35.651,"lon":-78.834,"pop":31377,"tz":"America/New_York"},{"id":1862555,"name":"Hirado","local":"Хирадо","country":"JP","lat":33.369,"lon":129.552,"pop":31192,"tz":"Asia/Tokyo"},{"id":6822206,"name":"Hirakawa","local":"Хиракава","country":"JP","lat":40.587,"lon":140.571,"pop":30938,"tz":"Asia/Tokyo"},{"id":96309,"name":"Hadithah","local":"Хадита","country":"IQ","lat":34.137,"lon":42.377,"pop":30925,"tz":"Asia/Baghdad"},{"id":5776008,"name":"Holladay","local":"Холадей","country":"US","lat":40.669,"lon":-111.825,"pop":30864,"tz":"America/Denver"},{"id":1221328,"name":"Khorugh","local":"Хорог","country":"TJ","lat":37.49,"lon":71.553,"pop":30500,"tz":"Asia/Dushanbe"},{"id":3504158,"name":"Jarabacoa","local":"Харабакоа","country":"DO","lat":19.117,"lon":-70.636,"pop":29983,"tz":"America/Santo_Domingo"},{"id":3416706,"name":"Hafnarfjoerdur","local":"Хабнарфьордюр","country":"IS","lat":64.067,"lon":-21.938,"pop":29971,"tz":"Atlantic/Reykjavik"},{"id":1516048,"name":"Khovd","local":"Ховд","country":"MN","lat":48.006,"lon":91.642,"pop":29800,"tz":"Asia/Hovd"},{"id":4895876,"name":"Highland Park","local":"Хайленд-Парк","country":"US","lat":42.182,"lon":-87.8,"pop":29743,"tz":"America/Chicago"},{"id":2646460,"name":"Hucknall","local":"Хъкнал","country":"GB","lat":53.033,"lon":-1.2,"pop":29728,"tz":"Europe/London"},{"id":2620147,"name":"Holbaek","local":"Хольбек","country":"DK","lat":55.718,"lon":11.713,"pop":29608,"tz":"Europe/Copenhagen"},{"id":3154084,"name":"Hamar","local":"Хамар","country":"NO","lat":60.794,"lon":11.068,"pop":29479,"tz":"Europe/Oslo"},{"id":2913195,"name":"Haan","local":"Хаан","country":"DE","lat":51.194,"lon":7.013,"pop":29431,"tz":"Europe/Berlin"},{"id":2516345,"name":"Xativa","local":"Хатива","country":"ES","lat":38.99,"lon":-0.519,"pop":29386,"tz":"Europe/Madrid"},{"id":4294494,"name":"Henderson","local":"Хендерсон","country":"US","lat":37.836,"lon":-87.59,"pop":28890,"tz":"America/Chicago"},{"id":2494548,"name":"Hammamet","local":"Хаммамет","country":"DZ","lat":35.449,"lon":7.952,"pop":28536,"tz":"Africa/Algiers"},{"id":706165,"name":"Khust","local":"Хуст","country":"UA","lat":48.172,"lon":23.298,"pop":28424,"tz":"Europe/Kyiv"},{"id":4921476,"name":"Hobart","local":"Хобарт","country":"US","lat":41.532,"lon":-87.255,"pop":28404,"tz":"America/Chicago"},{"id":1269943,"name":"Hosadurga","local":"Хосадурга","country":"IN","lat":13.796,"lon":76.284,"pop":28370,"tz":"Asia/Kolkata"},{"id":5120095,"name":"Harrison","local":"Харрисон","country":"US","lat":40.969,"lon":-73.713,"pop":28348,"tz":"America/New_York"},{"id":1926142,"name":"Hojo","local":"Ходзе","country":"JP","lat":33.977,"lon":132.778,"pop":27992,"tz":"Asia/Tokyo"},{"id":1581047,"name":"Ha Tinh","local":"Хатинь","country":"VN","lat":18.343,"lon":105.906,"pop":27728,"tz":"Asia/Bangkok"},{"id":706380,"name":"Khmilnyk","local":"Хмельник","country":"UA","lat":49.558,"lon":27.957,"pop":27707,"tz":"Europe/Kyiv"},{"id":2907585,"name":"Heiligenhaus","local":"Хайлигенхаус","country":"DE","lat":51.327,"lon":6.971,"pop":27700,"tz":"Europe/Berlin"},{"id":334529,"name":"Huruta","local":"Хурута","country":"ET","lat":8.15,"lon":39.35,"pop":27500,"tz":"Africa/Addis_Ababa"},{"id":2911051,"name":"Hamminkeln","local":"Хамминкельн","country":"DE","lat":51.733,"lon":6.59,"pop":27433,"tz":"Europe/Berlin"},{"id":5120987,"name":"Holbrook","local":"Холбрук","country":"US","lat":40.812,"lon":-73.078,"pop":27195,"tz":"America/New_York"},{"id":3151770,"name":"Horten","local":"Хортен","country":"NO","lat":59.417,"lon":10.483,"pop":27178,"tz":"Europe/Oslo"},{"id":1513655,"name":"Haqqulobod","local":"Хаққулобод","country":"UZ","lat":40.917,"lon":72.117,"pop":26257,"tz":"Asia/Tashkent"},{"id":2906331,"name":"Hennigsdorf","local":"Хеннигсдорф","country":"DE","lat":52.636,"lon":13.204,"pop":26122,"tz":"Europe/Berlin"},{"id":4896691,"name":"Huntley","local":"Хантли","country":"US","lat":42.168,"lon":-88.428,"pop":26005,"tz":"America/Chicago"},{"id":2796542,"name":"Harelbeke","local":"Харелбеке","country":"BE","lat":50.853,"lon":3.309,"pop":25978,"tz":"Europe/Brussels"},{"id":2796009,"name":"Herentals","local":"Херенталс","country":"BE","lat":51.177,"lon":4.832,"pop":25912,"tz":"Europe/Brussels"},{"id":2647044,"name":"Hertford","local":"Хертфорд","country":"GB","lat":51.796,"lon":-0.079,"pop":25847,"tz":"Europe/London"},{"id":4067927,"name":"Homewood","local":"Хомвуд","country":"US","lat":33.472,"lon":-86.801,"pop":25708,"tz":"America/Chicago"},{"id":2516255,"name":"Jumilla","local":"Хумилье","country":"ES","lat":38.479,"lon":-1.325,"pop":25685,"tz":"Europe/Madrid"},{"id":2906152,"name":"Herdecke","local":"Хердекке","country":"DE","lat":51.4,"lon":7.436,"pop":25618,"tz":"Europe/Berlin"},{"id":1266809,"name":"Kheda","local":"Хеда","country":"IN","lat":22.752,"lon":72.685,"pop":25575,"tz":"Asia/Kolkata"},{"id":2754692,"name":"Heemstede","local":"Хемстеде","country":"NL","lat":52.35,"lon":4.623,"pop":25562,"tz":"Europe/Amsterdam"},{"id":2906676,"name":"Helmstedt","local":"Хельмштедт","country":"DE","lat":52.228,"lon":11.01,"pop":25515,"tz":"Europe/Berlin"},{"id":2647303,"name":"Hawarden","local":"Хаварден","country":"GB","lat":53.185,"lon":-3.026,"pop":25513,"tz":"Europe/London"},{"id":6690863,"name":"Hornchurch","local":"Хорнчурч","country":"GB","lat":51.557,"lon":0.217,"pop":25470,"tz":"Europe/London"},{"id":2899101,"name":"Horb am Neckar","local":"Хорб-ам-Неккар","country":"DE","lat":48.444,"lon":8.691,"pop":25424,"tz":"Europe/Berlin"},{"id":658120,"name":"Hervanta","local":"Херванта","country":"FI","lat":61.448,"lon":23.853,"pop":25231,"tz":"Europe/Helsinki"},{"id":4895298,"name":"Harvey","local":"Харви","country":"US","lat":41.61,"lon":-87.647,"pop":25194,"tz":"America/Chicago"},{"id":6822186,"name":"Hachimantai","local":"Хатимантай","country":"JP","lat":39.9,"lon":141.13,"pop":25076,"tz":"Asia/Tokyo"},{"id":2707684,"name":"Haernoesand","local":"Хернёсанд","country":"SE","lat":62.632,"lon":17.938,"pop":25012,"tz":"Europe/Stockholm"},{"id":2753996,"name":"Hoensbroek","local":"Хунсбрук","country":"NL","lat":50.924,"lon":5.925,"pop":25000,"tz":"Europe/Amsterdam"},{"id":5069802,"name":"Hastings","local":"Хейстингс","country":"US","lat":40.586,"lon":-98.388,"pop":24924,"tz":"America/Chicago"},{"id":5193011,"name":"Hazleton","local":"Хейзлтон","country":"US","lat":40.958,"lon":-75.975,"pop":24825,"tz":"America/New_York"},{"id":4763793,"name":"Herndon","local":"Херндон","country":"US","lat":38.97,"lon":-77.386,"pop":24568,"tz":"America/New_York"},{"id":4004153,"name":"Jalostotitlan","local":"Халостотитлан","country":"MX","lat":21.168,"lon":-102.461,"pop":24423,"tz":"America/Mexico_City"},{"id":1270482,"name":"Haliyal","local":"Халиял","country":"IN","lat":15.329,"lon":74.756,"pop":24238,"tz":"Asia/Kolkata"},{"id":2910278,"name":"Harsewinkel","local":"Харзевинкель","country":"DE","lat":51.962,"lon":8.228,"pop":24207,"tz":"Europe/Berlin"},{"id":2755030,"name":"Haaksbergen","local":"Хааксберген","country":"NL","lat":52.157,"lon":6.739,"pop":24137,"tz":"Europe/Amsterdam"},{"id":3357114,"name":"Grootfontein","local":"Хрутфонтейн","country":"NA","lat":-19.573,"lon":18.1,"pop":24099,"tz":"Africa/Windhoek"},{"id":3618954,"name":"Jalapa","local":"Халапа","country":"NI","lat":13.922,"lon":-86.123,"pop":24037,"tz":"America/Managua"},{"id":259973,"name":"Chios","local":"Хиос","country":"GR","lat":38.369,"lon":26.137,"pop":23953,"tz":"Europe/Athens"},{"id":613988,"name":"Khashuri","local":"Хашури","country":"GE","lat":41.997,"lon":43.599,"pop":23949,"tz":"Asia/Tbilisi"},{"id":4158482,"name":"Hialeah Gardens","local":"Хајалија Гарденс","country":"US","lat":25.865,"lon":-80.325,"pop":23926,"tz":"America/New_York"},{"id":720276,"name":"Hajduszoboszlo","local":"Хайдусобосло","country":"HU","lat":47.45,"lon":21.4,"pop":23781,"tz":"Europe/Budapest"},{"id":609404,"name":"Khromtau","local":"Хромтау","country":"KZ","lat":50.252,"lon":58.436,"pop":23715,"tz":"Asia/Aqtobe"},{"id":3077539,"name":"Chrudim","local":"Хрудим","country":"CZ","lat":49.951,"lon":15.796,"pop":23630,"tz":"Europe/Prague"},{"id":2905457,"name":"Herzogenaurach","local":"Херцогенаурах","country":"DE","lat":49.568,"lon":10.886,"pop":23319,"tz":"Europe/Berlin"},{"id":4921402,"name":"Highland","local":"Хайленд","country":"US","lat":41.554,"lon":-87.452,"pop":22936,"tz":"America/Chicago"},{"id":2796637,"name":"Hamme","local":"Хамме","country":"BE","lat":51.098,"lon":4.137,"pop":22891,"tz":"Europe/Brussels"},{"id":2660305,"name":"Horgen","local":"Хорген","country":"CH","lat":47.26,"lon":8.598,"pop":22662,"tz":"Europe/Zurich"},{"id":5029500,"name":"Hastings","local":"Хейстингс","country":"US","lat":44.743,"lon":-92.852,"pop":22554,"tz":"America/Chicago"},{"id":2163137,"name":"Hornsby","local":"Хорнсби","country":"AU","lat":-33.702,"lon":151.099,"pop":22462,"tz":"Australia/Sydney"},{"id":4158865,"name":"Holiday","local":"Холидей","country":"US","lat":28.188,"lon":-82.74,"pop":22403,"tz":"America/New_York"},{"id":4764826,"name":"Hopewell","local":"Хопуэлла","country":"US","lat":37.304,"lon":-77.287,"pop":22378,"tz":"America/New_York"},{"id":771158,"name":"Hajnowka","local":"Хайнувка","country":"PL","lat":52.743,"lon":23.581,"pop":22157,"tz":"Europe/Warsaw"},{"id":2620964,"name":"Haderslev","local":"Хадерслев","country":"DK","lat":55.249,"lon":9.488,"pop":22011,"tz":"Europe/Copenhagen"},{"id":4995197,"name":"Hamtramck","local":"Хамтрамк","country":"US","lat":42.393,"lon":-83.05,"pop":22002,"tz":"America/Detroit"},{"id":3154209,"name":"Halden","local":"Халден","country":"NO","lat":59.125,"lon":11.388,"pop":21970,"tz":"Europe/Oslo"},{"id":2754454,"name":"Hellevoetsluis","local":"Хеллевутслёйс","country":"NL","lat":51.833,"lon":4.133,"pop":21927,"tz":"Europe/Amsterdam"},{"id":2901588,"name":"Hohen Neuendorf","local":"Хоэн-Нойендорф","country":"DE","lat":52.676,"lon":13.278,"pop":21893,"tz":"Europe/Berlin"},{"id":550846,"name":"Khadyzhensk","local":"Хадыженск","country":"RU","lat":44.426,"lon":39.536,"pop":21685,"tz":"Europe/Moscow"},{"id":8374209,"name":"Hura","local":"Хура","country":"IL","lat":31.301,"lon":34.936,"pop":21558,"tz":"Asia/Jerusalem"},{"id":2704136,"name":"Huskvarna","local":"Хускварна","country":"SE","lat":57.786,"lon":14.302,"pop":21500,"tz":"Europe/Stockholm"},{"id":745714,"name":"Havza","local":"Хавза","country":"TR","lat":40.971,"lon":35.662,"pop":21500,"tz":"Europe/Istanbul"},{"id":2753706,"name":"Hoogezand","local":"Хогезанд","country":"NL","lat":53.162,"lon":6.761,"pop":21480,"tz":"Europe/Amsterdam"},{"id":1218928,"name":"Hojambaz","local":"Ходжамбаз","country":"TM","lat":38.116,"lon":65.003,"pop":21454,"tz":"Asia/Ashgabat"},{"id":4272782,"name":"Hays","local":"Хейс","country":"US","lat":38.879,"lon":-99.327,"pop":21092,"tz":"America/Chicago"},{"id":3937733,"name":"Jauja","local":"Хауха","country":"PE","lat":-11.776,"lon":-75.497,"pop":21057,"tz":"America/Lima"},{"id":2754408,"name":"Hendrik-Ido-Ambacht","local":"Хендрик-Идо-Амбахт","country":"NL","lat":51.844,"lon":4.639,"pop":21027,"tz":"Europe/Amsterdam"},{"id":2899601,"name":"Holzminden","local":"Хольцминден","country":"DE","lat":51.828,"lon":9.445,"pop":20998,"tz":"Europe/Berlin"},{"id":3153823,"name":"Harstad","local":"Харстад","country":"NO","lat":68.798,"lon":16.542,"pop":20953,"tz":"Europe/Oslo"},{"id":5120228,"name":"Hauppauge","local":"Хопог","country":"US","lat":40.826,"lon":-73.203,"pop":20882,"tz":"America/New_York"},{"id":549373,"name":"Khot'kovo","local":"Хотьково","country":"RU","lat":56.257,"lon":37.995,"pop":20872,"tz":"Europe/Moscow"},{"id":2897132,"name":"Husum","local":"Хузум","country":"DE","lat":54.486,"lon":9.052,"pop":20841,"tz":"Europe/Berlin"},{"id":2909313,"name":"Hassloch","local":"Хаслох","country":"DE","lat":49.363,"lon":8.258,"pop":20779,"tz":"Europe/Berlin"},{"id":2904886,"name":"Hiddenhausen","local":"Хидденхаузен","country":"DE","lat":52.167,"lon":8.617,"pop":20771,"tz":"Europe/Berlin"},{"id":2647383,"name":"Harwich","local":"Харвич","country":"GB","lat":51.942,"lon":1.284,"pop":20723,"tz":"Europe/London"},{"id":2902852,"name":"Hockenheim","local":"Хоккенхайм","country":"DE","lat":49.323,"lon":8.552,"pop":20614,"tz":"Europe/Berlin"},{"id":2908032,"name":"Heide","local":"Хайде","country":"DE","lat":54.196,"lon":9.097,"pop":20599,"tz":"Europe/Berlin"},{"id":3101795,"name":"Chelmno","local":"Хелмно","country":"PL","lat":53.349,"lon":18.425,"pop":20576,"tz":"Europe/Warsaw"},{"id":4326868,"name":"Hammond","local":"Хаммонд","country":"US","lat":30.505,"lon":-90.463,"pop":20480,"tz":"America/Chicago"},{"id":2906199,"name":"Herborn","local":"Херборн","country":"DE","lat":50.681,"lon":8.304,"pop":20473,"tz":"Europe/Berlin"},{"id":657530,"name":"Hollola","local":"Холлола","country":"FI","lat":61.05,"lon":25.433,"pop":20405,"tz":"Europe/Helsinki"},{"id":4327047,"name":"Harvey","local":"Харви","country":"US","lat":29.904,"lon":-90.077,"pop":20348,"tz":"America/Chicago"},{"id":2911584,"name":"Haldensleben I","local":"Хальденслебен","country":"DE","lat":52.289,"lon":11.41,"pop":20294,"tz":"Europe/Berlin"},{"id":3051621,"name":"Hatvan","local":"Хатван","country":"HU","lat":47.667,"lon":19.683,"pop":20228,"tz":"Europe/Budapest"},{"id":2911964,"name":"Haiger","local":"Хайгер","country":"DE","lat":50.742,"lon":8.208,"pop":20218,"tz":"Europe/Berlin"},{"id":2905290,"name":"Hessisch Oldendorf","local":"Хессиш-Ольдендорф","country":"DE","lat":52.173,"lon":9.249,"pop":20129,"tz":"Europe/Berlin"},{"id":312899,"name":"Hadim","local":"Хадим","country":"TR","lat":36.988,"lon":32.457,"pop":20110,"tz":"Europe/Istanbul"},{"id":2904985,"name":"Heusweiler","local":"Хойсвайлер","country":"DE","lat":49.336,"lon":6.93,"pop":20006,"tz":"Europe/Berlin"},{"id":549424,"name":"Khosta","local":"Хоста","country":"RU","lat":43.515,"lon":39.868,"pop":20000,"tz":"Europe/Moscow"},{"id":2898603,"name":"Hoerstel","local":"Хёрстель","country":"DE","lat":52.298,"lon":7.584,"pop":19894,"tz":"Europe/Berlin"},{"id":5356521,"name":"Hermosa Beach","local":"Хермоса-Бич","country":"US","lat":33.862,"lon":-118.4,"pop":19860,"tz":"America/Los_Angeles"},{"id":5978765,"name":"Huntsville","local":"Хантсвилл","country":"CA","lat":45.333,"lon":-79.216,"pop":19816,"tz":"America/Toronto"},{"id":3101680,"name":"Chodziez","local":"Ходзеж","country":"PL","lat":52.995,"lon":16.92,"pop":19776,"tz":"Europe/Warsaw"},{"id":3199394,"name":"Herceg Novi","local":"Херцег-Нови","country":"ME","lat":42.453,"lon":18.538,"pop":19536,"tz":"Europe/Podgorica"},{"id":2908495,"name":"Hechingen","local":"Хехинген","country":"DE","lat":48.351,"lon":8.963,"pop":19400,"tz":"Europe/Berlin"},{"id":4896353,"name":"Homewood","local":"Хомвуд","country":"US","lat":41.557,"lon":-87.666,"pop":19373,"tz":"America/Chicago"},{"id":2707399,"name":"Haessleholm","local":"Хеслехольм","country":"SE","lat":56.159,"lon":13.766,"pop":19309,"tz":"Europe/Stockholm"},{"id":659169,"name":"Hamina","local":"Хамина","country":"FI","lat":60.57,"lon":27.198,"pop":19305,"tz":"Europe/Helsinki"},{"id":2796012,"name":"Herent","local":"Херент","country":"BE","lat":50.909,"lon":4.671,"pop":19218,"tz":"Europe/Brussels"},{"id":5098909,"name":"Hawthorne","local":"Хосорн","country":"US","lat":40.949,"lon":-74.154,"pop":19074,"tz":"America/New_York"},{"id":2904992,"name":"Heusenstamm","local":"Хойзенштамм","country":"DE","lat":50.056,"lon":8.801,"pop":19012,"tz":"Europe/Berlin"},{"id":730442,"name":"Harmanli","local":"Харманли","country":"BG","lat":41.932,"lon":25.902,"pop":18931,"tz":"Europe/Sofia"},{"id":770966,"name":"Hrubieszow","local":"Хрубешув","country":"PL","lat":50.805,"lon":23.893,"pop":18605,"tz":"Europe/Warsaw"},{"id":2795398,"name":"Hoogstraten","local":"Хогстратен","country":"BE","lat":51.4,"lon":4.76,"pop":18524,"tz":"Europe/Brussels"},{"id":4358821,"name":"Hyattsville","local":"Хайатсвилл","country":"US","lat":38.956,"lon":-76.946,"pop":18501,"tz":"America/New_York"},{"id":4066811,"name":"Helena","local":"Хелена","country":"US","lat":33.296,"lon":-86.844,"pop":18264,"tz":"America/Chicago"},{"id":550671,"name":"Kharabali","local":"Харабали","country":"RU","lat":47.408,"lon":47.254,"pop":18223,"tz":"Europe/Astrakhan"},{"id":5121636,"name":"Huntington","local":"Хантингтон","country":"US","lat":40.868,"lon":-73.426,"pop":18046,"tz":"America/New_York"},{"id":4581023,"name":"Hanahan","local":"Ханахан","country":"US","lat":32.919,"lon":-80.022,"pop":17997,"tz":"America/New_York"},{"id":2899538,"name":"Holzwickede","local":"Хольцвиккеде","country":"DE","lat":51.5,"lon":7.633,"pop":17821,"tz":"Europe/Berlin"},{"id":658288,"name":"Heinola","local":"Хейнола","country":"FI","lat":61.206,"lon":26.038,"pop":17746,"tz":"Europe/Helsinki"},{"id":2911384,"name":"Halver","local":"Хальфер","country":"DE","lat":51.186,"lon":7.498,"pop":17650,"tz":"Europe/Berlin"},{"id":5030670,"name":"Hopkins","local":"Хопкинс","country":"US","lat":44.925,"lon":-93.463,"pop":17591,"tz":"America/Chicago"},{"id":2913192,"name":"Haar","local":"Хар","country":"DE","lat":48.109,"lon":11.727,"pop":17560,"tz":"Europe/Berlin"},{"id":745530,"name":"Hopa","local":"Хопа","country":"TR","lat":41.39,"lon":41.42,"pop":17519,"tz":"Europe/Istanbul"},{"id":549741,"name":"Kholmskiy","local":"Холмская","country":"RU","lat":44.847,"lon":38.385,"pop":17494,"tz":"Europe/Moscow"},{"id":658629,"name":"Haukipudas","local":"Хаукипудас","country":"FI","lat":65.177,"lon":25.352,"pop":17298,"tz":"Europe/Helsinki"},{"id":2907545,"name":"Heilbad Heiligenstadt","local":"Хайльбад-Хайлигенштадт","country":"DE","lat":51.378,"lon":10.137,"pop":17230,"tz":"Europe/Berlin"},{"id":4921725,"name":"Huntington","local":"Хантингтон","country":"US","lat":40.883,"lon":-85.497,"pop":17095,"tz":"America/Indiana/Indianapolis"},{"id":745527,"name":"Horasan","local":"Хорасан","country":"TR","lat":40.039,"lon":42.164,"pop":17067,"tz":"Europe/Istanbul"},{"id":2903175,"name":"Hochheim am Main","local":"Хоххайм-ам-Майн","country":"DE","lat":50.014,"lon":8.352,"pop":17027,"tz":"Europe/Berlin"},{"id":4939647,"name":"Holden","local":"Хоулдэн","country":"US","lat":42.352,"lon":-71.863,"pop":17016,"tz":"America/New_York"},{"id":2163055,"name":"Horsham","local":"Хоршем","country":"AU","lat":-36.711,"lon":142.2,"pop":16985,"tz":"Australia/Melbourne"},{"id":4938836,"name":"Hanover","local":"Ханоувэ","country":"US","lat":42.113,"lon":-70.812,"pop":16906,"tz":"America/New_York"},{"id":617993,"name":"Hincesti","local":"Хынчешты","country":"MD","lat":46.831,"lon":28.59,"pop":16900,"tz":"Europe/Chisinau"},{"id":8299619,"name":"Hayling Island","local":"Хејлинг","country":"GB","lat":50.784,"lon":-0.969,"pop":16887,"tz":"Europe/London"},{"id":2899676,"name":"Holzkirchen","local":"Хольцкирхен","country":"DE","lat":47.877,"lon":11.702,"pop":16770,"tz":"Europe/Berlin"},{"id":2907887,"name":"Heidenau","local":"Хайденау","country":"DE","lat":50.972,"lon":13.867,"pop":16756,"tz":"Europe/Berlin"},{"id":2661228,"name":"Cham","local":"Хам","country":"CH","lat":47.182,"lon":8.464,"pop":16719,"tz":"Europe/Zurich"},{"id":4995664,"name":"Hazel Park","local":"Хазел Парк","country":"US","lat":42.463,"lon":-83.104,"pop":16597,"tz":"America/Detroit"},{"id":2901420,"name":"Hohenstein-Ernstthal","local":"Хоэнштайн-Эрнстталь","country":"DE","lat":50.801,"lon":12.713,"pop":16542,"tz":"Europe/Berlin"},{"id":2904808,"name":"Hilchenbach","local":"Хильхенбах","country":"DE","lat":50.997,"lon":8.111,"pop":16467,"tz":"Europe/Berlin"},{"id":2902559,"name":"Hofgeismar","local":"Хофгайсмар","country":"DE","lat":51.496,"lon":9.385,"pop":16444,"tz":"Europe/Berlin"},{"id":2898098,"name":"Hueckeswagen","local":"Хюккесваген","country":"DE","lat":51.15,"lon":7.345,"pop":16369,"tz":"Europe/Berlin"},{"id":2897436,"name":"Huenfeld","local":"Хюнфельд","country":"DE","lat":50.68,"lon":9.767,"pop":16323,"tz":"Europe/Berlin"},{"id":2775742,"name":"Hohenems","local":"Хоэнемс","country":"AT","lat":47.361,"lon":9.687,"pop":16317,"tz":"Europe/Vienna"},{"id":3855041,"name":"General Villegas","local":"Хенерал Вилегас","country":"AR","lat":-35.033,"lon":-63.015,"pop":16270,"tz":"America/Argentina/Buenos_Aires"},{"id":2911408,"name":"Halstenbek","local":"Хальстенбек","country":"DE","lat":53.633,"lon":9.839,"pop":16212,"tz":"Europe/Berlin"},{"id":5030005,"name":"Hibbing","local":"Хиббинг","country":"US","lat":47.427,"lon":-92.938,"pop":16204,"tz":"America/Chicago"},{"id":4471851,"name":"Hope Mills","local":"Хоуп Милс","country":"US","lat":34.97,"lon":-78.945,"pop":16163,"tz":"America/New_York"},{"id":2754817,"name":"Harlingen","local":"Харлинген","country":"NL","lat":53.175,"lon":5.422,"pop":16119,"tz":"Europe/Amsterdam"},{"id":2704613,"name":"Hudiksvall","local":"Худиксвалль","country":"SE","lat":61.727,"lon":17.106,"pop":16081,"tz":"Europe/Stockholm"},{"id":5029181,"name":"Ham Lake","local":"Хам-Лейк","country":"US","lat":45.25,"lon":-93.25,"pop":16062,"tz":"America/Chicago"},{"id":5193309,"name":"Hermitage","local":"Хермитиџ","country":"US","lat":41.233,"lon":-80.449,"pop":16028,"tz":"America/New_York"},{"id":2898364,"name":"Hovelhof","local":"Хёфельхоф","country":"DE","lat":51.817,"lon":8.65,"pop":15962,"tz":"Europe/Berlin"},{"id":2905206,"name":"Hettstedt","local":"Хетштедт","country":"DE","lat":51.65,"lon":11.511,"pop":15949,"tz":"Europe/Berlin"},{"id":2754837,"name":"Harenkarspel","local":"Харенкарспел","country":"NL","lat":52.734,"lon":4.777,"pop":15941,"tz":"Europe/Amsterdam"},{"id":1269990,"name":"Holalkere","local":"Холалкере","country":"IN","lat":14.043,"lon":76.185,"pop":15783,"tz":"Asia/Kolkata"},{"id":2660365,"name":"Herisau","local":"Херизау","country":"CH","lat":47.386,"lon":9.279,"pop":15744,"tz":"Europe/Zurich"},{"id":3101613,"name":"Choszczno","local":"Хощно","country":"PL","lat":53.169,"lon":15.421,"pop":15733,"tz":"Europe/Warsaw"},{"id":4699442,"name":"Humble","local":"Хамбл","country":"US","lat":29.999,"lon":-95.262,"pop":15665,"tz":"America/Chicago"},{"id":2898079,"name":"Hude","local":"Худе","country":"DE","lat":53.107,"lon":8.468,"pop":15567,"tz":"Europe/Berlin"},{"id":4429589,"name":"Hernando","local":"Хернандо","country":"US","lat":34.824,"lon":-89.994,"pop":15503,"tz":"America/Chicago"},{"id":5540831,"name":"Hurricane","local":"Харикејн","country":"US","lat":37.175,"lon":-113.29,"pop":15501,"tz":"America/Denver"},{"id":4558475,"name":"Hanover","local":"Хановер","country":"US","lat":39.801,"lon":-76.983,"pop":15496,"tz":"America/New_York"},{"id":5098863,"name":"Harrison","local":"Харрисон","country":"US","lat":40.746,"lon":-74.156,"pop":15474,"tz":"America/New_York"},{"id":3101787,"name":"Chelmza","local":"Хелмжа","country":"PL","lat":53.185,"lon":18.605,"pop":15403,"tz":"Europe/Warsaw"},{"id":4470566,"name":"Henderson","local":"Хендерсон","country":"US","lat":36.33,"lon":-78.399,"pop":15271,"tz":"America/New_York"},{"id":4294799,"name":"Highview","local":"Хајвју","country":"US","lat":38.143,"lon":-85.624,"pop":15167,"tz":"America/Kentucky/Louisville"},{"id":5523074,"name":"Hereford","local":"Херфорд","country":"US","lat":34.815,"lon":-102.399,"pop":15021,"tz":"America/Chicago"},{"id":4044012,"name":"Hagatna","local":"Хагатна","country":"GU","lat":13.476,"lon":144.749,"pop":1051,"tz":"Pacific/Guam"}]