[{"id":108410,"name":"Riyadh","local":"Эр-Рияд","country":"SA","lat":24.688,"lon":46.722,"pop":4205961,"tz":"Asia/Riyadh"},{"id":95446,"name":"Erbil","local":"Эрбиль","country":"IQ","lat":36.191,"lon":44.009,"pop":1612700,"tz":"Asia/Baghdad"},{"id":5946768,"name":"Edmonton","local":"Эдмонтон","country":"CA","lat":53.55,"lon":-113.469,"pop":1010899,"tz":"America/Edmonton"},{"id":2343279,"name":"Enugu","local":"Энугу","country":"NG","lat":6.441,"lon":7.499,"pop":950000,"tz":"Africa/Lagos"},{"id":292913,"name":"Al Ain City","local":"Эль-Айн","country":"AE","lat":24.192,"lon":55.761,"pop":846747,"tz":"Asia/Dubai"},{"id":4004898,"name":"Hermosillo","local":"Эрмосильо","country":"MX","lat":29.089,"lon":-110.967,"pop":812229,"tz":"America/Hermosillo"},{"id":250090,"name":"Zarqa","local":"Эз-Зарка","country":"JO","lat":32.073,"lon":36.088,"pop":792665,"tz":"Asia/Amman"},{"id":315202,"name":"Eskisehir","local":"Эскишехир","country":"TR","lat":39.777,"lon":30.521,"pop":789023,"tz":"Europe/Istanbul"},{"id":315368,"name":"Erzurum","local":"Эрзурум","country":"TR","lat":39.909,"lon":41.277,"pop":767848,"tz":"Europe/Istanbul"},{"id":107968,"name":"Ta'if","local":"Эт-Таиф","country":"SA","lat":21.27,"lon":40.416,"pop":688693,"tz":"Asia/Riyadh"},{"id":5520993,"name":"El Paso","local":"Эль-Пасо","country":"US","lat":31.759,"lon":-106.487,"pop":678815,"tz":"America/Denver"},{"id":2928810,"name":"Essen","local":"Эссен","country":"DE","lat":51.457,"lon":7.012,"pop":593085,"tz":"Europe/Berlin"},{"id":2650225,"name":"Edinburgh","local":"Эдинбург","country":"GB","lat":55.952,"lon":-3.196,"pop":514990,"tz":"Europe/London"},{"id":143127,"name":"Arak","local":"Эрак","country":"IR","lat":34.095,"lon":49.698,"pop":503647,"tz":"Asia/Tehran"},{"id":98860,"name":"Najaf","local":"Эн-Наджаф","country":"IQ","lat":32.026,"lon":44.346,"pop":482576,"tz":"Asia/Baghdad"},{"id":198629,"name":"Eldoret","local":"Элдорет","country":"KE","lat":0.52,"lon":35.27,"pop":475716,"tz":"Africa/Nairobi"},{"id":288967,"name":"Seeb","local":"Эс-Сиб","country":"OM","lat":23.67,"lon":58.189,"pop":470878,"tz":"Asia/Muscat"},{"id":355449,"name":"Esna","local":"Эсна","country":"EG","lat":25.293,"lon":32.554,"pop":462787,"tz":"Africa/Cairo"},{"id":298333,"name":"Sanliurfa","local":"Эдесса","country":"TR","lat":37.167,"lon":38.794,"pop":449549,"tz":"Europe/Istanbul"},{"id":4006702,"name":"Ensenada","local":"Энсенада","country":"MX","lat":31.871,"lon":-116.601,"pop":443807,"tz":"America/Tijuana"},{"id":315808,"name":"Elazig","local":"Элязыг","country":"TR","lat":38.674,"lon":39.223,"pop":443363,"tz":"Europe/Istanbul"},{"id":359493,"name":"Zagazig","local":"Эз-Заказик","country":"EG","lat":30.588,"lon":31.502,"pop":430445,"tz":"Africa/Cairo"},{"id":109353,"name":"Al Kharj","local":"Эль-Хардж","country":"SA","lat":24.155,"lon":47.335,"pop":425300,"tz":"Asia/Riyadh"},{"id":173811,"name":"Al Hasakah","local":"Эль-Хасака","country":"SY","lat":36.502,"lon":40.748,"pop":422445,"tz":"Asia/Damascus"},{"id":939270,"name":"Emalahleni","local":"Эмалахлени","country":"ZA","lat":-25.871,"lon":29.233,"pop":373403,"tz":"Africa/Johannesburg"},{"id":660158,"name":"Espoo","local":"Эспоо","country":"FI","lat":60.205,"lon":24.652,"pop":323910,"tz":"Europe/Helsinki"},{"id":99131,"name":"Al-Kut","local":"Эль-Кут","country":"IQ","lat":32.513,"lon":45.818,"pop":315162,"tz":"Asia/Baghdad"},{"id":109571,"name":"Al Hufuf","local":"Эль-Хуфуф","country":"SA","lat":25.365,"lon":49.588,"pop":293179,"tz":"Asia/Riyadh"},{"id":946877,"name":"Kariega","local":"Эйтенхахе","country":"ZA","lat":-33.756,"lon":25.401,"pop":291052,"tz":"Africa/Johannesburg"},{"id":360686,"name":"Minya","local":"Эль-Минья","country":"EG","lat":28.092,"lon":30.758,"pop":283605,"tz":"Africa/Cairo"},{"id":1811720,"name":"Enshi","local":"Эньши","country":"CN","lat":30.3,"lon":109.483,"pop":279185,"tz":"Asia/Shanghai"},{"id":6544100,"name":"Eixample","local":"Эшампле","country":"ES","lat":41.389,"lon":2.162,"pop":266477,"tz":"Europe/Madrid"},{"id":379555,"name":"El Fasher","local":"Эль-Фашир","country":"SD","lat":13.628,"lon":25.349,"pop":252609,"tz":"Africa/Khartoum"},{"id":3464305,"name":"Embu das Artes","local":"Эмба","country":"BR","lat":-23.649,"lon":-46.852,"pop":250691,"tz":"America/Sao_Paulo"},{"id":353229,"name":"Al 'Ashir min Ramadan","local":"Эль-Ашир-мин-Рамадан","country":"EG","lat":30.296,"lon":31.746,"pop":246148,"tz":"Africa/Cairo"},{"id":2756253,"name":"Eindhoven","local":"Эйндховен","country":"NL","lat":51.441,"lon":5.478,"pop":235691,"tz":"Europe/Amsterdam"},{"id":2518559,"name":"Elche","local":"Эльч","country":"ES","lat":38.262,"lon":-0.701,"pop":234765,"tz":"Europe/Madrid"},{"id":98717,"name":"Ramadi","local":"Эр-Рамади","country":"IQ","lat":33.421,"lon":43.308,"pop":223500,"tz":"Asia/Baghdad"},{"id":1272051,"name":"Eluru","local":"Элуру","country":"IN","lat":16.713,"lon":81.104,"pop":218020,"tz":"Asia/Kolkata"},{"id":2929670,"name":"Erfurt","local":"Эрфурт","country":"DE","lat":50.977,"lon":11.035,"pop":213692,"tz":"Europe/Berlin"},{"id":2550078,"name":"El Jadida","local":"Эль-Джадида","country":"MA","lat":33.257,"lon":-8.509,"pop":212863,"tz":"Africa/Casablanca"},{"id":361546,"name":"Arish","local":"Эль-Ариш","country":"EG","lat":31.132,"lon":33.798,"pop":199243,"tz":"Africa/Cairo"},{"id":2462881,"name":"Laayoune","local":"Эль-Аюн","country":"EH","lat":27.142,"lon":-13.188,"pop":196331,"tz":"Africa/El_Aaiun"},{"id":563464,"name":"Engels","local":"Энгельс","country":"RU","lat":51.484,"lon":46.105,"pop":196011,"tz":"Europe/Saratov"},{"id":99454,"name":"Al Fallujah","local":"Эль-Фаллуджа","country":"IQ","lat":33.349,"lon":43.786,"pop":190159,"tz":"Asia/Baghdad"},{"id":2497411,"name":"El Oued","local":"Эль-Уэд","country":"DZ","lat":33.356,"lon":6.863,"pop":186525,"tz":"Africa/Algiers"},{"id":380174,"name":"Ad-Damazin","local":"Эд-Дамазин","country":"SD","lat":11.789,"lon":34.359,"pop":186051,"tz":"Africa/Khartoum"},{"id":747712,"name":"Edirne","local":"Эдирне","country":"TR","lat":41.677,"lon":26.556,"pop":180002,"tz":"Europe/Istanbul"},{"id":5346111,"name":"Elk Grove","local":"Элк-Гров","country":"US","lat":38.409,"lon":-121.372,"pop":166913,"tz":"America/Los_Angeles"},{"id":109323,"name":"Khobar","local":"Эль-Хубар","country":"SA","lat":26.279,"lon":50.208,"pop":165799,"tz":"Asia/Riyadh"},{"id":3682631,"name":"Envigado","local":"Энвигадо","country":"CO","lat":6.176,"lon":-75.592,"pop":163007,"tz":"America/Bogota"},{"id":3641099,"name":"El Vigia","local":"Эль-Вихия","country":"VE","lat":8.614,"lon":-71.657,"pop":162289,"tz":"America/Caracas"},{"id":3595803,"name":"Escuintla","local":"Эскуинтла","country":"GT","lat":14.301,"lon":-90.788,"pop":156313,"tz":"America/Guatemala"},{"id":2686657,"name":"OErebro","local":"Эребру","country":"SE","lat":59.274,"lon":15.207,"pop":155989,"tz":"Europe/Stockholm"},{"id":2756071,"name":"Enschede","local":"Энсхеде","country":"NL","lat":52.218,"lon":6.896,"pop":153655,"tz":"Europe/Amsterdam"},{"id":5346827,"name":"Escondido","local":"Эскондидо","country":"US","lat":33.119,"lon":-117.086,"pop":151038,"tz":"America/Los_Angeles"},{"id":315373,"name":"Erzincan","local":"Эрзинджан","country":"TR","lat":39.739,"lon":39.49,"pop":150714,"tz":"Europe/Istanbul"},{"id":3038354,"name":"Aix-en-Provence","local":"Экс-ан-Прованс","country":"FR","lat":43.528,"lon":5.45,"pop":146821,"tz":"Europe/Paris"},{"id":563523,"name":"Elektrostal'","local":"Электросталь","country":"RU","lat":55.786,"lon":38.457,"pop":144387,"tz":"Europe/Moscow"},{"id":6822128,"name":"Ebina","local":"Эбина","country":"JP","lat":35.381,"lon":139.397,"pop":136516,"tz":"Asia/Tokyo"},{"id":2130404,"name":"Ebetsu","local":"Эбецу","country":"JP","lat":43.108,"lon":141.551,"pop":133953,"tz":"Asia/Tokyo"},{"id":2649808,"name":"Exeter","local":"Эксетер","country":"GB","lat":50.724,"lon":-3.528,"pop":130709,"tz":"Europe/London"},{"id":866152,"name":"Erebuni","local":"Эребуни","country":"AM","lat":40.133,"lon":44.53,"pop":129700,"tz":"Asia/Yerevan"},{"id":5097598,"name":"Elizabeth","local":"Элизабет","country":"US","lat":40.664,"lon":-74.211,"pop":129007,"tz":"America/New_York"},{"id":3099759,"name":"Elblag","local":"Эльблонг","country":"PL","lat":54.152,"lon":19.409,"pop":127558,"tz":"Europe/Warsaw"},{"id":1524325,"name":"Ekibastuz","local":"Экибастуз","country":"KZ","lat":51.724,"lon":75.323,"pop":121470,"tz":"Asia/Almaty"},{"id":3644417,"name":"Ejido","local":"Эхидо","country":"VE","lat":8.547,"lon":-71.241,"pop":120978,"tz":"America/Caracas"},{"id":4257227,"name":"Evansville","local":"Эвансвилл","country":"US","lat":37.975,"lon":-87.556,"pop":119943,"tz":"America/Chicago"},{"id":5882873,"name":"Ajax","local":"Эйджакс","country":"CA","lat":43.85,"lon":-79.033,"pop":119677,"tz":"America/Toronto"},{"id":5345743,"name":"El Monte","local":"Эль-Монте","country":"US","lat":34.069,"lon":-118.028,"pop":116732,"tz":"America/Los_Angeles"},{"id":361329,"name":"Al Fashn","local":"Эль-Фашн","country":"EG","lat":28.823,"lon":30.899,"pop":112999,"tz":"Africa/Cairo"},{"id":4890864,"name":"Elgin","local":"Элджин","country":"US","lat":42.037,"lon":-88.281,"pop":112111,"tz":"America/Chicago"},{"id":1811729,"name":"Encheng","local":"Эньпин","country":"CN","lat":22.187,"lon":112.304,"pop":110921,"tz":"Asia/Shanghai"},{"id":99135,"name":"Kufa","local":"Эль-Куфа","country":"IQ","lat":32.051,"lon":44.44,"pop":110000,"tz":"Asia/Baghdad"},{"id":5793933,"name":"Everett","local":"Эверетт","country":"US","lat":47.979,"lon":-122.202,"pop":108010,"tz":"America/Los_Angeles"},{"id":378699,"name":"An Nuhud","local":"Эн-Нухуд","country":"SD","lat":12.7,"lon":28.433,"pop":108008,"tz":"Africa/Khartoum"},{"id":563514,"name":"Elista","local":"Элиста","country":"RU","lat":46.308,"lon":44.255,"pop":106971,"tz":"Europe/Moscow"},{"id":380173,"name":"Ad-Damir","local":"Эд-Дамер","country":"SD","lat":17.599,"lon":33.972,"pop":103941,"tz":"Africa/Khartoum"},{"id":2232239,"name":"Edea","local":"Эдеа","country":"CM","lat":3.8,"lon":10.133,"pop":103861,"tz":"Africa/Douala"},{"id":5345529,"name":"El Cajon","local":"Эль Кахон","country":"US","lat":32.795,"lon":-116.963,"pop":103679,"tz":"America/Los_Angeles"},{"id":2929567,"name":"Erlangen","local":"Эрланген","country":"DE","lat":49.591,"lon":11.008,"pop":102675,"tz":"Europe/Berlin"},{"id":233508,"name":"Entebbe","local":"Энтеббе","country":"UG","lat":0.056,"lon":32.479,"pop":102600,"tz":"Africa/Kampala"},{"id":5097529,"name":"Edison","local":"Эдисон","country":"US","lat":40.519,"lon":-74.412,"pop":102548,"tz":"America/New_York"},{"id":783263,"name":"Elbasan","local":"Эльбасан","country":"AL","lat":41.111,"lon":20.082,"pop":100903,"tz":"Europe/Tirane"},{"id":7280528,"name":"Errachidia","local":"Эр-Рашидия","country":"MA","lat":31.931,"lon":-4.427,"pop":100870,"tz":"Africa/Casablanca"},{"id":3610613,"name":"El Progreso","local":"Эль-Прогресо","country":"HN","lat":15.4,"lon":-87.8,"pop":100810,"tz":"America/Tegucigalpa"},{"id":1005125,"name":"Ermelo","local":"Эрмело","country":"ZA","lat":-26.533,"lon":29.983,"pop":100324,"tz":"Africa/Johannesburg"},{"id":1271992,"name":"Etah","local":"Этах","country":"IN","lat":27.559,"lon":78.657,"pop":100000,"tz":"Asia/Kolkata"},{"id":361029,"name":"Al Jammaliyah","local":"Эль-Гамалия","country":"EG","lat":31.181,"lon":31.865,"pop":99641,"tz":"Africa/Cairo"},{"id":5188843,"name":"Erie","local":"Эри","country":"US","lat":42.129,"lon":-80.085,"pop":99475,"tz":"America/New_York"},{"id":108927,"name":"Al Qatif","local":"Эль-Катиф","country":"SA","lat":26.565,"lon":50.009,"pop":98259,"tz":"Asia/Riyadh"},{"id":2031405,"name":"Erdenet","local":"Эрдэнэт","country":"MN","lat":49.033,"lon":104.083,"pop":97814,"tz":"Asia/Ulaanbaatar"},{"id":3619194,"name":"Esteli","local":"Эстели","country":"NI","lat":13.093,"lon":-86.356,"pop":96422,"tz":"America/Managua"},{"id":3464073,"name":"Erechim","local":"Эрешин","country":"BR","lat":-27.635,"lon":-52.275,"pop":96087,"tz":"America/Sao_Paulo"},{"id":4453066,"name":"Asheville","local":"Эшвилл","country":"US","lat":35.601,"lon":-82.554,"pop":95056,"tz":"America/New_York"},{"id":2928751,"name":"Esslingen","local":"Эслинген-ам-Неккар","country":"DE","lat":48.74,"lon":9.305,"pop":92390,"tz":"Europe/Berlin"},{"id":315498,"name":"Eregli","local":"Эрегли","country":"TR","lat":37.513,"lon":34.047,"pop":92117,"tz":"Europe/Istanbul"},{"id":4535740,"name":"Edmond","local":"Эдмон","country":"US","lat":35.653,"lon":-97.478,"pop":90092,"tz":"America/Chicago"},{"id":747471,"name":"Eregli","local":"Эрегли","country":"TR","lat":41.283,"lon":31.418,"pop":88848,"tz":"Europe/Istanbul"},{"id":109953,"name":"Al Bahah","local":"Эль-Баха","country":"SA","lat":20.013,"lon":41.468,"pop":88419,"tz":"Asia/Riyadh"},{"id":2518207,"name":"El Puerto de Santa Maria","local":"Эль-Пуэрто-де-Санта-Мария","country":"ES","lat":36.594,"lon":-6.233,"pop":88364,"tz":"Europe/Madrid"},{"id":380129,"name":"Ad Douiem","local":"Эд-Дуэйм","country":"SD","lat":14.001,"lon":32.312,"pop":87068,"tz":"Africa/Khartoum"},{"id":3464008,"name":"Esmeraldas","local":"Эсмеральдас","country":"BR","lat":-19.762,"lon":-44.314,"pop":85598,"tz":"America/Sao_Paulo"},{"id":2549263,"name":"Essaouira","local":"Эссуэйра","country":"MA","lat":31.512,"lon":-9.77,"pop":85137,"tz":"Africa/Casablanca"},{"id":2343252,"name":"Epe","local":"Эпе","country":"NG","lat":6.584,"lon":3.983,"pop":84711,"tz":"Africa/Lagos"},{"id":2518494,"name":"El Ejido","local":"Эль-Эхидо","country":"ES","lat":36.776,"lon":-2.815,"pop":84710,"tz":"Europe/Madrid"},{"id":4688275,"name":"Edinburg","local":"Эдинбург","country":"US","lat":26.302,"lon":-98.163,"pop":84497,"tz":"America/Chicago"},{"id":5552301,"name":"Avondale","local":"Эвондейл","country":"US","lat":33.436,"lon":-112.35,"pop":80684,"tz":"America/Phoenix"},{"id":315795,"name":"Elbistan","local":"Эльбистан","country":"TR","lat":38.206,"lon":37.198,"pop":80456,"tz":"Europe/Istanbul"},{"id":4891382,"name":"Evanston","local":"Эванстон","country":"US","lat":42.041,"lon":-87.69,"pop":75527,"tz":"America/Chicago"},{"id":3438735,"name":"Encarnacion","local":"Энкарнасьон","country":"PY","lat":-27.332,"lon":-55.867,"pop":74983,"tz":"America/Asuncion"},{"id":3641275,"name":"El Tocuyo","local":"Эль-Токуйо","country":"VE","lat":9.787,"lon":-69.793,"pop":74829,"tz":"America/Caracas"},{"id":2656719,"name":"Aylesbury","local":"Эйлсбери","country":"GB","lat":51.817,"lon":-0.815,"pop":74748,"tz":"Europe/London"},{"id":3400558,"name":"Eusebio","local":"Эусебио","country":"BR","lat":-3.89,"lon":-38.451,"pop":74170,"tz":"America/Fortaleza"},{"id":92138,"name":"Al Qa'im","local":"Эль-Каим","country":"IQ","lat":34.393,"lon":40.989,"pop":74100,"tz":"Asia/Baghdad"},{"id":2473747,"name":"El Hamma","local":"Эль-Хамма","country":"TN","lat":33.892,"lon":9.796,"pop":73512,"tz":"Africa/Tunis"},{"id":2622447,"name":"Esbjerg","local":"Эсбьерг","country":"DK","lat":55.47,"lon":8.452,"pop":71698,"tz":"Europe/Copenhagen"},{"id":2756429,"name":"Ede","local":"Эде","country":"NL","lat":52.033,"lon":5.658,"pop":67670,"tz":"Europe/Amsterdam"},{"id":2715953,"name":"Eskilstuna","local":"Эскильстуна","country":"SE","lat":59.367,"lon":16.508,"pop":67359,"tz":"Europe/Stockholm"},{"id":2517816,"name":"Estepona","local":"Эстепона","country":"ES","lat":36.428,"lon":-5.146,"pop":67012,"tz":"Europe/Madrid"},{"id":4846834,"name":"Ames","local":"Эймса","country":"US","lat":42.035,"lon":-93.62,"pop":65060,"tz":"America/Chicago"},{"id":198476,"name":"Embu","local":"Эмба","country":"KE","lat":-0.54,"lon":37.457,"pop":64979,"tz":"Africa/Nairobi"},{"id":3123329,"name":"El Prat de Llobregat","local":"Эль-Прат-де-Льобрегат","country":"ES","lat":41.328,"lon":2.095,"pop":63418,"tz":"Europe/Madrid"},{"id":5346646,"name":"Encinitas","local":"Энсинитас","country":"US","lat":33.037,"lon":-117.292,"pop":62930,"tz":"America/Los_Angeles"},{"id":2656955,"name":"Ashford","local":"Эшфорд","country":"GB","lat":51.146,"lon":0.874,"pop":62787,"tz":"Europe/London"},{"id":3053281,"name":"Erd","local":"Эрд","country":"HU","lat":47.395,"lon":18.914,"pop":62408,"tz":"Europe/Budapest"},{"id":3400567,"name":"Extremoz","local":"Эстремос","country":"BR","lat":-5.706,"lon":-35.307,"pop":61635,"tz":"America/Fortaleza"},{"id":285787,"name":"Kuwait City","local":"Эль-Кувейт","country":"KW","lat":29.367,"lon":47.974,"pop":60064,"tz":"Asia/Kuwait"},{"id":172408,"name":"As-Suwayda","local":"Эс-Сувейда","country":"SY","lat":32.709,"lon":36.57,"pop":59052,"tz":"Asia/Damascus"},{"id":378459,"name":"Er Roseires","local":"Эр-Росейрес","country":"SD","lat":11.866,"lon":34.387,"pop":58712,"tz":"Africa/Khartoum"},{"id":3019265,"name":"Evreux","local":"Эврё","country":"FR","lat":49.024,"lon":1.151,"pop":57795,"tz":"Europe/Paris"},{"id":2498305,"name":"El Menia","local":"Эль-Голеа","country":"DZ","lat":30.576,"lon":2.884,"pop":57344,"tz":"Africa/Algiers"},{"id":250582,"name":"Mafraq","local":"Эль-Мафрак","country":"JO","lat":32.343,"lon":36.208,"pop":57118,"tz":"Asia/Amman"},{"id":2756136,"name":"Emmen","local":"Эммен","country":"NL","lat":52.779,"lon":6.907,"pop":57010,"tz":"Europe/Amsterdam"},{"id":6354934,"name":"Aylmer","local":"Эйлмер","country":"CA","lat":45.4,"lon":-75.806,"pop":56542,"tz":"America/Toronto"},{"id":3682573,"name":"Espinal","local":"Эспиналь","country":"CO","lat":4.149,"lon":-74.884,"pop":56213,"tz":"America/Bogota"},{"id":563379,"name":"Ezhva","local":"Эжва","country":"RU","lat":61.813,"lon":50.728,"pop":56000,"tz":"Europe/Moscow"},{"id":2928963,"name":"Eschweiler","local":"Эшвайлер","country":"DE","lat":50.819,"lon":6.272,"pop":55778,"tz":"Europe/Berlin"},{"id":772621,"name":"Elk","local":"Элк","country":"PL","lat":53.828,"lon":22.365,"pop":55769,"tz":"Europe/Warsaw"},{"id":747538,"name":"Eminoenue","local":"Эминёню","country":"TR","lat":41.018,"lon":28.971,"pop":55548,"tz":"Europe/Istanbul"},{"id":2518505,"name":"Elda","local":"Эльда","country":"ES","lat":38.478,"lon":-0.792,"pop":55168,"tz":"Europe/Madrid"},{"id":3684917,"name":"El Banco","local":"Эль-Банка","country":"CO","lat":9.001,"lon":-73.976,"pop":54522,"tz":"America/Bogota"},{"id":721239,"name":"Eger","local":"Эгер","country":"HU","lat":47.903,"lon":20.373,"pop":53876,"tz":"Europe/Budapest"},{"id":5153207,"name":"Elyria","local":"Элирия","country":"US","lat":41.368,"lon":-82.108,"pop":53775,"tz":"America/New_York"},{"id":2473634,"name":"El Kef","local":"Эль-Кеф","country":"TN","lat":36.174,"lon":8.705,"pop":53596,"tz":"Africa/Tunis"},{"id":2268406,"name":"Evora","local":"Эвора","country":"PT","lat":38.566,"lon":-7.904,"pop":53591,"tz":"Europe/Lisbon"},{"id":3619267,"name":"El Viejo","local":"Эль-Вьехо","country":"NI","lat":12.663,"lon":-87.167,"pop":53504,"tz":"America/Managua"},{"id":709276,"name":"Enerhodar","local":"Энергодар","country":"UA","lat":47.49,"lon":34.662,"pop":52887,"tz":"Europe/Kyiv"},{"id":315468,"name":"Ergani","local":"Эграни","country":"TR","lat":38.269,"lon":39.754,"pop":52684,"tz":"Europe/Istanbul"},{"id":2649911,"name":"Esher","local":"Эшер","country":"GB","lat":51.37,"lon":-0.367,"pop":52392,"tz":"Europe/London"},{"id":4919987,"name":"Elkhart","local":"Элкхарт","country":"US","lat":41.682,"lon":-85.977,"pop":52348,"tz":"America/Indiana/Indianapolis"},{"id":295277,"name":"Eilat","local":"Эйлат","country":"IL","lat":29.558,"lon":34.948,"pop":52299,"tz":"Asia/Jerusalem"},{"id":747489,"name":"Erbaa","local":"Эрба","country":"TR","lat":40.669,"lon":36.568,"pop":52185,"tz":"Europe/Istanbul"},{"id":4535961,"name":"Enid","local":"Энид","country":"US","lat":36.396,"lon":-97.878,"pop":51776,"tz":"America/Chicago"},{"id":2930596,"name":"Emden","local":"Эмден","country":"DE","lat":53.366,"lon":7.208,"pop":51526,"tz":"Europe/Berlin"},{"id":2929671,"name":"Erftstadt","local":"Эрфтштадт","country":"DE","lat":50.815,"lon":6.794,"pop":51207,"tz":"Europe/Berlin"},{"id":3684945,"name":"El Bagre","local":"Эль-Багре","country":"CO","lat":7.603,"lon":-74.81,"pop":51150,"tz":"America/Bogota"},{"id":173377,"name":"Al Qamishli","local":"Эль-Камышлы","country":"SY","lat":37.052,"lon":41.231,"pop":50000,"tz":"Asia/Damascus"},{"id":2685750,"name":"OEstersund","local":"Эстерсунд","country":"SE","lat":63.179,"lon":14.636,"pop":49806,"tz":"Europe/Stockholm"},{"id":3687318,"name":"Carmen de Viboral","local":"Эль-Кармен-де-Вибораль","country":"CO","lat":6.082,"lon":-75.335,"pop":49642,"tz":"America/Bogota"},{"id":6822220,"name":"Ena","local":"Эна","country":"JP","lat":35.447,"lon":137.383,"pop":48777,"tz":"Asia/Tokyo"},{"id":2930821,"name":"Elmshorn","local":"Эльмсхорн","country":"DE","lat":53.749,"lon":9.662,"pop":48703,"tz":"Europe/Berlin"},{"id":2798578,"name":"Etterbeek","local":"Эттербек","country":"BE","lat":50.833,"lon":4.388,"pop":48344,"tz":"Europe/Brussels"},{"id":2929600,"name":"Erkrath","local":"Эркрат","country":"DE","lat":51.222,"lon":6.908,"pop":47815,"tz":"Europe/Berlin"},{"id":315515,"name":"Erdemli","local":"Эрдемли","country":"TR","lat":36.605,"lon":34.308,"pop":46570,"tz":"Europe/Istanbul"},{"id":2756139,"name":"Emmeloord","local":"Эммелорд","country":"NL","lat":52.711,"lon":5.749,"pop":46409,"tz":"Europe/Amsterdam"},{"id":2656708,"name":"Ayr","local":"Эр","country":"GB","lat":55.463,"lon":-4.634,"pop":46260,"tz":"Europe/London"},{"id":3020020,"name":"Epinay-sur-Seine","local":"Эпине-сюр-Сен","country":"FR","lat":48.953,"lon":2.315,"pop":46145,"tz":"Europe/Paris"},{"id":4936008,"name":"Everett","local":"Эверетт","country":"US","lat":42.408,"lon":-71.054,"pop":46050,"tz":"America/New_York"},{"id":4891010,"name":"Elmhurst","local":"Элмхерст","country":"US","lat":41.899,"lon":-87.94,"pop":45957,"tz":"America/Chicago"},{"id":4834040,"name":"Enfield","local":"Энфилд","country":"US","lat":41.976,"lon":-72.592,"pop":45212,"tz":"America/New_York"},{"id":2929622,"name":"Erkelenz","local":"Эркеленц","country":"DE","lat":51.079,"lon":6.315,"pop":44650,"tz":"Europe/Berlin"},{"id":5346649,"name":"Encino","local":"Энсино","country":"US","lat":34.159,"lon":-118.501,"pop":44581,"tz":"America/Los_Angeles"},{"id":5345609,"name":"El Centro","local":"Эль-Сентро","country":"US","lat":32.792,"lon":-115.563,"pop":43956,"tz":"America/Los_Angeles"},{"id":2656915,"name":"Ashton-under-Lyne","local":"Эштон-андер-Лайн","country":"GB","lat":53.489,"lon":-2.099,"pop":43675,"tz":"Europe/London"},{"id":88962,"name":"Al Jawf","local":"Эль-Джауф","country":"LY","lat":24.199,"lon":23.291,"pop":42079,"tz":"Africa/Tripoli"},{"id":2933882,"name":"Eberswalde","local":"Эберсвальде","country":"DE","lat":52.835,"lon":13.82,"pop":41980,"tz":"Europe/Berlin"},{"id":2798554,"name":"Evere","local":"Эвере","country":"BE","lat":50.874,"lon":4.399,"pop":41667,"tz":"Europe/Brussels"},{"id":5793427,"name":"Edmonds","local":"Эдмондс","country":"US","lat":47.811,"lon":-122.377,"pop":41375,"tz":"America/Los_Angeles"},{"id":315985,"name":"Edremit","local":"Эдремит","country":"TR","lat":39.596,"lon":27.024,"pop":40777,"tz":"Europe/Istanbul"},{"id":2518770,"name":"Ecija","local":"Эсиха","country":"ES","lat":37.542,"lon":-5.083,"pop":39882,"tz":"Europe/Madrid"},{"id":3020035,"name":"Epinal","local":"Эпиналь","country":"FR","lat":48.183,"lon":6.453,"pop":39518,"tz":"Europe/Paris"},{"id":2739997,"name":"Ermesinde","local":"Эрмезинде","country":"PT","lat":41.217,"lon":-8.553,"pop":39420,"tz":"Europe/Lisbon"},{"id":4354428,"name":"Essex","local":"Эссекс","country":"US","lat":39.309,"lon":-76.475,"pop":39262,"tz":"America/New_York"},{"id":2928615,"name":"Ettlingen","local":"Эттлинген","country":"DE","lat":48.941,"lon":8.408,"pop":38942,"tz":"Europe/Berlin"},{"id":1281278,"name":"Elixku","local":"Элишқу","country":"CN","lat":38.709,"lon":77.371,"pop":36793,"tz":"Asia/Urumqi"},{"id":2960596,"name":"Esch-sur-Alzette","local":"Эш-сюр-Алзетте","country":"LU","lat":49.496,"lon":5.981,"pop":36625,"tz":"Europe/Luxembourg"},{"id":378493,"name":"Ar Rahad","local":"Эр-Рахад","country":"SD","lat":12.717,"lon":30.65,"pop":36518,"tz":"Africa/Khartoum"},{"id":2795930,"name":"Herstal","local":"Эрсталь","country":"BE","lat":50.664,"lon":5.623,"pop":36503,"tz":"Europe/Brussels"},{"id":2685828,"name":"OEstermalm","local":"Эстермальм","country":"SE","lat":59.339,"lon":18.085,"pop":36418,"tz":"Europe/Stockholm"},{"id":173334,"name":"Al Qunaytirah","local":"Эль-Кунейтра","country":"SY","lat":33.126,"lon":35.825,"pop":36143,"tz":"Asia/Damascus"},{"id":2930449,"name":"Emsdetten","local":"Эмсдеттен","country":"DE","lat":52.173,"lon":7.528,"pop":35582,"tz":"Europe/Berlin"},{"id":2497988,"name":"El Kala","local":"Эль-Калы","country":"DZ","lat":36.896,"lon":8.443,"pop":35449,"tz":"Africa/Algiers"},{"id":360471,"name":"Al Waqf","local":"Эль-Вакф","country":"EG","lat":26.087,"lon":32.423,"pop":34723,"tz":"Africa/Cairo"},{"id":2649800,"name":"Exmouth","local":"Эксмут","country":"GB","lat":50.617,"lon":-3.402,"pop":34432,"tz":"Europe/London"},{"id":2301190,"name":"Elmina","local":"Элмина","country":"GH","lat":5.085,"lon":-1.351,"pop":34403,"tz":"Africa/Accra"},{"id":2646032,"name":"Irvine","local":"Эрвин","country":"GB","lat":55.619,"lon":-4.655,"pop":34130,"tz":"Europe/London"},{"id":5293996,"name":"El Mirage","local":"Эль-Мираж","country":"US","lat":33.613,"lon":-112.325,"pop":33935,"tz":"America/Phoenix"},{"id":1711829,"name":"Hermosa","local":"Эрмоса","country":"PH","lat":14.831,"lon":120.508,"pop":33714,"tz":"Asia/Manila"},{"id":2929715,"name":"Erding","local":"Эрдинг","country":"DE","lat":48.306,"lon":11.907,"pop":33519,"tz":"Europe/Berlin"},{"id":2756059,"name":"Epe","local":"Эпе","country":"NL","lat":52.347,"lon":5.983,"pop":33385,"tz":"Europe/Amsterdam"},{"id":2498590,"name":"El Attaf","local":"Эль-Аттафом","country":"DZ","lat":36.224,"lon":1.672,"pop":33349,"tz":"Africa/Algiers"},{"id":5116508,"name":"Elmont","local":"Элмонт","country":"US","lat":40.701,"lon":-73.713,"pop":33198,"tz":"America/New_York"},{"id":3020495,"name":"Echirolles","local":"Эшироль","country":"FR","lat":45.146,"lon":5.714,"pop":33088,"tz":"Europe/Paris"},{"id":5421250,"name":"Englewood","local":"Энглвуд","country":"US","lat":39.648,"lon":-104.988,"pop":33082,"tz":"America/Denver"},{"id":2218963,"name":"Zintan","local":"Эз-Зинтан","country":"LY","lat":31.932,"lon":12.253,"pop":33000,"tz":"Africa/Tripoli"},{"id":2739868,"name":"Espinho","local":"Эшпинью","country":"PT","lat":41.008,"lon":-8.641,"pop":32786,"tz":"Europe/Lisbon"},{"id":2930043,"name":"Ennepetal","local":"Эннепеталь","country":"DE","lat":51.298,"lon":7.363,"pop":32607,"tz":"Europe/Berlin"},{"id":2686469,"name":"OErnskoeldsvik","local":"Эрншёльдсвик","country":"SE","lat":63.291,"lon":18.715,"pop":32493,"tz":"Europe/Stockholm"},{"id":2549356,"name":"Arfoud","local":"Эрфуд","country":"MA","lat":31.435,"lon":-4.233,"pop":31971,"tz":"Africa/Casablanca"},{"id":2753376,"name":"IJmuiden","local":"Эймёйден","country":"NL","lat":52.46,"lon":4.61,"pop":31925,"tz":"Europe/Amsterdam"},{"id":2798551,"name":"Evergem","local":"Эвергем","country":"BE","lat":51.113,"lon":3.71,"pop":31615,"tz":"Europe/Brussels"},{"id":2649957,"name":"Epsom","local":"Эпсом","country":"GB","lat":51.331,"lon":-0.27,"pop":31489,"tz":"Europe/London"},{"id":1272025,"name":"Erandol","local":"Эрандол","country":"IN","lat":20.922,"lon":75.326,"pop":31071,"tz":"Asia/Kolkata"},{"id":2516797,"name":"Hellin","local":"Эльине","country":"ES","lat":38.511,"lon":-1.701,"pop":30976,"tz":"Europe/Madrid"},{"id":2660911,"name":"Emmen","local":"Эммен","country":"CH","lat":47.078,"lon":8.273,"pop":30926,"tz":"Europe/Zurich"},{"id":2930509,"name":"Emmerich","local":"Эммерих","country":"DE","lat":51.839,"lon":6.248,"pop":30869,"tz":"Europe/Berlin"},{"id":4290988,"name":"Elizabethtown","local":"Элизабеттаун","country":"US","lat":37.694,"lon":-85.859,"pop":29678,"tz":"America/New_York"},{"id":2650188,"name":"Egham","local":"Эгхем","country":"GB","lat":51.432,"lon":-0.552,"pop":29663,"tz":"Europe/London"},{"id":3527795,"name":"Escarcega","local":"Эскарсега","country":"MX","lat":18.609,"lon":-90.745,"pop":29477,"tz":"America/Merida"},{"id":3053163,"name":"Esztergom","local":"Эстергом","country":"HU","lat":47.793,"lon":18.741,"pop":28785,"tz":"Europe/Budapest"},{"id":5097672,"name":"Englewood","local":"Энглвуд","country":"US","lat":40.893,"lon":-73.973,"pop":28539,"tz":"America/New_York"},{"id":3855974,"name":"Esquel","local":"Эскель","country":"AR","lat":-42.911,"lon":-71.319,"pop":28486,"tz":"America/Argentina/Catamarca"},{"id":5116497,"name":"Elmira","local":"Эльмира","country":"US","lat":42.09,"lon":-76.808,"pop":28213,"tz":"America/New_York"},{"id":3019897,"name":"Ermont","local":"Эрмон","country":"FR","lat":48.99,"lon":2.258,"pop":28117,"tz":"Europe/Paris"},{"id":4060791,"name":"Enterprise","local":"Энтерпрайз","country":"US","lat":31.315,"lon":-85.855,"pop":27978,"tz":"America/Chicago"},{"id":361871,"name":"El Dabaa","local":"Эд-Дабъа","country":"EG","lat":31.028,"lon":28.445,"pop":27697,"tz":"Africa/Cairo"},{"id":3038350,"name":"Aix-les-Bains","local":"Экс-ле-Бен","country":"FR","lat":45.692,"lon":5.909,"pop":27651,"tz":"Europe/Paris"},{"id":3123709,"name":"Eibar","local":"Эйбар","country":"ES","lat":43.185,"lon":-2.472,"pop":27406,"tz":"Europe/Madrid"},{"id":2932924,"name":"Ehingen","local":"Эхинген","country":"DE","lat":48.283,"lon":9.727,"pop":27276,"tz":"Europe/Berlin"},{"id":3020062,"name":"Epernay","local":"Эперне","country":"FR","lat":49.04,"lon":3.959,"pop":27082,"tz":"Europe/Paris"},{"id":5563397,"name":"Eureka","local":"Эврика","country":"US","lat":40.802,"lon":-124.164,"pop":27017,"tz":"America/Los_Angeles"},{"id":2745973,"name":"Uithoorn","local":"Эйтхорн","country":"NL","lat":52.237,"lon":4.826,"pop":26846,"tz":"Europe/Amsterdam"},{"id":2928874,"name":"Espelkamp","local":"Эспелькамп","country":"DE","lat":52.383,"lon":8.621,"pop":26378,"tz":"Europe/Berlin"},{"id":296852,"name":"Erzin","local":"Эрзин","country":"TR","lat":36.953,"lon":36.198,"pop":26316,"tz":"Europe/Istanbul"},{"id":4670592,"name":"Alvin","local":"Элвин","country":"US","lat":29.424,"lon":-95.244,"pop":25791,"tz":"America/Chicago"},{"id":172469,"name":"As Sanamayn","local":"Эс-Санамейн","country":"SY","lat":33.072,"lon":36.183,"pop":25702,"tz":"Asia/Damascus"},{"id":4354087,"name":"Edgewood","local":"Эджвуд","country":"US","lat":39.419,"lon":-76.294,"pop":25562,"tz":"America/New_York"},{"id":563551,"name":"Ekazhevo","local":"Экажево","country":"RU","lat":43.212,"lon":44.823,"pop":25549,"tz":"Europe/Moscow"},{"id":3013525,"name":"Henin-Beaumont","local":"Энен-Бомон","country":"FR","lat":50.414,"lon":2.965,"pop":25371,"tz":"Europe/Paris"},{"id":2964405,"name":"Ennis","local":"Эннис","country":"IE","lat":52.844,"lon":-8.986,"pop":25276,"tz":"Europe/Dublin"},{"id":3013477,"name":"Herblay-sur-Seine","local":"Эрбле","country":"FR","lat":48.99,"lon":2.17,"pop":25153,"tz":"Europe/Paris"},{"id":2650122,"name":"Elgin","local":"Элгин","country":"GB","lat":57.649,"lon":-3.318,"pop":25040,"tz":"Europe/London"},{"id":4006783,"name":"Encarnacion de Diaz","local":"Энкарнасьон-де-Диас","country":"MX","lat":21.526,"lon":-102.24,"pop":25010,"tz":"America/Mexico_City"},{"id":2309332,"name":"Ebebiyin","local":"Эбебьин","country":"GQ","lat":2.152,"lon":11.33,"pop":24831,"tz":"Africa/Malabo"},{"id":2930889,"name":"Ellwangen","local":"Эльванген","country":"DE","lat":48.962,"lon":10.132,"pop":24477,"tz":"Europe/Berlin"},{"id":3123104,"name":"Erandio","local":"Эрандио","country":"ES","lat":43.304,"lon":-2.974,"pop":24262,"tz":"Europe/Madrid"},{"id":3013403,"name":"Herouville-Saint-Clair","local":"Эрувиль-Сен-Клер","country":"FR","lat":49.211,"lon":-0.307,"pop":24258,"tz":"Europe/Paris"},{"id":5025471,"name":"Elk River","local":"Элк-Ривер","country":"US","lat":45.304,"lon":-93.567,"pop":23963,"tz":"America/Chicago"},{"id":315639,"name":"Emet","local":"Эмет","country":"TR","lat":39.343,"lon":29.258,"pop":23812,"tz":"Europe/Istanbul"},{"id":2268436,"name":"Estoril","local":"Эшторил","country":"PT","lat":38.706,"lon":-9.398,"pop":23700,"tz":"Europe/Lisbon"},{"id":5345623,"name":"El Cerrito","local":"Эль-Серрито","country":"US","lat":37.916,"lon":-122.312,"pop":23549,"tz":"America/Los_Angeles"},{"id":2933627,"name":"Eckernfoerde","local":"Эккернфёрде","country":"DE","lat":54.469,"lon":9.838,"pop":23383,"tz":"Europe/Berlin"},{"id":3019459,"name":"Etampes","local":"Этамп","country":"FR","lat":48.435,"lon":2.162,"pop":23012,"tz":"Europe/Paris"},{"id":2524819,"name":"Enna","local":"Энна","country":"IT","lat":37.566,"lon":14.274,"pop":22998,"tz":"Europe/Rome"},{"id":1246924,"name":"Eravur Town","local":"Эравуре","country":"LK","lat":7.778,"lon":81.604,"pop":22982,"tz":"Asia/Colombo"},{"id":2857565,"name":"Ohringen","local":"Эринген","country":"DE","lat":49.199,"lon":9.507,"pop":22765,"tz":"Europe/Berlin"},{"id":250624,"name":"Qir Moav","local":"Эль-Карак","country":"JO","lat":31.182,"lon":35.7,"pop":22581,"tz":"Asia/Amman"},{"id":2716166,"name":"Enkoeping","local":"Энчёпинг","country":"SE","lat":59.636,"lon":17.078,"pop":22553,"tz":"Europe/Stockholm"},{"id":3464364,"name":"Ecoporanga","local":"Экопоранга","country":"BR","lat":-18.373,"lon":-40.831,"pop":21992,"tz":"America/Sao_Paulo"},{"id":3623486,"name":"Heredia","local":"Эредиа","country":"CR","lat":9.999,"lon":-84.116,"pop":21947,"tz":"America/Costa_Rica"},{"id":5325011,"name":"Ashland","local":"Эшленд","country":"US","lat":37.695,"lon":-122.114,"pop":21925,"tz":"America/Los_Angeles"},{"id":2756232,"name":"Elburg","local":"Элбург","country":"NL","lat":52.447,"lon":5.843,"pop":21844,"tz":"Europe/Amsterdam"},{"id":2929134,"name":"Eschborn","local":"Эшборн","country":"DE","lat":50.143,"lon":8.571,"pop":21641,"tz":"Europe/Berlin"},{"id":2473654,"name":"El Jem","local":"Эль Джем","country":"TN","lat":35.3,"lon":10.717,"pop":21544,"tz":"Africa/Tunis"},{"id":5576859,"name":"Erie","local":"Эри","country":"US","lat":40.05,"lon":-105.05,"pop":21420,"tz":"America/Denver"},{"id":2928967,"name":"Eschwege","local":"Эшвеге","country":"DE","lat":51.184,"lon":10.053,"pop":21191,"tz":"Europe/Berlin"},{"id":2929831,"name":"Eppingen","local":"Эппинген","country":"DE","lat":49.136,"lon":8.912,"pop":21179,"tz":"Europe/Berlin"},{"id":4928703,"name":"Acton","local":"Эктон","country":"US","lat":42.485,"lon":-71.433,"pop":20897,"tz":"America/New_York"},{"id":2930216,"name":"Engelskirchen","local":"Энгельскирхен","country":"DE","lat":50.989,"lon":7.414,"pop":20786,"tz":"Europe/Berlin"},{"id":563524,"name":"Elektrogorsk","local":"Электрогорск","country":"RU","lat":55.884,"lon":38.786,"pop":20724,"tz":"Europe/Moscow"},{"id":2930030,"name":"Ennigerloh","local":"Эннигерло","country":"DE","lat":51.838,"lon":8.031,"pop":20713,"tz":"Europe/Berlin"},{"id":108918,"name":"Qaisumah","local":"Эль-Кайсума","country":"SA","lat":28.311,"lon":46.127,"pop":20685,"tz":"Asia/Riyadh"},{"id":2933364,"name":"Edewecht","local":"Эдевехт","country":"DE","lat":53.128,"lon":7.984,"pop":20658,"tz":"Europe/Berlin"},{"id":4154489,"name":"Ensley","local":"Энсли","country":"US","lat":30.519,"lon":-87.273,"pop":20602,"tz":"America/Chicago"},{"id":265500,"name":"Aigio","local":"Эйо","country":"GR","lat":38.249,"lon":22.082,"pop":20422,"tz":"Europe/Athens"},{"id":5703670,"name":"Elko","local":"Элко","country":"US","lat":40.832,"lon":-115.763,"pop":20279,"tz":"America/Los_Angeles"},{"id":3559318,"name":"Esmeralda","local":"Эсмеральда","country":"CU","lat":21.851,"lon":-78.117,"pop":20274,"tz":"America/Havana"},{"id":3120811,"name":"Hernani","local":"Эрнани","country":"ES","lat":43.266,"lon":-1.976,"pop":20222,"tz":"Europe/Madrid"},{"id":292953,"name":"Adh Dhayd","local":"Эд-Дайд","country":"AE","lat":25.288,"lon":55.882,"pop":20165,"tz":"Asia/Dubai"},{"id":315621,"name":"Emirdag","local":"Эмирдаг","country":"TR","lat":39.02,"lon":31.15,"pop":20063,"tz":"Europe/Istanbul"},{"id":3527880,"name":"Emiliano Zapata","local":"Эмилиано Сапата","country":"MX","lat":17.741,"lon":-91.766,"pop":20030,"tz":"America/Mexico_City"},{"id":563522,"name":"Elektrougli","local":"Электроугли","country":"RU","lat":55.724,"lon":38.209,"pop":20000,"tz":"Europe/Moscow"},{"id":2930182,"name":"Enger","local":"Энгер","country":"DE","lat":52.141,"lon":8.558,"pop":19852,"tz":"Europe/Berlin"},{"id":4007676,"name":"Pueblo Nuevo","local":"Эль-Сальто","country":"MX","lat":23.384,"lon":-105.371,"pop":19363,"tz":"America/Monterrey"},{"id":2130387,"name":"Engaru","local":"Энгару","country":"JP","lat":44.048,"lon":143.545,"pop":19241,"tz":"Asia/Tokyo"},{"id":2798987,"name":"Eeklo","local":"Экло","country":"BE","lat":51.187,"lon":3.557,"pop":19116,"tz":"Europe/Brussels"},{"id":5281730,"name":"Avon","local":"Эвон","country":"US","lat":41.81,"lon":-72.831,"pop":18932,"tz":"America/New_York"},{"id":4291255,"name":"Erlanger","local":"Эрлангер","country":"US","lat":39.017,"lon":-84.601,"pop":18797,"tz":"America/New_York"},{"id":609924,"name":"Embi","local":"Эмба","country":"KZ","lat":48.83,"lon":58.15,"pop":18760,"tz":"Asia/Aqtobe"},{"id":2715946,"name":"Esloev","local":"Эслёв","country":"SE","lat":55.839,"lon":13.304,"pop":18592,"tz":"Europe/Stockholm"},{"id":3723841,"name":"Hinche","local":"Энш","country":"HT","lat":19.141,"lon":-72.012,"pop":18590,"tz":"America/Port-au-Prince"},{"id":4109785,"name":"El Dorado","local":"Эль-Дорадо","country":"US","lat":33.208,"lon":-92.666,"pop":18386,"tz":"America/Chicago"},{"id":2473876,"name":"El Alia","local":"Эль-Алия","country":"TN","lat":37.169,"lon":10.035,"pop":18359,"tz":"Africa/Tunis"},{"id":1023332,"name":"Alice","local":"Элис","country":"ZA","lat":-32.787,"lon":26.834,"pop":18141,"tz":"Africa/Johannesburg"},{"id":3123667,"name":"El Astillero","local":"Эль-Астильеро","country":"ES","lat":43.401,"lon":-3.821,"pop":18108,"tz":"Europe/Madrid"},{"id":2929865,"name":"Eppelborn","local":"Эппельборн","country":"DE","lat":49.4,"lon":6.967,"pop":18079,"tz":"Europe/Berlin"},{"id":2798573,"name":"Eupen","local":"Эйпен","country":"BE","lat":50.628,"lon":6.036,"pop":18029,"tz":"Europe/Brussels"},{"id":287614,"name":"Khasab","local":"Эль-Хасаб","country":"OM","lat":26.18,"lon":56.248,"pop":17904,"tz":"Asia/Muscat"},{"id":563472,"name":"Enem","local":"Энем","country":"RU","lat":44.926,"lon":38.906,"pop":17665,"tz":"Europe/Moscow"},{"id":662095,"name":"AEaenekoski","local":"Ээнекоски","country":"FI","lat":62.6,"lon":25.733,"pop":17614,"tz":"Europe/Helsinki"},{"id":2857900,"name":"Oerlinghausen","local":"Эрлингхаузен","country":"DE","lat":51.955,"lon":8.662,"pop":17403,"tz":"Europe/Berlin"},{"id":3123688,"name":"Ejea de los Caballeros","local":"Эхеа-де-лос-Кабальерос","country":"ES","lat":42.126,"lon":-1.137,"pop":17331,"tz":"Europe/Madrid"},{"id":3020307,"name":"Elbeuf","local":"Эльбёф","country":"FR","lat":49.287,"lon":1.003,"pop":17231,"tz":"Europe/Paris"},{"id":2167312,"name":"Engadine","local":"Энгадин","country":"AU","lat":-34.066,"lon":151.013,"pop":17141,"tz":"Australia/Sydney"},{"id":5345860,"name":"El Segundo","local":"Эль-Сегундо","country":"US","lat":33.919,"lon":-118.416,"pop":17037,"tz":"America/Los_Angeles"},{"id":3177337,"name":"Este","local":"Эсте","country":"IT","lat":45.223,"lon":11.664,"pop":16963,"tz":"Europe/Rome"},{"id":315697,"name":"Elmali","local":"Элмалы","country":"TR","lat":36.736,"lon":29.918,"pop":16587,"tz":"Europe/Istanbul"},{"id":6545023,"name":"Edmundston","local":"Эдмундстон","country":"CA","lat":47.374,"lon":-68.325,"pop":16580,"tz":"America/Moncton"},{"id":2795912,"name":"Herve","local":"Эрв","country":"BE","lat":50.641,"lon":5.794,"pop":16544,"tz":"Europe/Brussels"},{"id":2037485,"name":"Erenhot","local":"Эрэн-Хото","country":"CN","lat":43.648,"lon":111.977,"pop":16427,"tz":"Asia/Shanghai"},{"id":3123063,"name":"Ermua","local":"Эрмуа","country":"ES","lat":43.187,"lon":-2.503,"pop":16252,"tz":"Europe/Madrid"},{"id":2929247,"name":"Erwitte","local":"Эрвитте","country":"DE","lat":51.613,"lon":8.338,"pop":16081,"tz":"Europe/Berlin"},{"id":2933959,"name":"Ebersbach an der Fils","local":"Эберсбах-на-Фильсе","country":"DE","lat":48.716,"lon":9.524,"pop":15919,"tz":"Europe/Berlin"},{"id":3040051,"name":"les Escaldes","local":"Эскальдес-Энджордани","country":"AD","lat":42.507,"lon":1.534,"pop":15853,"tz":"Europe/Andorra"},{"id":3123504,"name":"El Escorial","local":"Эль-Эскориаль","country":"ES","lat":40.583,"lon":-4.128,"pop":15842,"tz":"Europe/Madrid"},{"id":4354234,"name":"Elkton","local":"Элктон","country":"US","lat":39.607,"lon":-75.833,"pop":15782,"tz":"America/New_York"},{"id":2934020,"name":"Eberbach","local":"Эбербах","country":"DE","lat":49.467,"lon":8.99,"pop":15624,"tz":"Europe/Berlin"},{"id":2933101,"name":"Eggenstein-Leopoldshafen","local":"Эггенштайн-Леопольдсхафен","country":"DE","lat":49.09,"lon":8.399,"pop":15189,"tz":"Europe/Berlin"}]